name,main_category,category,categoryName,address,street,neighborhood,city,state,postal,country,lat,lng,phone,phoneUnformatted,website,placeId,place_id,rank,rating,reviewsCount,reviews_count,weekly_hours,hours,permanentlyClosed,temporarilyClosed,price,imageUrl
Maharani beauty salon and academy,Beauty school,Beauty school,Beauty school,,,,,,,0,27.721898,85.2923583,+977 982-3331966,+9779823331966,,ChIJTzfmTNgIXaoRfhB2dRhdg6Q,ChIJTzfmTNgIXaoRfhB2dRhdg6Q,11,5.0,,0,0.0,0,False,False,,https://lh3.googleusercontent.com/p/AF1QipNhn3i_5FxgtOWsuj_ohgzxn4PqLMGTYsabi69T=w408-h607-k-no
Sringar Beauty Training Center,Beauty school,Beauty school,Beauty school,"Lolang height, Kathmandu 44600, Nepal",Lolang height,Goldhunga,Kathmandu,,44600,NP,27.7538889,85.2939514,+977 984-1525705,+9779841525705,,ChIJW-JyyuUY6zkRB9pg5hW-rBs,ChIJW-JyyuUY6zkRB9pg5hW-rBs,12,5.0,,0,9.0,10 AM to 7 PM,False,False,,https://lh3.googleusercontent.com/p/AF1QipO9wvr58VQpQ7vU9JfYMZoqvhUktHrEGoBLiY4d=w408-h306-k-no
Gym Ghar,Boxing gym,Boxing gym,Boxing gym,"Kathmandu 44600, Nepal",,Kalimati,Kathmandu,,44600,NP,27.7002471,85.2830716,,,https://www.facebook.com/Gymgharofficial-100756068879432/,ChIJI1FEzKkZ6zkRr3XX1wDmDe4,ChIJI1FEzKkZ6zkRr3XX1wDmDe4,15,4.9,,0,14.0,6 AM to 8 PM,False,False,,https://lh3.googleusercontent.com/p/AF1QipMkRJIy79p2JRndGankMNJ2cMluDTzRprqiZPjt=w408-h306-k-no
Rock Star Mma Muay Thai Club,Muay Thai boxing gym,Muay Thai boxing gym,Muay Thai boxing gym,"Kathmandu 44600, Nepal",,dhungedhara,Kathmandu,,44600,NP,27.7239392,85.2930742,+977 970-3051928,+9779703051928,https://www.facebook.com/profile.php?id=61555949574822&mibextid=ZbWKwL,ChIJS-D68VoZ6zkRByUXRw9zZW4,ChIJS-D68VoZ6zkRByUXRw9zZW4,6,5.0,,0,14.0,6 AM to 8 PM,False,False,,https://streetviewpixels-pa.googleapis.com/v1/thumbnail?panoid=wZnrZXDwqGG-YmapZpGZdQ&cb_client=search.gws-prod.gps&w=408&h=240&yaw=19.408844&pitch=0&thumbfov=100
NOVA Beauty Salon & Academy,Beauty school,Beauty school,Beauty school,"13 Bafal Marg, Kathmandu 44600, Nepal",13 Bafal Marg,Kalimati,Kathmandu,,44600,NP,27.7034729,85.2823602,+977 970-2131333,+9779702131333,,ChIJB0SQANUb6zkRYQtThoZGpdw,ChIJB0SQANUb6zkRYQtThoZGpdw,2,5.0,,0,6.0,11 AM to 5 PM,False,False,,https://lh3.googleusercontent.com/gps-cs-s/AHVAwepLjQd1FAdYYKRSDSWGnZFypgDXBJP8LDkPm3626E10yu8SnbfspaYqBCNT5d4pCR6uzea887XKIuk8Z2LMNAoZb2Yx3Gaw9dyYkvm6dDTAOMF27sYCiJQWgxo26Oazz54vlzlNtUMTAHk=w408-h540-k-no
Deprosc Laghubitta Bittiya Sanstha Ltd. Corporate office,Corporate office,Corporate office,Corporate office,"R.K. Complex, Kathmandu 44600, Nepal",R.K. Complex,Sitapaila,Kathmandu,,44600,NP,27.7076361,85.2816835,,,,ChIJOYiy2roZ6zkRyUT7bYmynvw,ChIJOYiy2roZ6zkRyUT7bYmynvw,11,5.0,,0,10.0,7:30 AM to 5:30 PM,False,False,,https://lh3.googleusercontent.com/gps-cs-s/AHVAweqDTkNeFHpzlAc_Jd7TnBceNmeYHDhhayF_WfiGC9oVUPbTXfhxEpHRmGbXYKP7ldE9O_lgds7zfxs_AXutIxE9hP8hp1MWmkquwgZATb9YArupXNO_z_X0KtuG6Us02NhKAdTm=w408-h306-k-no
"Substation 2, Balaju Industrial District Management Office",Government office,Government office,Government office,"P8G2+V6Q, Kathmandu 44600, Nepal",P8G2+V6Q,Balaju,Kathmandu,,,NP,27.7272239,85.3006149,+977 1-4350520,+97714350520,,ChIJbxHncxkZ6zkRB6820Fecocw,ChIJbxHncxkZ6zkRB6820Fecocw,5,0.0,,0,24.0,Open 24 hours,False,False,,https://lh3.googleusercontent.com/gps-cs-s/AHVAweqHl0pGynwKqweI6U-ZpVTd609mrrbohY_edfUPE6c2tprgWUuDkwAmlfCY3x1-99Ep5cLyDFcW_jjhq5HlQC4hqi7OTc46sIw5MrsXxQli1vtKGs0rEgbvDsqQr4gNXAPnIE6e=w426-h240-k-no
MANTANANCE LAND MASURMENT DEPARTMENT DILLIBAZER BRANCH,Federal government office,Federal government office,Federal government office,"P7CP+J38, Kathmandu 44600, Nepal",P7CP+J38,Ichangunarayan,Kathmandu,,,NP,27.7215444,85.2851946,,,,ChIJm1pne-8Z6zkRJBBz8OBOKXc,ChIJm1pne-8Z6zkRJBBz8OBOKXc,19,0.0,,0,0.0,0,False,False,,https://streetviewpixels-pa.googleapis.com/v1/thumbnail?panoid=2VgaxMHsQ03oEKaD-VaFBg&cb_client=search.gws-prod.gps&w=408&h=240&yaw=113.281784&pitch=0&thumbfov=100
Federal Govt Infrastructure Dev Ministry (Transport Management Office),Government office,Government office,Government office,"Unnamed Road, Kathmandu 44600, Nepal","Unnamed Road, Kathmandu 44600",Sitapaila,Nagarjun,,,NP,27.7127535,85.2822758,,,,ChIJ2-6tGHAZ6zkRL6z2UDsjz2c,ChIJ2-6tGHAZ6zkRL6z2UDsjz2c,4,0.0,,0,0.0,0,False,False,,https://lh3.googleusercontent.com/gps-cs-s/AHVAweothM-TYz1kF_juvNQlCIpNtKfKYOxpcXQd0GVcuWCA9be69Dqi8h5ykWBP5bHZjijzdI27CpssepmwF9ze8NDkZd0-C4oSaTmAOQp9nbqzW45IlZvBh9cfBDqyu8WM9WZGO8NHtQ=w408-h725-k-no
Tarkeshwar NP - 5 No. Ward Office,Federal government office,Federal government office,Federal government office,"Q73M+667, Trishuli Hwy, Tarakeshwar 44600, Nepal","Q73M+667, Trishuli Hwy",Goldhunga,Tarakeshwar,,44600,NP,27.7530287,85.2830499,+977 1-5113020,+97715113020,,ChIJFyRosKsf6zkR0qtIFREn5Vk,ChIJFyRosKsf6zkR0qtIFREn5Vk,14,3.7,,0,24.0,Open 24 hours,False,False,,https://lh3.googleusercontent.com/gps-cs-s/AHVAwer02nxzlXlzJRrRUgNYNOZZRUn1japg022abMt8RwxdjnitF-UpP4zmhBS9-Tyi1IEYzB1_jwTuXEOVMC90IUqrm4oUi_LvJ3DmlSaCuod6AZnVhobIDTjx0zyHpaUii6dCqCYUGw=w408-h544-k-no
House of interior pvt ltd,Corporate office,Corporate office,Corporate office,"Q73M+C48, Tarakeshwar 44600, Nepal",Q73M+C48,Goldhunga,Tarakeshwar,,44600,NP,27.753541,85.2828312,+977 984-1367446,+9779841367446,,ChIJ6TjcKAAf6zkReidkm6DATqY,ChIJ6TjcKAAf6zkReidkm6DATqY,6,0.0,,0,0.0,0,False,False,,https://streetviewpixels-pa.googleapis.com/v1/thumbnail?panoid=Y0l_EeOP-fimcC5oedpIbQ&cb_client=search.gws-prod.gps&w=408&h=240&yaw=15.22912&pitch=0&thumbfov=100
Goldhunga Public Gym,Gym,Gym,Gym,"Q75P+W3C, Tarakeshwar 44600, Nepal",Q75P+W3C,Goldhunga,Tarakeshwar,,44600,NP,27.7598037,85.2851393,,,,ChIJu6AKXAAf6zkRyfdg_qbEKKs,ChIJu6AKXAAf6zkRyfdg_qbEKKs,1,3.0,,0,24.0,Open 24 hours,False,False,,https://streetviewpixels-pa.googleapis.com/v1/thumbnail?panoid=-x8lL7DYlTWsacnQUk8WaA&cb_client=search.gws-prod.gps&w=408&h=240&yaw=340.5607&pitch=0&thumbfov=100
Pumpkin Seeds,Food bank,Food bank,Food bank,"M7W9+C5Q, Chandragiri 44600, Nepal",M7W9+C5Q,Purano Naikap,Chandragiri,,44600,NP,27.6961471,85.2680924,,,,ChIJIRFzZwAj6zkRlLTr7RjwJtM,ChIJIRFzZwAj6zkRlLTr7RjwJtM,17,0.0,,0,0.0,0,False,False,,https://streetviewpixels-pa.googleapis.com/v1/thumbnail?panoid=zfpg0m8gHbchYoGHc12XYg&cb_client=search.gws-prod.gps&w=408&h=240&yaw=352.12485&pitch=0&thumbfov=100
Kathmandu Metropolitan City Office Ward No. 15,Local government office,Local government office,Local government office,"P77V+3RJ, Bhuwankhel Marg, Kathmandu 44620, Nepal","P77V+3RJ, Bhuwankhel Marg",Chhauni,Kathmandu,,44620,NP,27.7127037,85.2945216,+977 1-4277133,+97714277133,http://www.kathmandu.gov.np/,ChIJLw2GGfMY6zkRXnhU3soTFGg,ChIJLw2GGfMY6zkRXnhU3soTFGg,11,3.3,,0,7.0,10 AM to 5 PM,False,False,,https://lh3.googleusercontent.com/gps-cs-s/AHVAwepv65nTeerHQwFmgugFO5kBVu1JINIU5Zhb6xNvWyMPa5BD6_dKW8Ofem3oM4xkiMp0mLnz9oeAEuLz4_4iwshrW6CeG0riEkePFzRin--AyEzf_pp8XGNl9_xzkMZQRrer7xNoow=w408-h906-k-no
Shree Sainik Shikchhyan Pachhya,Military school,Military school,Military school,"44600, Kathmandu, Nepal",44600,Tahachal,Kathmandu,,,NP,27.7057839,85.2866635,,,,ChIJ4STSlIkY6zkREpNJj51LDag,ChIJ4STSlIkY6zkREpNJj51LDag,1,5.0,,0,0.0,0,False,False,,https://lh3.googleusercontent.com/gps-cs-s/AHVAweprssv3SeJvPDWD4f9g-CEa-7SmaVuTDnB8If7vhGVd0rXYvTx84RI0QiwoTDzqywiddzAT0mW9xezF1m1HiN7RqVSUQUvmtfq2YMC40jYiptbo2dZ2MkkMV_qACGI2mor7848=w408-h272-k-no
RiverField Fitness & Gym,Gym,Gym,Gym,"P8C2+392, Khusibu Sadak, Kathmandu 44600, Nepal","P8C2+392, Khusibu Sadak",,Kathmandu,,44600,NP,27.7201265,85.3008892,+977 984-9105418,+9779849105418,,ChIJndFLwXEZ6zkR61j4BzkKY1M,ChIJndFLwXEZ6zkR61j4BzkKY1M,19,4.5,,0,15.0,5:30 AM to 8:30 PM,False,False,,https://lh3.googleusercontent.com/gps-cs-s/AHVAwerNwf4eSHN-vgR0NDFCUxzid_tDPwovVpBNuxD2m1oJO64_5qWkOHk5e44tAcB8izNmgWVjjX5tYVlOP0Gsk7VfKOqzkOEW8ZNXahg--BNEVtU9nw0pVKsp7H0FFwroOOE5Zywq=w408-h306-k-no
Allfit fitness sano bypass,Gym,Gym,Gym,"sano bypass, Kathmandu 44600, Nepal",sano bypass,Dharmasthali,Kathmandu,,44600,NP,27.7678133,85.2973626,+977 985-1002265,+9779851002265,,ChIJX2JZZJ4f6zkRDjYtqBReST4,ChIJX2JZZJ4f6zkRDjYtqBReST4,15,5.0,,0,16.0,4 AM to 8 PM,False,False,,https://streetviewpixels-pa.googleapis.com/v1/thumbnail?panoid=txUscuC7VB1XshyHmgPlwA&cb_client=search.gws-prod.gps&w=408&h=240&yaw=288.63126&pitch=0&thumbfov=100
Fitness Express,Gym,Gym,Gym,"Nagarjun 44600, Nepal",,Ramkot,Nagarjun,,44600,NP,27.7186329,85.2626968,+977 984-1281922,+9779841281922,,ChIJa8AvhUMj6zkRJLGKZHK1VdA,ChIJa8AvhUMj6zkRJLGKZHK1VdA,16,4.9,,0,16.0,5 AM to 9 PM,False,False,,https://lh3.googleusercontent.com/p/AF1QipOO-ehiv4MPHN-l6Mwmx81jJr2-ZfeMOa5B9abZ=w408-h725-k-no
Asali Fitness Club,Gym,Gym,Gym,"Sanopul, Lolang, Kathmandu 44600, Nepal","Sanopul, Lolang",Goldhunga,Kathmandu,,44600,NP,27.7467335,85.2988372,+977 976-3230750,+9779763230750,,ChIJs38HGaQZ6zkRBvn1zon_nrk,ChIJs38HGaQZ6zkRBvn1zon_nrk,6,5.0,,0,15.5,5 AM to 8:30 PM,False,False,,https://lh3.googleusercontent.com/gps-cs-s/AHVAweqBUbkDK8nRCQzTI4ztW8toKTDYtFSOb24TPN7DkeRTsQq8cLEs9V__K_XcI0Ke2Sx012dnLqkCLJPBVmlTpTC0HzjKdxqyDZhHmxNOHKzodS7lcAnptzGSiMeGf_gV4hNUe1w=w408-h306-k-no
Active 3 Gym & Fitness Club,Gym,Gym,Gym,"Next to C.N Mart, Tarakeshwor, 8 Lambagar, Kathmandu 44600, Nepal","Next to C.N Mart, Tarakeshwor, 8 Lambagar",Manamaiju,Kathmandu,,44600,NP,27.7473147,85.3010497,+977 984-1313517,+9779841313517,https://facebook.com/active3fitnessclub,ChIJ34jK2R0Z6zkRTB7HvzyvlH8,ChIJ34jK2R0Z6zkRTB7HvzyvlH8,4,4.8,,0,16.5,5 AM to 9:30 PM,False,False,,https://lh3.googleusercontent.com/gps-cs-s/AHVAweoZi974Q1nO3td9KCiBcTLXjk6NC11EEnWF9zA-iJ5ZzTLcxm28MDc4nmwrzmfXELoSBwqmUNTCbmg77rjXxleWvk8LMtU-LhsVMHAj0n0e5YTkEVINcZ_JTmUOPnMJcBtfoKrGig=w426-h240-k-no
Kalanki Gym Center,Gym,Gym,Gym,"opposite Makalu Petrol pump, Ring Rd, Kathmandu 44600, Nepal","opposite Makalu Petrol pump, Ring Rd",Kalimati,Kathmandu,,44600,NP,27.696269,85.2820301,+977 986-4159137,+9779864159137,https://www.instagram.com/kalankigymcenter/,ChIJ7bHrWnUZ6zkRwCbu9KbwOFg,ChIJ7bHrWnUZ6zkRwCbu9KbwOFg,13,4.0,,0,15.5,5 AM to 8:30 PM,False,False,,https://lh3.googleusercontent.com/p/AF1QipPmil33lIMwsBwNsE1LbNC8sDR_6nB4wmFBAZVD=w408-h306-k-no
S3 Fitness,Gym,Gym,Gym,"P7XW+49C, Tarakeshwar 44600, Nepal",P7XW+49C,Goldhunga,Tarakeshwar,,,NP,27.7478082,85.2959033,+977 986-1246039,+9779861246039,,ChIJW0bzOgAZ6zkRPIbaZ4CR9Iw,ChIJW0bzOgAZ6zkRPIbaZ4CR9Iw,1,4.9,,0,15.5,5 AM to 8:30 PM,False,False,,https://lh3.googleusercontent.com/gps-cs-s/AHVAweqUj-Jwxs6h-5e-NrwsVvqdXqtUrmcidZJNTd9HloOBMQYIlLUpIg9SOvsXBt2AG5953t0fsZDQ7o1M2fTCRCC-UvHMbGRmJjuMzgpsd0nkjG1jBv24mle91l6WGerhl0kKY9PW3CqrZ4JT=w408-h306-k-no
Pasang Lhamu Sh,Memorial park,Memorial park,Memorial park,"P79Q+632, Swayambhu Cir Rd, Kathmandu 44620, Nepal","P79Q+632, Swayambhu Cir Rd",Swayambhu,Kathmandu,,44620,NP,27.718019,85.2876299,,,,ChIJ1YysiZEY6zkRHfszP8V2Zxo,ChIJ1YysiZEY6zkRHfszP8V2Zxo,19,3.9,,0,0.0,0,False,False,,https://lh3.googleusercontent.com/gps-cs-s/AHVAwepcrnRocnNy0UD4F_WdYQaadmsKdtx5RAn3gIuXbA5Mb4x2E_y1RxA8OUGCns3d22PQcEmX_xZ1ykaWb49FduoXWcmVCTmJDz1p0zr6peg-OEQG8NrrJ2W3lOiPlCsBXd1ln-LN8g=w408-h306-k-no
Earthquake Memorial park,Park,Park,Park,"P74Q+G9M, Kathmandu 44600, Nepal",P74Q+G9M,Chhauni,Kathmandu,,44600,NP,27.7065081,85.2884511,,,,ChIJ850wjEUZ6zkRuvgxmsRjLVY,ChIJ850wjEUZ6zkRuvgxmsRjLVY,5,4.9,,0,14.0,6 AM to 8 PM,False,False,,https://lh3.googleusercontent.com/gps-cs-s/AHVAweoAbbCRcwveFHu2DoYa2dzqJckCqukJj4EthCF5HcUU_od5QUPJNlOVjdYFbygL-_qP1Soul0SNEXAZqH0AWroVfKkmHVOfGfsvhyIR9O8mcfUB9SwIEBfrS7g41caPJmlFxr2M=w408-h306-k-no
Buddha Smiriti Park,Park,Park,Park,"Q78X+HJW, Tarakeshwar 44600, Nepal",Q78X+HJW,Dharmasthali,Tarakeshwar,,44600,NP,27.7664873,85.299078,,,,ChIJhRJLCH0f6zkROpV-Og0uhYk,ChIJhRJLCH0f6zkROpV-Og0uhYk,14,3.5,,0,0.0,0,False,False,,https://streetviewpixels-pa.googleapis.com/v1/thumbnail?panoid=7mQWHUBog3XOAs5G04pjLw&cb_client=search.gws-prod.gps&w=408&h=240&yaw=89.26258&pitch=0&thumbfov=100
Raniban Park,Park,Park,Park,"P7PQ+GGX Ward no 1, Raniban Park, Nagarjung, Kathmandu 44600, Nepal","P7PQ+GGX Ward no 1, Raniban Park, Nagarjung",Balaju,Kathmandu,,44600,NP,27.7363667,85.2888608,,,,ChIJaVMISN0Z6zkRVFRG0Zyuu_I,ChIJaVMISN0Z6zkRVFRG0Zyuu_I,20,4.1,,0,14.0,6 AM to 8 PM,False,False,,https://lh3.googleusercontent.com/gps-cs-s/AHVAwerKlU5nV7tVxbdDzno2addJlLGifjN_xQrFp3MnJ4xkhtiLm7fqEoQiZT4g8IOIvXBMQWWPXxKXlPUvqgBirXAWQedWbHC6FJizWlIe_vv_voF7krZIL3siWeO8QkDislLExGLM=w408-h307-k-no
Rastriya Swatantra Party - RSP - राष्ट्रिय स्वतन्त्र पार्टी,Political party office,Political party office,Political party office,"Banasthali, 16 रिङ्ग रोड, Kathmandu 44600, Nepal","Banasthali, 16 रिङ्ग रोड",Swayambhu,Kathmandu,,44600,NP,27.7244166,85.2997724,+977 985-1360666,+9779851360666,https://rspnepal.org/,ChIJU5heFNQZ6zkR6WFxwdZskfM,ChIJU5heFNQZ6zkR6WFxwdZskfM,7,4.7,,0,9.0,9 AM to 6 PM,False,False,,https://lh3.googleusercontent.com/p/AF1QipOYZ8HLruxFCKShXPgcYXwWClYneeWqSlYf3oli=w426-h240-k-no
"Urban Health Center-11, Tarakeshwor Municipality",Government office,Government office,Government office,"11 Bindabasini Temple, Tarakeshwar 44600, Nepal",11 Bindabasini Temple,Nepaltar,Tarakeshwar,,,NP,27.7771357,85.3012475,,,,ChIJNydwSQAf6zkRDnW8gPALOxw,ChIJNydwSQAf6zkRDnW8gPALOxw,3,0.0,,0,0.0,0,False,False,,https://streetviewpixels-pa.googleapis.com/v1/thumbnail?panoid=KoV7XcnXN3HZAaEFmBITvw&cb_client=search.gws-prod.gps&w=408&h=240&yaw=142.32703&pitch=0&thumbfov=100
AvhiRaj Bhai तराई जिउँदो माछा पसल.maxa,Garden,Garden,Garden,"Q8M2+QCH, Q8M2+QCJTarakeshwar 44600, Nepal",Q8M2+QCH,Kavresthali,Q8M2+QCJTarakeshwar,,44600,NP,27.7844409,85.3011225,,,,ChIJiwSEVAAf6zkRQmFoSNfw6PQ,ChIJiwSEVAAf6zkRQmFoSNfw6PQ,23,5.0,,0,0.0,0,False,False,,https://lh3.googleusercontent.com/gps-cs-s/AHVAwer-ir0mGkSnIdmOMBhUuxH91-t0l5togUniJuM8704PDYb4M2v_PM0FyISbCrkMgymOm62r9-0ICyMOGxR-QG_BENVywmeqepumx5_vS96r-sjS9T89agQc79TS2eoL6J_AdVuHJTmjZqqr=w426-h240-k-no
Tarakeshwor Municipality Ward-3,Local government office,Local government office,Local government office,"Q7GH+P9J, Tarakeshwar 44600, Nepal",Q7GH+P9J,Jitpur Phedi,Tarakeshwar,,44600,NP,27.7768284,85.2783796,,,,ChIJNzSbJmcf6zkRT-d86IGNRGk,ChIJNzSbJmcf6zkRT-d86IGNRGk,5,5.0,,0,0.0,0,False,False,,https://lh3.googleusercontent.com/gps-cs-s/AHVAwepNKjIX3_6PCmNdli6cPz5t5H9WJ6EJ1yMIAMeRA5TFMFXuhMjAncKRKndEczCohMudW4LqAv31q_csaWFj7PaHuGLHThUPv6UHISE4Jx7q0UdYoDrFQypx4q0m1C2LQzBKHs6-=w426-h240-k-no
Great Force Gym and Fitness,Fitness center,Fitness center,Fitness center,"Kathmandu 44600, Nepal",,Goldhunga,Kathmandu,,44600,NP,27.7552261,85.2950006,,,,ChIJqZAEEQAf6zkRUo2CKiaF0HE,ChIJqZAEEQAf6zkRUo2CKiaF0HE,13,4.3,,0,16.0,5 AM to 9 PM,False,False,,https://lh3.googleusercontent.com/gps-cs-s/AHVAweoCnZUvAWKid-DieNS7W9IXbxoyf02fgxoYPJqufycyxgXFxd-7kWSRMBnES_jaTYlQue3RlsJPvqZ7Bqw7nykb75M74cRUqoJNYhrZK5_ngCWWxyWU7XD2hLcUV4Azt861lWOp6M1yLpke=w408-h544-k-no
Royal photo & frame,Photography studio,Photography studio,Photography studio,"Devisthan, Kathmandu 44600, Nepal",Devisthan,Goldhunga,Kathmandu,,44600,NP,27.7502018,85.2881204,+977 985-1160429,+9779851160429,,ChIJX6gQZgAZ6zkRKlqq1HJ9Mcw,ChIJX6gQZgAZ6zkRKlqq1HJ9Mcw,18,5.0,,0,12.0,7 AM to 7 PM,False,False,,https://lh3.googleusercontent.com/gps-cs-s/AHVAwerc78bkTtBHZNFzaAfptJq1UM0dQAM59cvTl5aFYTCysKa1a1Ewr8P5zSPflB8AHHa8dLlUgcIiNVflfraLc8e3q2tAHR_LRG0wji_SKBQoVjcfblPhBwcBdNUubTT5B6NGmpU01IuR6MIg=w408-h288-k-no
Panash Studio,Photography studio,Photography studio,Photography studio,"Q7MR+MQ2, Tarakeshwar 44600, Nepal",Q7MR+MQ2,Jitpur Phedi,Tarakeshwar,,44600,NP,27.7847061,85.2919329,+977 984-3182425,+9779843182425,,ChIJB8QzJQAf6zkRUKi-z-xTryc,ChIJB8QzJQAf6zkRUKi-z-xTryc,1,5.0,,0,8.0,10 AM to 6 PM,False,False,,https://lh3.googleusercontent.com/p/AF1QipP5D7aVvePzCx7g8moy8-anYhANNHDKrHgys2Ji=w408-h670-k-no
Devithan Pani tanki,Park,Park,Park,"Q8Q2+R7P, Tarakeshwar 44600, Nepal",Q8Q2+R7P,Kavresthali,Tarakeshwar,,,NP,27.7895867,85.3006956,,,,ChIJB6l5WY8f6zkRHiSOLgh6KmE,ChIJB6l5WY8f6zkRHiSOLgh6KmE,28,0.0,,0,0.0,0,False,False,,https://streetviewpixels-pa.googleapis.com/v1/thumbnail?panoid=vV2W_ULCczACJPzZ2b4ofQ&cb_client=search.gws-prod.gps&w=408&h=240&yaw=251.00833&pitch=0&thumbfov=100
ख्यः पुखूः(पोखरी) Dhamathu Dharmasthali,Water park,Water park,Water park,"Q872+V9V, Tarakeshwar 44600, Nepal",Q872+V9V,Dharmasthali,Tarakeshwar,,44600,NP,27.7649597,85.3007184,,,,ChIJAZ5qYM8f6zkRoT_77z7kVKQ,ChIJAZ5qYM8f6zkRoT_77z7kVKQ,15,0.0,,0,0.0,0,False,False,,https://streetviewpixels-pa.googleapis.com/v1/thumbnail?panoid=BM-xkH0OvsxScbQ1cHJWfw&cb_client=search.gws-prod.gps&w=408&h=240&yaw=337.1517&pitch=0&thumbfov=100
Kabita Beauty parlour and cosmetics,Beauty salon,Beauty salon,Beauty salon,"school, Near, Okharpauwa 44900, Nepal","school, Near",,Okharpauwa,,44900,NP,27.7909757,85.2650679,+977 986-0667323,+9779860667323,,ChIJwUEEiK8h6zkRfioKC3PUlag,ChIJwUEEiK8h6zkRfioKC3PUlag,1,5.0,,0,0.0,0,False,False,,https://lh3.googleusercontent.com/p/AF1QipOTXGBlQk9BXpieU1soIaR4CngSeiwC3GWW4tIV=w1025-h240-k-no
Nirjara Beauty Salon : Best Beauty Parlour in Kathmandu,Beauty salon,Beauty salon,Beauty salon,"Chunne Bhairab Marg, Kathmandu 44600, Nepal",Chunne Bhairab Marg,Rabibhawan,Kathmandu,,44600,NP,27.6953475,85.2884313,+977 985-1097472,+9779851097472,http://www.facebook.com/nirjaramakeupstudio,ChIJt2zmPlUZ6zkR3GpwOIj8eUk,ChIJt2zmPlUZ6zkR3GpwOIj8eUk,3,4.8,,0,13.5,8:30 AM to 10 PM,False,False,,https://lh3.googleusercontent.com/gps-cs-s/AHVAweqVXVnQ-PJ1qDtVWo6Pukir9upHO9P06x6r7YjWy8qAh-ikt4erKGsLs8tv2y3YLgHEHlwJwlDuA3zxXBGDX5agoN-UsSj0zg24X1x254tQ9qHfNQ7O1VrzFxiuIQQ6hLNWdlnEjKtAlTO-=w408-h544-k-no
Goshwara Post Office,Post office,Post office,Post office,"P77F+WHR, Swotantra Marg, Nagarjun 44600, Nepal","P77F+WHR, Swotantra Marg",Sitapaila,Nagarjun,,44600,NP,27.7148725,85.2738677,,,,ChIJ6cgfdAAZ6zkReR2ii_ApGTA,ChIJ6cgfdAAZ6zkReR2ii_ApGTA,14,0.0,,0,0.0,0,False,False,,https://streetviewpixels-pa.googleapis.com/v1/thumbnail?panoid=t2xBvZZ2RooLlqmRR2EQmA&cb_client=search.gws-prod.gps&w=408&h=240&yaw=232.95203&pitch=0&thumbfov=100
Royal Global Courier,Post office,Post office,Post office,"44600 Siddhicharan Marg, Kathmandu 44600, Nepal",44600 Siddhicharan Marg,Swayambhu,Kathmandu,,44600,NP,27.7232084,85.2968346,+977 980-3122695,+9779803122695,,ChIJS_l3RgAZ6zkRfApGe4r2lQc,ChIJS_l3RgAZ6zkRfApGe4r2lQc,9,4.2,,0,0.0,0,False,False,,https://streetviewpixels-pa.googleapis.com/v1/thumbnail?panoid=yxoDQaa2sHrR4Z-dJF9I7w&cb_client=search.gws-prod.gps&w=408&h=240&yaw=108.0841&pitch=0&thumbfov=100
Police station,Post office,Post office,Post office,"P78M+GJF, Kathmandu 44600, Nepal",P78M+GJF,Swayambhu,Kathmandu,,44600,NP,27.716308,85.2840398,,,,ChIJCcugMAAZ6zkROG0ni2REV_c,ChIJCcugMAAZ6zkROG0ni2REV_c,18,0.0,,0,0.0,0,False,False,,https://streetviewpixels-pa.googleapis.com/v1/thumbnail?panoid=gsSm_bo_GpbzX3IJaiRN5Q&cb_client=search.gws-prod.gps&w=408&h=240&yaw=140.57376&pitch=0&thumbfov=100
Ichha chok gupteshwor dham,Post office,Post office,Post office,"Q74X+226, Tarakeshwar 44600, Nepal",Q74X+226,Goldhunga,Tarakeshwar,,,NP,27.7550449,85.2975139,,,,ChIJd23WIAAf6zkRf9-SvzhjJ_c,ChIJd23WIAAf6zkRf9-SvzhjJ_c,7,0.0,,0,0.0,0,False,False,,https://streetviewpixels-pa.googleapis.com/v1/thumbnail?panoid=VtKelNB-GnWAdLwa-wzZHg&cb_client=search.gws-prod.gps&w=408&h=240&yaw=184.96965&pitch=0&thumbfov=100
सिम्पानी धारा,Water park,Water park,Water park,"P7PJ+G4Q, Raniban Rd, Nagarjun 44600, Nepal","P7PJ+G4Q, Raniban Rd",Ichangunarayan,Nagarjun,,44600,NP,27.7360034,85.2800772,,,,ChIJv1PBqxgZ6zkR8bjSXVHusOE,ChIJv1PBqxgZ6zkR8bjSXVHusOE,12,3.0,,0,0.0,0,False,False,,https://streetviewpixels-pa.googleapis.com/v1/thumbnail?panoid=py9tu5_xyps4Eq48XL5KdA&cb_client=search.gws-prod.gps&w=408&h=240&yaw=87.195625&pitch=0&thumbfov=100
Balaju Park,Park,Park,Park,"P8M2+GFM, Trishuli Hwy, Kathmandu 44600, Nepal","P8M2+GFM, Trishuli Hwy",Balaju,Kathmandu,,44600,NP,27.7338465,85.3011804,+977 986-1689768,+9779861689768,,ChIJcVnYYsMY6zkRIKpbPypjzLc,ChIJcVnYYsMY6zkRIKpbPypjzLc,10,4.1,,0,14.0,6 AM to 8 PM,False,False,,https://lh3.googleusercontent.com/gps-cs-s/AHVAweofkxmsrV7mtEC-gF7BECm8e6qRUka_2MHwlxlpsqyeVIA7qV86kkkbFP_21GtVjXRjlPoiLXrRfJPxA8vf5y5IGzDQpzApYiqAsl8yMzuH3azAvgCd3kUEAXmNGhZ3Hg4KYAVPww=w426-h240-k-no
सुचना संकलन केन्द्र जाने बाटो ।,Post office,Post office,Post office,"P6FX+55, Nagarjun 44600, Nepal",P6FX+55,Ramkot,Nagarjun,,44600,NP,27.7229711,85.2478927,,,,ChIJCSJpGDUj6zkRwufC-lsigWk,ChIJCSJpGDUj6zkRwufC-lsigWk,12,4.0,,0,24.0,Open 24 hours,False,False,,https://streetviewpixels-pa.googleapis.com/v1/thumbnail?panoid=qiU2U2MSqNCTMLmBLYrFog&cb_client=search.gws-prod.gps&w=408&h=240&yaw=82.030975&pitch=0&thumbfov=100
The Well Tap,Water park,Water park,Water park,"P7HW+979, Near Bhairavi Chowk, Kathmandu 44600, Nepal","P7HW+979, Near Bhairavi Chowk",Balaju,Kathmandu,,44600,NP,27.7284072,85.2957189,,,,ChIJt-LFLMAY6zkRuDz7p7ChN28,ChIJt-LFLMAY6zkRuDz7p7ChN28,7,3.4,,0,24.0,Open 24 hours,False,False,,https://lh3.googleusercontent.com/gps-cs-s/AHVAweo5vuuK2u4pbUsQEANQnfSYYD-97uzMr-mJhK7hBLHN0Z6e8lk30lFBkdlzou0vMQgOaiawqvUmjkO_xVCxNunFhbVDigGD66_SeGcGreWSaRXqQvv65se3FuJ2pphuYBnYZjGp=w408-h306-k-no
तीन धारा रानीबन,Water park,Water park,Water park,"P7QQ+X5F, Raniban, Kathmandu, Nagarjun 44600, Nepal","P7QQ+X5F, Raniban, Kathmandu",Ichangunarayan,Nagarjun,,44600,NP,27.7409095,85.2865789,,,,ChIJm5EQbLAY6zkR6Nf0ygsZJVw,ChIJm5EQbLAY6zkR6Nf0ygsZJVw,8,4.6,,0,24.0,Open 24 hours,False,False,,https://lh3.googleusercontent.com/gps-cs-s/AHVAweqc5ZYDwWjvKL-ioT2Rs6B19UwMDF6t295_HW0SSg8MyY3Mhg_lsO4wi94Sx7M9OjotCYzXVKb1q78EnrS231iOz0Rs71z4GfNQfiearnWsaok_o3cHTYkTFyy5MFfHXcCM7H__Og=w408-h306-k-no
Mountain Muaythai,Gym,Gym,Gym,"P7JV+886, Kathmandu 44600, Nepal",P7JV+886,Balaju,Kathmandu,,44600,NP,27.7306641,85.2927242,,,,ChIJq6nSRAAZ6zkR5Ye7qfq7eqE,ChIJq6nSRAAZ6zkR5Ye7qfq7eqE,18,5.0,,0,0.0,0,False,False,,https://streetviewpixels-pa.googleapis.com/v1/thumbnail?panoid=crWvhPt-IlqFsrhYgESfbw&cb_client=search.gws-prod.gps&w=408&h=240&yaw=93.25516&pitch=0&thumbfov=100
R.G Fitness,Gym,Gym,Gym,"Kathmandu 44600, Nepal",,Annapurnachowk,Kathmandu,,44600,NP,27.7206977,85.2945406,+977 980-8413815,+9779808413815,,ChIJFxLe468Z6zkRX_Ci41tv-Q0,ChIJFxLe468Z6zkRX_Ci41tv-Q0,35,0.0,,0,14.5,5:30 AM to 8 PM,False,False,,https://streetviewpixels-pa.googleapis.com/v1/thumbnail?panoid=R6O8O0zmGjHnOxgb4bDnWQ&cb_client=search.gws-prod.gps&w=408&h=240&yaw=227.27473&pitch=0&thumbfov=100
"Raniban, Kathmandu",Gym,Gym,Gym,"P7HQ+GHH, Kathmandu 44600, Nepal",P7HQ+GHH,Balaju,Kathmandu,,44600,NP,27.7288054,85.2889792,,,,ChIJS4VLKAAZ6zkRaS3lnkCXbe0,ChIJS4VLKAAZ6zkRaS3lnkCXbe0,53,0.0,,0,0.0,0,False,False,,https://streetviewpixels-pa.googleapis.com/v1/thumbnail?panoid=SKJurGIF_dg7bq5g6jA6jQ&cb_client=search.gws-prod.gps&w=408&h=240&yaw=190.57817&pitch=0&thumbfov=100
Banasthali,Gym,Gym,Gym,"P7GW+3X5, Kathmandu 44600, Nepal",P7GW+3X5,Balaju,Kathmandu,,44600,NP,27.7251462,85.2974975,,,,ChIJ_dw2OQAZ6zkRHMrVr4bOzKQ,ChIJ_dw2OQAZ6zkRHMrVr4bOzKQ,46,5.0,,0,0.0,0,False,False,,https://streetviewpixels-pa.googleapis.com/v1/thumbnail?panoid=T1zzccl7etWWm0wRHJZ0-A&cb_client=search.gws-prod.gps&w=408&h=240&yaw=248.53192&pitch=0&thumbfov=100
Gymnasium and Spa,Gym,Gym,Gym,"P7GQ+FP8, Nagarjun 44600, Nepal",P7GQ+FP8,Ichangunarayan,Nagarjun,,44600,NP,27.7261773,85.2893422,,,,ChIJ83iznXsZ6zkRpooeLrdUkvQ,ChIJ83iznXsZ6zkRpooeLrdUkvQ,47,1.0,,0,0.0,0,False,False,,
APF Gym Block,Gym,Gym,Gym,"P79M+W8C, Nagarjun 44600, Nepal",P79M+W8C,Ichangunarayan,Nagarjun,,44600,NP,27.7198227,85.2832606,,,,ChIJ__-jkJAY6zkRdQBD-DWY7ys,ChIJ__-jkJAY6zkRdQBD-DWY7ys,43,0.0,,0,0.0,0,False,False,,https://streetviewpixels-pa.googleapis.com/v1/thumbnail?panoid=45OeMEuq-MtUmq6xCao3LQ&cb_client=search.gws-prod.gps&w=408&h=240&yaw=200.65833&pitch=0&thumbfov=100
Nagarjun Municipality Ward No - 3 Office,Local government office,Local government office,Local government office,"P7CF+XW9, Nagarjun 44600, Nepal",P7CF+XW9,Sitapaila,Nagarjun,,44600,NP,27.7224122,85.274854,,,,ChIJZcDw6P4Z6zkR9ZOyNiCzjws,ChIJZcDw6P4Z6zkR9ZOyNiCzjws,17,4.1,,0,7.0,10 AM to 5 PM,False,False,,https://lh3.googleusercontent.com/gps-cs-s/AHVAweoYum0_tCHAx3604eQBqu-AShBaDdLrl07FICunIIhrXLkf50vCHNMNgrEzWzPuvR9BNTY8jSqkfotOsSPTEiuKZK3-Kmt0xjLoBznsEbQ7H3GME4vTHxwDBsS1ddN6cFR4iHNIJA=w408-h544-k-no
Nagarjun - 1 No. Ward Office,Local government office,Local government office,Local government office,"P7PP+XWJ, Ichangu, Raniban, Nagarjun, Kathmandu, Kathmandu 44600, Nepal","P7PP+XWJ, Ichangu, Raniban, Nagarjun, Kathmandu",Balaju,Kathmandu,,44600,NP,27.7342031,85.2851284,,,,ChIJOQX4d7sY6zkR3sow-ZXZLM4,ChIJOQX4d7sY6zkR3sow-ZXZLM4,4,4.3,,0,0.0,0,False,False,,https://lh3.googleusercontent.com/gps-cs-s/AHVAwerfkf36kUAzNHaNE4kZzEBVpWSeO8duaGAnvr38OcgeCdy6MgQ30S3rsMxtudo6Dmb7qbGK2NupPaAgwtO4lM7RBhbq6uwNiikV8Ak15V8QhdT1buYQmc0Pu2ocRw11P80zzXuZ=w408-h306-k-no
Chittadhar Hridaya Statue,Memorial park,Memorial park,Memorial park,"M8X2+C53, Kathmandu 44600, Nepal",M8X2+C53,Kalimati,Kathmandu,,44600,NP,27.6985023,85.3004313,,,,ChIJu13x01sY6zkR3Pq5Li2UN7c,ChIJu13x01sY6zkR3Pq5Li2UN7c,17,4.0,,0,0.0,0,False,False,,https://lh3.googleusercontent.com/gps-cs-s/AHVAweqPs7P4p4S_bbhGwE52dUD7fWZXbx8gb3snRfnc5fRdr957V3ywx4ZTlV_bet8KuIv1zXTW2UdIg_wSxjlGhfJYL8WElsjYcoil5MBPqOPhAxYIoQn7yJZINJtFgK3Pzhc6WHUMHQ=w408-h544-k-no
Tarakeshwor Municipality Ward no: 4,Local government office,Local government office,Local government office,"P7RX+QG9, Trishuli Hwy, Tarakeshwar 44600, Nepal","P7RX+QG9, Trishuli Hwy",Goldhunga,Tarakeshwar,,44600,NP,27.7416858,85.2991719,,,,ChIJm3fZTgAZ6zkR3NmmqgMh4Z8,ChIJm3fZTgAZ6zkR3NmmqgMh4Z8,18,4.1,,0,7.0,10 AM to 5 PM,False,False,,https://lh3.googleusercontent.com/gps-cs-s/AHVAwepdxXIhLbYDeOKK1NKRTu0HVzJjw1QvDW8qbnaAZHyaMuruFM24tPQaxb21Oe78QU9hEgMof2ykZjwaaKQ_3hLOnOdD1jp4rjdFK_5_tV_CCZ-gKrj_BAU_2EYDBMFtLkF7XzG2=w408-h725-k-no
Siddhartha Park,Memorial park,Memorial park,Memorial park,"P76W+8PF, अमर चित्रकर मार्ग, Kathmandu 44600, Nepal","P76W+8PF, अमर चित्रकर मार्ग",Chhauni,Kathmandu,,44600,NP,27.7108075,85.2967868,,,,ChIJ__9Qi_MY6zkRXutYqRcrrU8,ChIJ__9Qi_MY6zkRXutYqRcrrU8,9,0.0,,0,0.0,0,False,False,,https://streetviewpixels-pa.googleapis.com/v1/thumbnail?panoid=Hoti4FqpDcKoYmu6Va9qZQ&cb_client=search.gws-prod.gps&w=408&h=240&yaw=223.74477&pitch=0&thumbfov=100
Prawaha Nepal,Environment office,Environment office,Environment office,"P7CQ+H8F, Sanobharyang Rd, Kathmandu 44600, Nepal","P7CQ+H8F, Sanobharyang Rd",Ichangunarayan,Kathmandu,,44600,NP,27.721447,85.2882985,+977 976-8614357,+9779768614357,,ChIJIbHDTwAZ6zkR_b7ckmdX6ec,ChIJIbHDTwAZ6zkR_b7ckmdX6ec,3,5.0,,0,8.0,9 AM to 5 PM,False,False,,https://streetviewpixels-pa.googleapis.com/v1/thumbnail?panoid=ovPjJwcqPR2eFCoejzU5BA&cb_client=search.gws-prod.gps&w=408&h=240&yaw=217.91225&pitch=0&thumbfov=100
Healthy heart fitness center ( thulo bharyang),Gym,Gym,Gym,"Thulobharyang, Kathmandu 44066, Nepal",Thulobharyang,ekdhara,Kathmandu,,44066,NP,27.7221898,85.2838916,,,,ChIJHfrIluIZ6zkRAmKnZLuGD2E,ChIJHfrIluIZ6zkRAmKnZLuGD2E,32,4.9,,0,15.0,5:30 AM to 8:30 PM,False,False,,https://lh3.googleusercontent.com/p/AF1QipNppLGm5HKuu510k2BJNdc8SdcqssMC7sKOTp3z=w426-h240-k-no
Fitness Corner,Gym,Gym,Gym,"P7GX+43R, Sai Baba Marg, Kathmandu 44600, Nepal","P7GX+43R, Sai Baba Marg",Balaju,Kathmandu,,44600,NP,27.7253687,85.297636,,,,ChIJkzGYLeoY6zkRZ-e886DjV-U,ChIJkzGYLeoY6zkRZ-e886DjV-U,13,4.0,,0,15.0,5 AM to 8 PM,False,False,,https://lh3.googleusercontent.com/gps-cs-s/AHVAweqttPS_TvXLRgG7d1iQbSWIQ88qjICAXHqSGCYuvLMl_HNbojUB02gaUVtWETgv7XRnWQRk8m0ayqXI_VVaPmHTMWF_qWz1NZtLdxoLNCLeOwdbibfI6b-zbhRhylANwmi0T6TWCQ=w408-h544-k-no
Yerahity Fitness,Gym,Gym,Gym,"Dhungedhara Road, Nagarjun 44600, Nepal",Dhungedhara Road,Ichangunarayan,Nagarjun,,44600,NP,27.7239852,85.2914307,+977 985-1132303,+9779851132303,,ChIJjTns6ZQY6zkREU0eGkOJ3qc,ChIJjTns6ZQY6zkREU0eGkOJ3qc,9,4.2,,0,14.5,5 AM to 7:30 PM,False,False,,https://lh3.googleusercontent.com/gps-cs-s/AHVAweobn26uR2SXyqSbk9idZq8RxLoaXl9RyiIIhJFEQIy3bdZCT0lAhd6OcJt7eMazhbI-ymOqV5E-7AvB9zZd3gZY5Sd1XYfZH3aC0x3y1wVgfnuaerN7isFP6VQ19Xkem5Kxv-J0=w408-h306-k-no
Belegend Shapes Fitness And Gym,Gym,Gym,Gym,"Kathmandu 44600, Nepal",,,Kathmandu,,44600,NP,27.7180463,85.3004563,+977 984-1278741,+9779841278741,,ChIJJ9v7iS4Z6zkRSaIIRWLX7gg,ChIJJ9v7iS4Z6zkRSaIIRWLX7gg,7,4.4,,0,16.0,5 AM to 9 PM,False,False,,https://lh3.googleusercontent.com/p/AF1QipPRtt_dryARkMrePrruy0Yv3TsFGvcIwTNYq9n9=w427-h240-k-no
FitX gym,Gym,Gym,Gym,"Kathmandu 44600, Nepal",,Balaju,Kathmandu,,44600,NP,27.7343872,85.2897254,+977 985-1350642,+9779851350642,,ChIJJWjNvcAZ6zkRdV8wj2JvixE,ChIJJWjNvcAZ6zkRdV8wj2JvixE,5,4.8,,0,15.5,5 AM to 8:30 PM,False,False,,https://lh3.googleusercontent.com/p/AF1QipPNwY_d6Hih92S4L3W2q_4LM4Z6fm3QUpaKFM-F=w408-h306-k-no
Tarakeshwor Municipality Office,Local government office,Local government office,Local government office,"Q872+V8V, Tarakeshwar 44600, Nepal",Q872+V8V,Dharmasthali,Tarakeshwar,,44600,NP,27.7647397,85.3007883,+977 1-5168111,+97715168111,http://tarakeshwormun.gov.np/,ChIJrVsxizof6zkRy-5fYSoUkVU,ChIJrVsxizof6zkRy-5fYSoUkVU,6,3.9,,0,6.0,10 AM to 4 PM,False,False,,https://lh3.googleusercontent.com/gps-cs-s/AHVAweo6r7aSWvPSV5c8ivgWNdCNgldAcHgsgKmBIiEjdvmnkt0PPbkW7TXQ1oid3dvYp7lir1Q2eX4eBZvM6xW837jBvTUqGyTBClK8dvSNkcJMecsRJeAvNyb69hRnROMHDGauiLw=w426-h240-k-no
River Side Park For Children,Park,Park,Park,"P8C2+J55, Khusibu Bishnumati Kinar Right, Kathmandu 44600, Nepal","P8C2+J55, Khusibu Bishnumati Kinar Right",,Kathmandu,,44600,NP,27.7215227,85.3004979,,,,ChIJgcVUCgAZ6zkR5015Pn_fm40,ChIJgcVUCgAZ6zkR5015Pn_fm40,18,0.0,,0,0.0,0,False,False,,https://streetviewpixels-pa.googleapis.com/v1/thumbnail?panoid=mheLLIjtubBwWxblNJ4sKA&cb_client=search.gws-prod.gps&w=408&h=240&yaw=347.79208&pitch=0&thumbfov=100
MasinGhaa. Biswo karma park,Park,Park,Park,"P79Q+F3G, Kathmandu 44600, Nepal",P79Q+F3G,Swayambhu,Kathmandu,,44600,NP,27.7181074,85.288722,,,,ChIJLwN2GwAZ6zkRzx0p7-nzyjg,ChIJLwN2GwAZ6zkRzx0p7-nzyjg,17,2.0,,0,0.0,0,False,False,,https://streetviewpixels-pa.googleapis.com/v1/thumbnail?panoid=qvCyOApQmXLtuD7Eq9Zz-g&cb_client=search.gws-prod.gps&w=408&h=240&yaw=325.30112&pitch=0&thumbfov=100
VISUALCRAFTS NEPAL,Photography studio,Photography studio,Photography studio,"15/Ropeway, Kathmandu 44600, Nepal",15/Ropeway,Swayambhu,Kathmandu,,44600,NP,27.7204446,85.2989168,+977 984-3673752,+9779843673752,,ChIJKY0-7_YZ6zkRmoo0B-m0elY,ChIJKY0-7_YZ6zkRmoo0B-m0elY,59,5.0,,0,0.0,12 to 5 PM,False,False,,https://lh3.googleusercontent.com/p/AF1QipP3oDE9cAJm3h6KXZZtIDG8tXHyYTsMLnwd9e2S=w408-h544-k-no
Seto Puul,Park,Park,Park,"P7FV+7MR, Dhungedhara Marg, Kathmandu 44600, Nepal","P7FV+7MR, Dhungedhara Marg",Balaju,Kathmandu,,44600,NP,27.7233011,85.2940388,,,,ChIJB4E6VAAZ6zkRrSJu3dWN-O8,ChIJB4E6VAAZ6zkRrSJu3dWN-O8,39,0.0,,0,0.0,0,False,False,,https://lh3.googleusercontent.com/gps-cs-s/AHVAwepvyk4DFiD9zkPlKNAEu2LuqHuP558pHLANX5THjsGCFIirLfHaubVzCeHXiAl8HZV9KY51EWcilEKXP4K1xBttblCG6qkUaFPkY2M6oLFuXFzscHEVlSEXxuwFpbTclnNr-6VIQRIlXv4=w408-h544-k-no
Welcome digital Photostudio,Photography studio,Photography studio,Photography studio,"P7FM+FFM, Kathmandu 44600, Nepal",P7FM+FFM,Ichangunarayan,Kathmandu,,44600,NP,27.723164,85.283821,,,,ChIJr9w6CgAZ6zkRSc6cBDHhz_s,ChIJr9w6CgAZ6zkRSc6cBDHhz_s,43,0.0,,0,0.0,0,False,False,,https://streetviewpixels-pa.googleapis.com/v1/thumbnail?panoid=pfwMOpKnrDPaTa88N6V4oQ&cb_client=search.gws-prod.gps&w=408&h=240&yaw=308.90555&pitch=0&thumbfov=100
Inlight Digital Photo Studio,Photography studio,Photography studio,Photography studio,"P7CM+CF9, Kathmandu 44600, Nepal",P7CM+CF9,Halchok,Kathmandu,,44600,NP,27.7210393,85.2837209,,,,ChIJM_FUWwAZ6zkRtvjdCcvtZyA,ChIJM_FUWwAZ6zkRtvjdCcvtZyA,56,5.0,,0,0.0,0,False,False,,https://lh3.googleusercontent.com/gps-cs-s/AHVAweqvHsHATqDXMEb5zHVD-HrtX5j-ZkKkeJda597IItrMpqgFwhfQRKoeI0gQS2L16Ese0jAs9riQbgdMwwIByPRP-CxG7rIbRt-PNdNyjJ8pvnOKgKcMxotH36R-fa-mNb7jFNZY=w408-h544-k-no
Company Registration Nepal,Registration office,Registration office,Registration office,"P7FX+P7G, Banasthali-16, Kathmandu 44600, Nepal","P7FX+P7G, Banasthali-16",Swayambhu,Kathmandu,,44600,NP,27.7244133,85.2981068,+977 984-9417661,+9779849417661,https://companyregisternepal.com/,ChIJ4eQBtnQZ6zkRTx8JKzilpbE,ChIJ4eQBtnQZ6zkRTx8JKzilpbE,5,4.8,,0,8.0,9 AM to 5 PM,False,False,,https://lh3.googleusercontent.com/p/AF1QipPEO97D3WYrREfVLocywp8ErIDa2I-yD3a9uCGy=w408-h408-k-no
Industrial Districts Management Ltd.,Office,Office,Office,"P8J2+54Q, Kathmandu 44600, Nepal",P8J2+54Q,Balaju,Kathmandu,,44600,NP,27.7304591,85.3003502,+977 1-4953133,+97714953133,,ChIJgz49V8IY6zkRPcAH3L8WX7s,ChIJgz49V8IY6zkRPcAH3L8WX7s,34,4.0,,0,0.0,0,False,False,,https://lh3.googleusercontent.com/gps-proxy/ALd4DhFbPymYr9S5qIBI4q5Z-XNc6q3qJDWxGakykz5_z9Ipef3U-Cns7QmKTONp_0pOPLUCKAB9y23j-kbjYniYUG3EnvzCsWXTHItrQeFH8aEtIVj2kOpnJKpHgyrsrPoE5cgtZTcUD5NaVRD6GSuAFphaPWI6C746lljj_JteIqki-0mj4VGxGFBg0cuPWC12D2I4CvY=w408-h306-k-no
Reliable Earthmovers Jcb,Corporate office,Corporate office,Corporate office,"P79P+R62, Nagarjun 44600, Nepal",P79P+R62,Ichangunarayan,Nagarjun,,44600,NP,27.7195136,85.2855237,+977 1-5249526,+97715249526,,ChIJWXWF2VwZ6zkRQ_EbA-tKvVg,ChIJWXWF2VwZ6zkRQ_EbA-tKvVg,53,4.5,,0,9.0,9 AM to 6 PM,False,False,,https://streetviewpixels-pa.googleapis.com/v1/thumbnail?panoid=-gw7gSgl-pJRYtQtGaxZpQ&cb_client=search.gws-prod.gps&w=408&h=240&yaw=189.03801&pitch=0&thumbfov=100
PanchaMahalaxmi Saving & Credit Limited,Corporate office,Corporate office,Corporate office,"P7HV+2JV, Nagarjun 44600, Nepal",P7HV+2JV,Balaju,Nagarjun,,44600,NP,27.727483,85.2940967,+977 1-4950114,+97714950114,,ChIJUcGuGAAZ6zkRg4NeOYNcHzQ,ChIJUcGuGAAZ6zkRg4NeOYNcHzQ,65,5.0,,0,7.0,10 AM to 5 PM,False,False,,https://lh3.googleusercontent.com/gps-cs-s/AHVAweoykmIqJzdHEtQX1wUty7s2rOFmyJF5ci0z71Pz2H0M4KkVBOykBi3gXfVLrWqV1TmttM6vNnVKaj1xJgcFg_pvfzEocymfAx21XcuB4NQY6jtUIYKE_DY8pBeWEoXJdhJKFG0=w408-h725-k-no
Precious Moments Np,Photography studio,Photography studio,Photography studio,"P7FP+8PR, Ring Rd, Nagarjun 44600, Nepal","P7FP+8PR, Ring Rd",Ichangunarayan,Nagarjun,,44600,NP,27.7231604,85.286765,,,,ChIJC4qsG6MZ6zkR3WMHTnNA-Xk,ChIJC4qsG6MZ6zkR3WMHTnNA-Xk,75,0.0,,0,0.0,0,False,False,,https://streetviewpixels-pa.googleapis.com/v1/thumbnail?panoid=9AwKkOSqrC2eGH0zyfihRw&cb_client=search.gws-prod.gps&w=408&h=240&yaw=293.40247&pitch=0&thumbfov=100
Bishal home,Photography studio,Photography studio,Photography studio,"P729+GPH, Nagarjun 44600, Nepal",P729+GPH,Balaju,Nagarjun,,44600,NP,27.731841,85.2982774,,,,ChIJNyKfGAAj6zkR3Qeoxf6Bi1U,ChIJNyKfGAAj6zkR3Qeoxf6Bi1U,76,0.0,,0,0.0,0,False,False,,https://streetviewpixels-pa.googleapis.com/v1/thumbnail?panoid=QXs2tZ9PQQS--bVDLjCGdg&cb_client=search.gws-prod.gps&w=408&h=240&yaw=150.80827&pitch=0&thumbfov=100
"राष्ट्रिय स्वतन्त्र पार्टी, नागार्जुन नगरपालिका",Political party office,Political party office,Political party office,"4 Nagarjun, Kathmandu 44600, Nepal",4 Nagarjun,Chhauni,Kathmandu,,44600,NP,27.7098435,85.2824816,+977 985-1034935,+9779851034935,,ChIJXQ9ekjQZ6zkRbbzqPniMn0g,ChIJXQ9ekjQZ6zkRbbzqPniMn0g,17,0.0,,0,1.0,11 PM to 12 AM,False,False,,https://lh3.googleusercontent.com/p/AF1QipOO6sV-uoyo-wt6SGdHS9dfT2MTMM4fy2jRZUyF=w408-h306-k-no
National parjatantr Party of Nepal,Political party office,Political party office,Political party office,"P77M+W6W, Ring Rd, Nagarjun 44600, Nepal","P77M+W6W, Ring Rd",Sitapaila,Nagarjun,,44600,NP,27.714861,85.283075,,,,ChIJA7wK8Y8Y6zkR-Bx6RNccKsI,ChIJA7wK8Y8Y6zkR-Bx6RNccKsI,16,0.0,,0,0.0,0,False,False,,https://streetviewpixels-pa.googleapis.com/v1/thumbnail?panoid=OHKDmqXtZ2UdLQn1IT2wQg&cb_client=search.gws-prod.gps&w=408&h=240&yaw=281.87506&pitch=0&thumbfov=100
Communist Party of Nepal-UML,Political party office,Political party office,Political party office,"M7XX+77X, Ganeshman Singh Rd, Kathmandu 44600, Nepal","M7XX+77X, Ganeshman Singh Rd",Kalimati,Kathmandu,,44600,NP,27.698233,85.2982349,,,,ChIJVxNQ-FsY6zkRzckcwelsRM4,ChIJVxNQ-FsY6zkRzckcwelsRM4,20,0.0,,0,0.0,0,False,False,,https://lh3.googleusercontent.com/gps-proxy/ALd4DhFkF8GnnHoeV1ZwbMAtVQp-MpILiMVp1Hq4RxN2TZDc8iMN57w9Qjw9cXy3CqP746bkZWa0H9A7fUyIZk7PMr5-5xchm2NED6OcAwU1FJd-PSTY4i0YB-7fZt7q73-xSQX87HumePiUSqp6lxCiMQc1lnZQyB2WSbDXZmDLluVQ4MYalO9qgVKX_Wou4p0HdSHQdoc=w426-h240-k-no
Ziva productions,Photography studio,Photography studio,Photography studio,"P8F2+678, Kathmandu 44600, Nepal",P8F2+678,Swayambhu,Kathmandu,,44600,NP,27.7230287,85.3006994,,,,ChIJA0cQDgAZ6zkRnAyrq9xVJpQ,ChIJA0cQDgAZ6zkRnAyrq9xVJpQ,73,5.0,,0,0.0,0,False,False,,https://streetviewpixels-pa.googleapis.com/v1/thumbnail?panoid=iOPRAuaQ60prUHUNRSITUg&cb_client=search.gws-prod.gps&w=408&h=240&yaw=95.44906&pitch=0&thumbfov=100
JunuS Beauty Salon,Beauty salon,Beauty salon,Beauty salon,"Kharibot Microstation - Kharibot Chowk, Kathmandu 16, Nepal",Kharibot Microstation - Kharibot Chowk,Balaju,Kathmandu,,16,NP,27.7308645,85.2939624,+977 984-9097360,+9779849097360,,ChIJIwrPi_0Z6zkRZ86jtbs0nm0,ChIJIwrPi_0Z6zkRZ86jtbs0nm0,93,5.0,,0,12.0,8 AM to 8 PM,False,False,,https://lh3.googleusercontent.com/gps-cs-s/AHVAweoqqLnjTIwTSfHmCO8oOFYbE29QJ7Tq0ZafAHKAQ0fnVOomTut-MlsJdh9P4DTCtc2TePa4XVDrQZ4vycMAq3SBcf6oeF6idwRdTuAZxuSK4I6jY1_6WheYvI609VeCFRZ5BUs=w408-h544-k-no
"Transport Management Service Office, [Vehicle Renewal]",State government office,State government office,State government office,"P7CQ+6VV, Ring Rd, Kathmandu 44600, Nepal","P7CQ+6VV, Ring Rd",Swayambhu,Kathmandu,,,NP,27.720619,85.2896722,+977 1-5249572,+97715249572,https://www.dotm.gov.np/,ChIJaejxmJMY6zkRL3Ow4ubmxfI,ChIJaejxmJMY6zkRL3Ow4ubmxfI,2,3.1,,0,10.0,10 AM to 8 PM,False,False,,https://lh3.googleusercontent.com/gps-cs-s/AHVAweqJJdY_-MekJLBip5zBQCCCSvIuJx2qBsCMuNo_U5Z5wkqY1qWdsIxXxFXkYQhVUGwt6-yLa3N7XPi0sTIoAwBwuisx4SeIO2B0Uer15jY0TENZaQGbJoB_jNX4QUAsHRMchk7h=w408-h544-k-no
फेमस फोटो स्टूडियो,Photography studio,Photography studio,Photography studio,"Ring Rd, Nagarjun 44600, Nepal",Ring Rd,Ichangunarayan,Nagarjun,,44600,NP,27.7206935,85.2863163,+977 984-1050387,+9779841050387,,ChIJEz4pP5EY6zkRo9pzbWNznpY,ChIJEz4pP5EY6zkRo9pzbWNznpY,20,5.0,,0,9.5,9 AM to 6:30 PM,False,False,,https://lh3.googleusercontent.com/gps-proxy/ALd4DhEQn4keH_EaGiKP5XW0bF48SWemq8Ww2_DsqCfLPtCBG7jTYtUVgw22yxdYgsE4W9Yipgcg6UQ4iYDaE17nvcpInCf7hxwrSd4vujH7TujaLVRLUsN09-5t0gnz7SjpWLcFZkoyUe0qzZoisFbgwDsdBx6dEpBekQNOdKWEDQssH66q5wVYaXi2Y4y0d4ha1n7SpBw=w408-h306-k-no
Mr. Swayambhu magazine office,Government office,Government office,Government office,"P79R+4PP, Swayambhu Cir Rd, Kathmandu 44600, Nepal","P79R+4PP, Swayambhu Cir Rd",Swayambhu,Kathmandu,,44600,NP,27.717832,85.291828,,,,ChIJMRwEwZIY6zkR-IVBqaxINYU,ChIJMRwEwZIY6zkR-IVBqaxINYU,20,3.0,,0,0.0,0,False,False,,https://lh3.googleusercontent.com/gps-proxy/ALd4DhFcUZaviJqsQIlJWBsV__HveIgz7MkUhZWIWnADIPBxoR79lbRv1u-YiZFPqtmy1SObSahRoz2hD-mihvO5ZJ-IikdAUZOM3inRbX_1WQDJmz4pIhVLzlAK8apHriiiI9yORq59I4P22H65XRqA39iqKLK8y5Zwl2zbd13G7wPqZv3w8OzXP0fdNQ-G5eevjGIQauA=w408-h306-k-no
Rkraj Photography,Photography studio,Photography studio,Photography studio,"Sunrise Height, Raniban Rd, Nagarjun 44600, Nepal","Sunrise Height, Raniban Rd",Ichangunarayan,Nagarjun,,44600,NP,27.7330568,85.2827839,+977 980-5891010,+9779805891010,,ChIJI2HqC6cZ6zkR11ABrwJZYwc,ChIJI2HqC6cZ6zkR11ABrwJZYwc,39,5.0,,0,24.0,Open 24 hours,False,False,,https://lh3.googleusercontent.com/p/AF1QipNJFZyAI_hqTWkXaHbJYe8U6Lzu15i1PtP-bF63=w426-h240-k-no
Ncell Sim Dealer/Distributor Satellite Nepal Pvt Ltd,Office,Office,Office,"P7CQ+9GX, Ring Rd, Nagarjun 44600, Nepal","P7CQ+9GX, Ring Rd",,Nagarjun,,44600,NP,27.720976,85.2888579,+977 1-4672060,+97714672060,,ChIJG63n8ZMY6zkR8o91S8oM0Io,ChIJG63n8ZMY6zkR8o91S8oM0Io,39,3.7,,0,7.0,10 AM to 5 PM,False,False,,https://lh3.googleusercontent.com/gps-cs-s/AHVAwer_rGgEjXTN4OqLMB3gLmPL7NXkoPi5cgwsZnjdbr1Lz21mu1e_dx30fscLf1twMTQVcCa4vf_KeXiMecvPbcxZR4tg6xRuT5VNSixHrWcbWHO_rDdeH3INWXWPgzfGMsx_gvY=w480-h240-k-no
FotoFilms,Photography studio,Photography studio,Photography studio,"Ravi Marg, Kathmandu 44600, Nepal",Ravi Marg,Swayambhu,Kathmandu,,44600,NP,27.7212992,85.2937414,+977 980-3032633,+9779803032633,https://www.instagram.com/fotofilms.np/,ChIJmwGsbIAZ6zkR8itHYFVso70,ChIJmwGsbIAZ6zkR8itHYFVso70,16,4.1,,0,9.0,9 AM to 6 PM,False,False,,https://streetviewpixels-pa.googleapis.com/v1/thumbnail?panoid=JZ4tJbDXiKG1GrxlRtr76Q&cb_client=search.gws-prod.gps&w=408&h=240&yaw=230.326&pitch=0&thumbfov=100
Sagun Photo Studio,Photography studio,Photography studio,Photography studio,"P7CP+4G5, Ring Rd, Nagarjun 44600, Nepal","P7CP+4G5, Ring Rd",Ichangunarayan,Nagarjun,,44600,NP,27.7202609,85.2863489,+977 984-1412562,+9779841412562,,ChIJc-85FZEY6zkRGUei_Xq0qJs,ChIJc-85FZEY6zkRGUei_Xq0qJs,17,5.0,,0,9.5,9 AM to 6:30 PM,False,False,,https://lh3.googleusercontent.com/gps-proxy/ALd4DhGBIOvrzAOt-sYF-ywalZSg4KRitUY5Lbg1RPCwI-EV9DE_MYj-2XGC4mebIo8zsMp-c1vs7YTMDQtKjGkcr7QR2a3T3Kvb0rIhi5fjxiOKl-H45Yl3W5iQF6BkebX5Lbeg3U1S-ptOKbTzhAz2mvRYR6hlpjBF14anOHniVhg7RhoQjBMHrzfX0Hw_L3fLjotz1BM=w408-h306-k-no
Banasthali Digital Photo Express,Photography studio,Photography studio,Photography studio,"P7FX+Q3P, Kathmandu 44611, Nepal",P7FX+Q3P,Swayambhu,Kathmandu,,44611,NP,27.7244646,85.2977183,+977 1-4355006,+97714355006,,ChIJxU2V0OsY6zkR1rY05LywfQ0,ChIJxU2V0OsY6zkR1rY05LywfQ0,13,2.5,,0,13.0,7 AM to 8 PM,False,False,,https://lh3.googleusercontent.com/gps-cs-s/AHVAweq8zZ-44S83b9bcCDSAlw6Znvvd3Pm-aXtzdBBFpx1bcSURFuUi6ghe5iHp96ervEPNsBqj-LEsBkiE7wJ97iw_6LuOJ9ZQ1hw7o7Lnkkl3iP-dz-bGSHPQb61j0iPAsf6irmYw=w425-h240-k-no
KL Photo Studio,Photography studio,Photography studio,Photography studio,"Kathmandu 44600, Nepal",,Balaju,Kathmandu,,44600,NP,27.7308357,85.2939577,+977 984-3137997,+9779843137997,https://www.facebook.com/Kushaallamsal,ChIJX0t7LroZ6zkRny8jeN-Zo0c,ChIJX0t7LroZ6zkRny8jeN-Zo0c,14,4.4,,0,8.0,9 AM to 5 PM,False,False,,https://lh3.googleusercontent.com/gps-cs-s/AHVAweqpVTfjK8RqicBzk2DtUc--WMJMilzAg4RwpWlGczx979k7YwCbtS1ernG9_cJiIj_iutfQd04BF7L9wpRL0qwZASiLJmDAOt5QFW2dumoPSUxXwwss_piCa89GvFRuvg7jv-1zW3YDBd8=w408-h544-k-no
MaharZan’s PhotoGraphy,Photography studio,Photography studio,Photography studio,"Kathmandu 44600, Nepal",,Swayambhu,Kathmandu,,44600,NP,27.7197316,85.2990525,+977 984-9759333,+9779849759333,,ChIJQVZJWAAZ6zkR5fN0G1NiZN0,ChIJQVZJWAAZ6zkR5fN0G1NiZN0,8,4.9,,0,24.0,Open 24 hours,False,False,,https://lh3.googleusercontent.com/gps-cs-s/AHVAweqJpkPkjpcKpw4iyLSITqJaYbeSGEBY_zsjIW1djFaqLCrzqguAqsowGdmnNbimiHtwrYpLaKeeo_gzOWM5k-nur8XUDl_KznPF5Hwgp_QyPDqYB2jRu_0-bCYfxx66lQeV6Pf1RQF_16kd=w408-h725-k-no
Basaha digital photo Studio,Photography studio,Photography studio,Photography studio,"P7JV+H6V, Janajagriti Marg, Kathmandu 44600, Nepal","P7JV+H6V, Janajagriti Marg",Balaju,Kathmandu,,44600,NP,27.7314844,85.2930371,+977 984-9067828,+9779849067828,,ChIJD_8qgq0Z6zkRq4ZfbGq-RXM,ChIJD_8qgq0Z6zkRq4ZfbGq-RXM,6,4.6,,0,11.57,8 AM to 7:34 PM,False,False,,https://lh3.googleusercontent.com/gps-cs-s/AHVAweoFVxfgDJjTJriEms5UurqepExz5AW0ovDf2rth8YrrExpY_KIRhYbAqABFGZDhwPeuxiJYbWmn85fgQO64mk8WDfpTW8VIiij5Dqi7HIOArZkqI9okqqY1eAvmrBPK0XoHl-Wg=w408-h306-k-no
RK Digital Studio,Photography studio,Photography studio,Photography studio,"P7JQ+22W, Jamacho Marg, Kathmandu 44600, Nepal","P7JQ+22W, Jamacho Marg",Balaju,Kathmandu,,44600,NP,27.7301057,85.2875796,+977 984-3134398,+9779843134398,,ChIJJfAjfQAZ6zkRq3U3AnIqDxc,ChIJJfAjfQAZ6zkRq3U3AnIqDxc,4,4.7,,0,11.0,9 AM to 8 PM,False,False,,https://lh3.googleusercontent.com/gps-cs-s/AHVAwerFCBFBoCqkfvgF_MDQCxDom8XwadEzTg3DYNjy81KVG3Q_BAbIZBngAx64SAw8NU94CjWW30iTshMM7aumEEqGfakpf85nRisvytc2LaGDpq0zIxHbA7lJDbsdLlrhs_Y1yHnozA=w408-h544-k-no
Gorkha Photo studio & stationery,Photography studio,Photography studio,Photography studio,"Kathmandu 44600, Nepal",,Dhungedhara,Kathmandu,,44600,NP,27.7237551,85.2930318,+977 984-0860444,+9779840860444,,ChIJ3YR4pP4Z6zkRZNyadslt66U,ChIJ3YR4pP4Z6zkRZNyadslt66U,2,5.0,,0,12.5,8 AM to 8:30 PM,False,False,,https://lh3.googleusercontent.com/gps-cs-s/AHVAwequak4JA_Lh6t_LDtjAtTnJddJGRjkuk2fsYQV0Mj9nbFfGvdnAUghaNLQf_4zRTrauRdnDE7kKehmusIPu0_L_CsAcoNnW4fLc4txC4QC_acZyLWGNf5e0BcQEJBE1OJ4qDuxY8gI_RexS=w408-h544-k-no
Aiwibi Nepal Head Office,Corporate office,Corporate office,Corporate office,"P7FV+6XJ, Kathmandu 44600, Nepal",P7FV+6XJ,Swayambhu,Kathmandu,,44600,NP,27.723088,85.2949026,+977 980-1900095,+9779801900095,http://www.aiwibinepal.com/,ChIJtSKkfwAZ6zkRozYYp3syH_8,ChIJtSKkfwAZ6zkRozYYp3syH_8,11,4.4,,0,8.0,10 AM to 6 PM,False,False,,https://lh3.googleusercontent.com/p/AF1QipP1GTcK17eHycWy2i21rJ3-FkHF8RwJrpobsUd9=w408-h303-k-no
Lotus Photo Studio,Photography studio,Photography studio,Photography studio,"P7GR+PM9, Nursery Chowk, Kathmandu 44600, Nepal","P7GR+PM9, Nursery Chowk",Balaju,Kathmandu,,44600,NP,27.7268366,85.2917041,,,,ChIJi8rNld8Z6zkRGLDY9e7ICmI,ChIJi8rNld8Z6zkRGLDY9e7ICmI,19,1.0,,0,0.0,0,False,False,,https://lh3.googleusercontent.com/gps-cs-s/AHVAweqHb05g5HmcQw3KSupGn_U6km9l7tVdKTKC7bw0PK5KIvfuMeU3h7AXOmfGnlPyBonKKTG-SsnEIoybDJQ7-ftONMqnZ1p2VAt37OAXos2vV_C2h2wKlxkdEEJjTyFMw9VTfCo=w408-h544-k-no
"Bandipur Digital Photo Studio & Cyber, Dhunedhara",Photography studio,Photography studio,Photography studio,"P7GR+4VR Nagarjun-1, Kathmandu 44611, Nepal",P7GR+4VR Nagarjun-1,Dhungedhara,Kathmandu,,44611,NP,27.7253125,85.2921875,+977 984-9372277,+9779849372277,https://www.facebook.com/people/Bandipur-Photo-Studio-Dhungedhara/61559429183602/?_rdr,ChIJXzmOOaAZ6zkRN9xaianPwOo,ChIJXzmOOaAZ6zkRN9xaianPwOo,1,4.7,,0,12.0,8 AM to 8 PM,False,False,,https://lh3.googleusercontent.com/gps-cs-s/AHVAweovntdIxkekbCeakxwKZOKX_mBWpRp_BYclzzCNKuS-cXnPOlstsAnPYkLqUwHsXX0aZu_cGFRWBrKiOn8O2urnf1uCYmjrqA-j9YUspaderp1xIR3PLeuAKsb_t7kAPN5-pRoSJg=w426-h240-k-no
Chamati Park D-Block,Park,Park,Park,"P7CX+JQJ D-Block, Kathmandu 44600, Nepal",P7CX+JQJ D-Block,Swayambhu,Kathmandu,,44600,NP,27.7215892,85.2994062,,,,ChIJ76vVdwAZ6zkRjo_1UIVUlxs,ChIJ76vVdwAZ6zkRjo_1UIVUlxs,14,5.0,,0,0.0,0,False,False,,https://lh3.googleusercontent.com/gps-cs-s/AHVAweq7IovAOOq0KXpqAgXoX7ICcb1vc-pRw_8KTdtnYd3MltPjmKxO_XUPV8P5PjPRcYOpXf74lyPUPV2kdq7mUfo0Uo0l9zbjlJu2X7D91AYnpAAKmX2K9aVJ1JP9_caFBlZJdpM=w408-h544-k-no
Power Fitness Gym and Zumba,Gym,Gym,Gym,"P7HQ+QC4, Raniban Rd, Kathmandu 44600, Nepal","P7HQ+QC4, Raniban Rd",Balaju,Kathmandu,,44600,NP,27.7293791,85.2885895,,,,ChIJVbAgRAAZ6zkR9juHe91SgcU,ChIJVbAgRAAZ6zkR9juHe91SgcU,10,5.0,,0,0.0,0,False,False,,https://streetviewpixels-pa.googleapis.com/v1/thumbnail?panoid=HmSRdTY7Fi4QZmuFqwuStQ&cb_client=search.gws-prod.gps&w=408&h=240&yaw=330.3239&pitch=0&thumbfov=100
Camati Park E-Block,Park,Park,Park,"P7CW+HJV, Kathmandu 44600, Nepal",P7CW+HJV,Swayambhu,Kathmandu,,44600,NP,27.7213535,85.2965108,,,,ChIJ-bVsOwAZ6zkRnAsi-h-akuE,ChIJ-bVsOwAZ6zkRnAsi-h-akuE,12,0.0,,0,0.0,0,False,False,,https://streetviewpixels-pa.googleapis.com/v1/thumbnail?panoid=q6CO_yX1H4u8H-ab3NfgCQ&cb_client=search.gws-prod.gps&w=408&h=240&yaw=212.1219&pitch=0&thumbfov=100
AG Health Industries Corporate Office,Corporate office,Corporate office,Corporate office,"Sai Baba Marg, Kathmandu 44600, Nepal",Sai Baba Marg,Swayambhu,Kathmandu,,44600,NP,27.7226483,85.296982,+977 980-1116911,+9779801116911,http://sagundiapers.com/contact-us/,ChIJm7NT-OkY6zkRnfB4FOWBkhA,ChIJm7NT-OkY6zkRnfB4FOWBkhA,60,4.8,,0,7.0,10 AM to 5 PM,False,False,,https://streetviewpixels-pa.googleapis.com/v1/thumbnail?panoid=ZRMXL-pV7ueEqiEjbdGKVg&cb_client=search.gws-prod.gps&w=408&h=240&yaw=54.14753&pitch=0&thumbfov=100
Yatri Supply,Corporate office,Corporate office,Corporate office,"Ropeway Sadak, Kathmandu 44620, Nepal",Ropeway Sadak,Swayambhu,Kathmandu,,44620,NP,27.7203118,85.2937517,+977 988-0198125,+9779880198125,http://www.yatrisupply.com/,ChIJPWHcP10Z6zkR_GjtFZC3InU,ChIJPWHcP10Z6zkR_GjtFZC3InU,29,5.0,,0,0.0,0,False,False,,https://streetviewpixels-pa.googleapis.com/v1/thumbnail?panoid=bSjhhJMJCfazjQ0oW3CPjQ&cb_client=search.gws-prod.gps&w=408&h=240&yaw=341.67377&pitch=0&thumbfov=100
Khusibu Children Park,Park,Park,Park,"P892+465, Kathmandu 44600, Nepal",P892+465,,Kathmandu,,44600,NP,27.7177548,85.3006209,,,,ChIJXYexMZEZ6zkR7WRhVB0R8EA,ChIJXYexMZEZ6zkR7WRhVB0R8EA,2,4.3,,0,0.0,"5:30 to 8 AM, 5 to 7 PM",False,False,,https://lh3.googleusercontent.com/gps-cs-s/AHVAwep1eK2SSJwjhNboLKPBmczh_qtedHZAEz126vsCuqbZ7zuakApmTZDCE9BRTj9VqQyIpwZXkqHdY6Gwh6u1Pf2eGvWaLEKxeSXgBVkqvrrycsPvM6n15E57svWXgGN387kNxeN4=w408-h306-k-no
Tp Enterprises pvt ltd,Photography studio,Photography studio,Photography studio,"Kathmandu 44600, Nepal",,Balaju,Kathmandu,,44600,NP,27.7246348,85.2965738,,,,ChIJQcPwCgAZ6zkR8RI8iH4LNo4,ChIJQcPwCgAZ6zkR8RI8iH4LNo4,9,5.0,,0,8.5,9 AM to 5:30 PM,False,False,,https://lh3.googleusercontent.com/gps-cs-s/AHVAwermfZ-iZeZ9HM9hC1htJLV2g2ylrDmELybnMy-O4wNvO_ZsBZ2XDggP8qoYx-BJZZ54mLaW9SYwI8ugmG2O1qgnSDzLmFbKZzDVOjE6bbbPQ6G8R2scgpdPhUJSgxwIiHqc2DQ3=w408-h612-k-no
Butha Park,Park,Park,Park,"P7FX+C6R, Kathmandu 44600, Nepal",P7FX+C6R,Swayambhu,Kathmandu,,44600,NP,27.723616,85.2980051,,,,ChIJZQojNQAZ6zkRHJg1QMT2jzM,ChIJZQojNQAZ6zkRHJg1QMT2jzM,7,4.0,,0,0.0,5:30 to 9 AM,False,False,,https://lh3.googleusercontent.com/gps-cs-s/AHVAwepMy-1oWUNcGya-TOaIQhqU1vxTJvL5Vs5Ot1-wAyC-lLZlw1_NzlmacEsp15S0SglxUFRu_TSGGvL3aGzX6tsrpGMCJIa3zPt4e2j7ya5a0sikia3xniIBGVUrHefhsMsL_9x7UQ=w408-h544-k-no
Nursery Park - II,Park,Park,Park,"P7GR+QMH, Kathmandu 44600, Nepal",P7GR+QMH,Balaju,Kathmandu,,44600,NP,27.7269289,85.2915668,,,,ChIJsxLzVgAZ6zkRfZ2YF4OoV4w,ChIJsxLzVgAZ6zkRfZ2YF4OoV4w,8,4.5,,0,0.0,0,False,False,,https://lh3.googleusercontent.com/gps-cs-s/AHVAweouHjyCdi-_UYhpeQBvrBtARgiI91Sj1STCi5QODIzOxEKXoVBo_P8gj5xdL_1YsSiUxyuKTV6aOZYd014xYnjy_X-pQRfdcHs6Vxvb-7_PcGZ8xkTJUfGwyvs9DOS2JBV8XQA=w408-h306-k-no
नेकपा(एस) १ नम्बर वडा कमिटी,Political party office,Political party office,Political party office,"P7HQ+P92, Nagarjun 44600, Nepal",P7HQ+P92,Ichangunarayan,Nagarjun,,44600,NP,27.7292711,85.2884027,,,,ChIJj9v2V1YZ6zkRsW1qWQaEqnA,ChIJj9v2V1YZ6zkRsW1qWQaEqnA,6,0.0,,0,0.0,0,False,False,,https://streetviewpixels-pa.googleapis.com/v1/thumbnail?panoid=6m1z9IvM4JpYfDVgvK0fMg&cb_client=search.gws-prod.gps&w=408&h=240&yaw=228.44508&pitch=0&thumbfov=100
च:मति वृद्ध पार्क Chamati Old-age Park,Park,Park,Park,"Kathmandu 44600, Nepal",,Swayambhu,Kathmandu,,44600,NP,27.7187138,85.2985543,,,,ChIJy4cgowAZ6zkR3WcCYwefJZU,ChIJy4cgowAZ6zkR3WcCYwefJZU,11,3.6,,0,0.0,0,False,False,,https://lh3.googleusercontent.com/p/AF1QipP6BqCmjsbo9jo3Cefhv3KXID7wI1gXvN1OUiM=w408-h306-k-no
public park,Park,Park,Park,"P8C2+Q75, Khusibu Bishnumati Kinar Right, Kathmandu 44600, Nepal","P8C2+Q75, Khusibu Bishnumati Kinar Right",,Kathmandu,,44600,NP,27.721888,85.3007239,,,,ChIJvXUwXAAZ6zkR4LrJ3ZskPo4,ChIJvXUwXAAZ6zkR4LrJ3ZskPo4,4,5.0,,0,0.0,0,False,False,,https://streetviewpixels-pa.googleapis.com/v1/thumbnail?panoid=c0kT7pBGNLlwoS7KrOeGOQ&cb_client=search.gws-prod.gps&w=408&h=240&yaw=299.8262&pitch=0&thumbfov=100
च:मति जनमार्ग ध्यान पार्क Chamati Janamarga Dhyan Park,Park,Park,Park,"Kathmandu 44600, Nepal",,Swayambhu,Kathmandu,,,NP,27.7181261,85.2959227,,,,ChIJpyY9hCQZ6zkRksmCSa1bDxY,ChIJpyY9hCQZ6zkRksmCSa1bDxY,10,4.3,,0,12.0,5 AM to 5 PM,False,False,,https://lh3.googleusercontent.com/gps-cs-s/AHVAweo4ukdtPTNTwn9wTJXprb_jEPVflmdb3GHM0ObCrKlFqKkpmaHLAauS3jUma0DGJSfn2colp1QD6hPwSqCmb1TcI9YfNaHWWKg5ulJNnfkejp7SzmxHWmbiTC4butkP6-DFNiwDpcLvYxQ=w408-h725-k-no
आनन्दभूमि उद्यान Ananda Bhoomi Park,Park,Park,Park,"P79Q+9W, Kathmandu 44600, Nepal",P79Q+9W,Swayambhu,Kathmandu,,44600,NP,27.7175759,85.2903716,,,,ChIJS0s7LgAZ6zkRyfyxoEq8Kak,ChIJS0s7LgAZ6zkRyfyxoEq8Kak,15,2.0,,0,0.0,0,False,False,,https://streetviewpixels-pa.googleapis.com/v1/thumbnail?panoid=z6iLyqLzeTt_E6nqaXO9yw&cb_client=search.gws-prod.gps&w=408&h=240&yaw=38.198456&pitch=0&thumbfov=100
Hamro Online Post Office,Post office,Post office,Post office,"M7WM+35P, Kathmandu 44600, Nepal",M7WM+35P,Kalanki,Kathmandu,,44600,NP,27.6952216,85.2829591,,,http://facebook.com/hamroonlinepostoffice,ChIJH8XJcTsZ6zkR1CkEi_zH2xQ,ChIJH8XJcTsZ6zkR1CkEi_zH2xQ,16,5.0,,0,10.0,8 AM to 6 PM,False,False,,https://streetviewpixels-pa.googleapis.com/v1/thumbnail?panoid=kpCw5-KxuNNO7lipls6WCQ&cb_client=search.gws-prod.gps&w=408&h=240&yaw=12.741804&pitch=0&thumbfov=100
Hulak ghar,Post office,Post office,Post office,"P77P+VGQ, Manjushree Bazar Marga, Kathmandu 44600, Nepal","P77P+VGQ, Manjushree Bazar Marga",Chhauni,Kathmandu,,44600,NP,27.7147031,85.2863648,,,,ChIJfQO6ZAAZ6zkRjQNPoM9O3Dw,ChIJfQO6ZAAZ6zkRjQNPoM9O3Dw,12,0.0,,0,0.0,0,False,False,,https://streetviewpixels-pa.googleapis.com/v1/thumbnail?panoid=6szvL7y-8pxZ2v7bjvHq0Q&cb_client=search.gws-prod.gps&w=408&h=240&yaw=229.12375&pitch=0&thumbfov=100
Chamati Park B-Block,Park,Park,Park,"P8F2+CFM, Kathmandu 44600, Nepal",P8F2+CFM,Swayambhu,Kathmandu,,44600,NP,27.7235885,85.3011609,,,,ChIJqxBjHwAZ6zkR1xE-E1tkvwo,ChIJqxBjHwAZ6zkR1xE-E1tkvwo,3,5.0,,0,0.0,"6 to 9 AM, 4 to 7 PM",False,False,,https://lh3.googleusercontent.com/gps-cs-s/AHVAweomlwFohrBMMBuaEN6eX4VlKJmuDBbCjR5PeyRpq4CE7baTc4nGMTPu3mu7LIuOzQ-LbD_Vg2I6YBb73Ij_UiqIxMIyP1BhncVM8WMxBlKyKPFIK1qftrn0s_RQnaY21g2WcKIPNoaQ4Bg=w408-h544-k-no
Department of Foreign Employment,Government office,Government office,Government office,"Kathmandu 44600, Nepal",,Tahachal,Kathmandu,,44600,NP,27.6995533,85.289908,+977 1-4782454 ext. 4782616,+97714782454,,ChIJ8eGPeLkZ6zkRQUxmHOPmxVI,ChIJ8eGPeLkZ6zkRQUxmHOPmxVI,5,3.5,,0,7.0,10 AM to 5 PM,False,False,,https://lh3.googleusercontent.com/p/AF1QipMgsH4FBHc_dYwMYKsl97pxD-YptoSMcMYZSSwH=w408-h251-k-no
Monika The Beauty Care,Beauty salon,Beauty salon,Beauty salon,"Maharjan Chowk, Kathmandu 00977, Nepal",Maharjan Chowk,Balaju,Kathmandu,,00977,NP,27.7275337,85.2941481,+977 980-3234536,+9779803234536,,ChIJ4QrW8IEZ6zkRvULKcGSyoew,ChIJ4QrW8IEZ6zkRvULKcGSyoew,14,4.9,,0,10.0,9 AM to 7 PM,False,False,,https://lh3.googleusercontent.com/p/AF1QipOMU_DChD7rUZLRvLrRQA9LGmhiKd7h86u5Qf2t=w408-h306-k-no
Chamati charging station,Business park,Business park,Business park,"charging 44600, Nepal",,Swayambhu,charging,,44600,NP,27.7177569,85.2968258,+977 980-8205998,+9779808205998,,ChIJZWwRbkIZ6zkReIRRcg_3aJE,ChIJZWwRbkIZ6zkReIRRcg_3aJE,11,0.0,,0,0.0,0,False,False,,https://streetviewpixels-pa.googleapis.com/v1/thumbnail?panoid=jD2jc0VsIBVPFLKGE8Mn2g&cb_client=search.gws-prod.gps&w=408&h=240&yaw=92.91434&pitch=0&thumbfov=100
Swayambhu Buddha Park - Ring Road,Park,Park,Park,"P78M+8QR, Swayambhu Parikrama, Kathmandu 44600, Nepal","P78M+8QR, Swayambhu Parikrama",Swayambhu,Kathmandu,,44600,NP,27.716145,85.2838866,,,,ChIJgUeYIZAY6zkRnUFbvtoxJMA,ChIJgUeYIZAY6zkRnUFbvtoxJMA,5,4.5,,0,8.0,9 AM to 5 PM,False,False,,https://lh3.googleusercontent.com/gps-cs-s/AHVAweqAaoBCMCNwvTOTpG09gFDQQOkttAfdsuwFl6MnhcmddLhqOexV7UCO4EYBONHxVoaOgHzmsFNYFzDpj8QfWut75Tv4eH3eqMeyX30o7O0sgsusRttrFomwyKlKgrDeqB5hZr8X=w408-h408-k-no
GATS Quarter Office,Corporate office,Corporate office,Corporate office,"Q73X+364, Tarakeshwar 44600, Nepal",Q73X+364,Goldhunga,Tarakeshwar,,44600,NP,27.7529394,85.2983553,,,,ChIJ4WT9KgAf6zkR3zklwxHhAb4,ChIJ4WT9KgAf6zkR3zklwxHhAb4,20,0.0,,0,0.0,0,False,False,,https://streetviewpixels-pa.googleapis.com/v1/thumbnail?panoid=hVqMkzr6twXwSASb6iJf4w&cb_client=search.gws-prod.gps&w=408&h=240&yaw=288.5021&pitch=0&thumbfov=100
Golden memory,Photography studio,Photography studio,Photography studio,"P7GQ+2H6, Nagarjun 44600, Nepal",P7GQ+2H6,Ichangunarayan,Nagarjun,,,NP,27.725045,85.2888913,,,,ChIJ00QQRQAZ6zkRT92fwErChPc,ChIJ00QQRQAZ6zkRT92fwErChPc,65,0.0,,0,0.0,0,False,False,,https://streetviewpixels-pa.googleapis.com/v1/thumbnail?panoid=oZw7q5NvR-nIPLSe7jcbNg&cb_client=search.gws-prod.gps&w=408&h=240&yaw=280.88016&pitch=0&thumbfov=100
Safety Innovation Pvt. Ltd,Office supply store,Office supply store,Office supply store,"Unnamed Road, Kathmandu 44600, Nepal","Unnamed Road, Kathmandu 44600",Swayambhu,Kathmandu,,,NP,27.7197097,85.2897046,+977 984-4061344,+9779844061344,,ChIJO_MbKTMZ6zkRZqpSj62i82I,ChIJO_MbKTMZ6zkRZqpSj62i82I,47,0.0,,0,0.0,0,False,False,,https://streetviewpixels-pa.googleapis.com/v1/thumbnail?panoid=-srmtRHbu4mZOPG5tkkKdQ&cb_client=search.gws-prod.gps&w=408&h=240&yaw=175.82156&pitch=0&thumbfov=100
Laxmi media pvt.ltd,Photography studio,Photography studio,Photography studio,"Dhangadhi -5, 10900 Taranagar Road, Nagarjun 44600, Nepal","Dhangadhi -5, 10900 Taranagar Road",Balaju,Nagarjun,,44600,NP,27.727746,85.2923366,,,,ChIJefShfgAZ6zkRM8modKpTxvo,ChIJefShfgAZ6zkRM8modKpTxvo,80,0.0,,0,0.0,0,False,False,,https://streetviewpixels-pa.googleapis.com/v1/thumbnail?panoid=B84tOdH81NvKTgQHSw6Kxg&cb_client=search.gws-prod.gps&w=408&h=240&yaw=131.23158&pitch=0&thumbfov=100
Hamro Chhapakhana,Corporate office,Corporate office,Corporate office,"P77M+737, Kathmandu 44600, Nepal",P77M+737,Swayambhu,Kathmandu,,44600,NP,27.7131736,85.2826589,+977 984-2080453,+9779842080453,,ChIJb-2yAgAZ6zkRKSGW7RAVPQk,ChIJb-2yAgAZ6zkRKSGW7RAVPQk,10,0.0,,0,0.0,0,False,False,,https://streetviewpixels-pa.googleapis.com/v1/thumbnail?panoid=U66uETiTBmqgXfMmhdDIlg&cb_client=search.gws-prod.gps&w=408&h=240&yaw=269.90012&pitch=0&thumbfov=100
ग्रीन सोसाइटि बहुउदेस्य सहकारि सस्था लि।,Corporate office,Corporate office,Corporate office,"Q8M2+PCH, Tarakeshwar 44600, Nepal",Q8M2+PCH,Kavresthali,Tarakeshwar,,44600,NP,27.7843479,85.3011209,+977 1-5919062,+97715919062,,ChIJd3JVKAAf6zkR77Vb0PP9sB8,ChIJd3JVKAAf6zkR77Vb0PP9sB8,1,5.0,,0,0.0,0,False,False,,
Luster Nails Studio,Nail salon,Nail salon,Nail salon,"Nursery chowk, Kathmandu 44600, Nepal",Nursery chowk,Dhungedhara,Kathmandu,,44600,NP,27.7268311,85.2917088,+977 980-8071529,+9779808071529,https://www.tiktok.com/@sknailslashes?is_from_webapp=1&sender_device=pc,ChIJt24tzdsZ6zkRtDcEWh7vKXw,ChIJt24tzdsZ6zkRtDcEWh7vKXw,40,4.9,,0,9.0,10 AM to 7 PM,False,False,,https://lh3.googleusercontent.com/p/AF1QipMT7tFSX9x5bw3hLbDh4MBxgaS0Jx8SqB3YYN2i=w408-h725-k-no
Mimosha Beauty Parlour and Cosmetics,Beauty salon,Beauty salon,Beauty salon,"P7GR+QMQ, Nursery chowk, Kathmandu 44600, Nepal","P7GR+QMQ, Nursery chowk",Balaju,Kathmandu,,44600,NP,27.7269526,85.2917371,,,,ChIJS3YQAgAZ6zkRX2U11uTJTJM,ChIJS3YQAgAZ6zkRX2U11uTJTJM,16,5.0,,0,0.0,0,False,False,,https://lh3.googleusercontent.com/gps-cs-s/AHVAwerOUKnAhRwyFR34BcYgF9Cy6eQU4m--NCPCf4jFWlH4B4-wb2ctnzVszW88FEkEaUinlW_Np8QPmAHsUt8o5NrXS_T55ATuu5kVWcCwjSWe-BuuMumebm9KwELyPKfH2NpJ2KY4p3f5ybOi=w408-h906-k-no
Manjushree Beauty Studio,Beauty salon,Beauty salon,Beauty salon,"Kathmandu 44600, Nepal",,Swayambhu,Kathmandu,,44600,NP,27.722422,85.2864029,+977 980-3382930,+9779803382930,http://www.facebook.com/manjushreebeautystudio,ChIJa5CfjqYZ6zkRH0vli3gpgwk,ChIJa5CfjqYZ6zkRH0vli3gpgwk,34,4.5,,0,8.0,10 AM to 6 PM,False,False,,https://lh3.googleusercontent.com/p/AF1QipObawanMBfHC5Ydb1Kk1RBWpTLxLzURZVxmM2FY=w408-h724-k-no
Rose Beauty Zone (Makeup Studio & Training Center),Beauty salon,Beauty salon,Beauty salon,"P7FV+69X, Dhungedhara Marg, Kathmandu 44600, Nepal","P7FV+69X, Dhungedhara Marg",,Kathmandu,,44600,NP,27.7231209,85.2934748,+977 986-1849870,+9779861849870,,ChIJm5sZolgZ6zkRrCYPimYGCuE,ChIJm5sZolgZ6zkRrCYPimYGCuE,30,5.0,,0,12.0,8 AM to 8 PM,False,False,,https://lh3.googleusercontent.com/gps-cs-s/AHVAweqxdA_DKA02WDnsA1l5N-0vT5i0TG2WFpTU4PP233WQQpMQw6AA7QYIAdUFJB8F9W3U-Mxz4skmB7hW_zwc1rxjusYEy_qBBV-R59HSWKQRwjzHSDwQuKtx-aOzZeYV8SjuVCSr=w408-h306-k-no
Terisa beauty Parlour,Beauty salon,Beauty salon,Beauty salon,"P7HX+893, Sai Baba Marg, Kathmandu 44600, Nepal","P7HX+893, Sai Baba Marg",Balaju,Kathmandu,,44600,NP,27.7282373,85.2984004,,,,ChIJn53pWwAZ6zkRnWnRS9KbqRE,ChIJn53pWwAZ6zkRnWnRS9KbqRE,80,0.0,,0,0.0,0,False,False,,https://streetviewpixels-pa.googleapis.com/v1/thumbnail?panoid=WlXe7aEv-fJxY9q4DhX71A&cb_client=search.gws-prod.gps&w=408&h=240&yaw=277.4744&pitch=0&thumbfov=100
Crystal Product Pvt Ltd,Corporate office,Corporate office,Corporate office,"Kathmandu 44600, Nepal",,Balaju,Kathmandu,,,NP,27.7263705,85.2974893,+977 1-4353201,+97714353201,,ChIJJyuVlTkZ6zkR-2Fjp3LgUFE,ChIJJyuVlTkZ6zkR-2Fjp3LgUFE,39,0.0,,0,7.5,10 AM to 5:30 PM,False,False,,https://lh3.googleusercontent.com/gps-cs-s/AHVAweo9csyXKqEk4Xf8uLDlvn_BpRS3e6Se2WTpGwoobuKArCI04iwXmx5gYqdna7MK_zM0_enTb0RqD3ES03c1O7TZ5_0cFF8dPRw-7vVjBds4khOP_Mi87Fzn4Uie2jyCYUwrDq1i=w408-h725-k-no
Living Arts Pvt. Ltd.,Corporate office,Corporate office,Corporate office,"P7FV+P79, Kathmandu 44600, Nepal",P7FV+P79,Ichangunarayan,Kathmandu,,44600,NP,27.7242814,85.2932245,+977 984-9758889,+9779849758889,,ChIJ2an_ckIZ6zkR7bQpWv1hem8,ChIJ2an_ckIZ6zkR7bQpWv1hem8,32,4.5,,0,8.5,10 AM to 6:30 PM,False,False,,https://streetviewpixels-pa.googleapis.com/v1/thumbnail?panoid=zRT3jzotiZkpZenpjrDdEQ&cb_client=search.gws-prod.gps&w=408&h=240&yaw=262.1932&pitch=0&thumbfov=100
Century Books Limited,Corporate office,Corporate office,Corporate office,"P7FW+FR9, Siddhicharan Marg, Kathmandu 44600, Nepal","P7FW+FR9, Siddhicharan Marg",Swayambhu,Kathmandu,,44600,NP,27.7236917,85.2970864,,,,ChIJufdcq7wZ6zkRodCQksfi2b4,ChIJufdcq7wZ6zkRodCQksfi2b4,60,0.0,,0,0.0,0,False,False,,https://streetviewpixels-pa.googleapis.com/v1/thumbnail?panoid=C4-lm45SX9rZjUUZp_2L6Q&cb_client=search.gws-prod.gps&w=408&h=240&yaw=140.56044&pitch=0&thumbfov=100
Nepal frozen center,Corporate office,Corporate office,Corporate office,"P7HX+8MR, Kathmandu 44600, Nepal",P7HX+8MR,Balaju,Kathmandu,,44600,NP,27.7283534,85.2991292,+977 1-4964750,+97714964750,,ChIJLbkrFgAZ6zkRyjjepSTS2Ok,ChIJLbkrFgAZ6zkRyjjepSTS2Ok,58,0.0,,0,9.0,9 AM to 6 PM,False,False,,https://streetviewpixels-pa.googleapis.com/v1/thumbnail?panoid=o6LgSLcWd2-G62l6CD6vEw&cb_client=search.gws-prod.gps&w=408&h=240&yaw=257.47156&pitch=0&thumbfov=100
green life pharma pvt ltd,Corporate office,Corporate office,Corporate office,"P7MV+9RX, Kathmandu 44600, Nepal",P7MV+9RX,Balaju,Kathmandu,,44600,NP,27.7334804,85.2946168,,,,ChIJRT5SBQAZ6zkR_PrVNd3AoJs,ChIJRT5SBQAZ6zkR_PrVNd3AoJs,57,0.0,,0,0.0,0,False,False,,
HAMRO NAGARJUN SAVING & CREDIT COOPERATIVE LTD.,Corporate office,Corporate office,Corporate office,"Nagarjun Municipaliy-1, Kathmandu, Nepal",Nagarjun Municipaliy-1,Balaju,Kathmandu,,,NP,27.733053,85.2879451,+977 1-4880906,+97714880906,,ChIJEbEOqb4Y6zkRRpLog9KGoxo,ChIJEbEOqb4Y6zkRRpLog9KGoxo,95,5.0,,0,7.0,10 AM to 5 PM,False,False,,https://streetviewpixels-pa.googleapis.com/v1/thumbnail?panoid=IljNmJ7mPoS4muLNV0iBVw&cb_client=search.gws-prod.gps&w=408&h=240&yaw=219.92497&pitch=0&thumbfov=100
Bardan sharma house,Business park,Business park,Business park,"Hoste haishe, Kathmandu 44600, Nepal",Hoste haishe,Purano Naikap,Kathmandu,,44600,NP,27.6946437,85.2683968,,,,ChIJDUP-NRAj6zkRzRPxiLlgLpc,ChIJDUP-NRAj6zkRzRPxiLlgLpc,18,0.0,,0,0.0,0,False,False,,https://streetviewpixels-pa.googleapis.com/v1/thumbnail?panoid=xKQPB8FvDDjwsTpCd9khYg&cb_client=search.gws-prod.gps&w=408&h=240&yaw=105.10089&pitch=0&thumbfov=100
GHODA GHODI AUTO CARE,Corporate office,Corporate office,Corporate office,"P7FR+7MH, Unnamed Road, Kathmandu 44600, Nepal","P7FR+7MH, Unnamed Road",Ichangunarayan,Kathmandu,,44600,NP,27.7231857,85.2917416,+977 985-1173672,+9779851173672,,ChIJmWG_zZAZ6zkR7L5V_RiTBcs,ChIJmWG_zZAZ6zkR7L5V_RiTBcs,124,0.0,,0,10.0,8 AM to 6 PM,False,False,,https://streetviewpixels-pa.googleapis.com/v1/thumbnail?panoid=VUEk-db22AFLZoxA84w5yw&cb_client=search.gws-prod.gps&w=408&h=240&yaw=345.19492&pitch=0&thumbfov=100
Digi Prints Pvt. Ltd,Advertising agency,Advertising agency,Advertising agency,"P7GM+XX7, Nagarjun 44600, Nepal",P7GM+XX7,Ichangunarayan,Nagarjun,,44600,NP,27.7272816,85.2848117,+977 976-5230810,+9779765230810,,ChIJFfjmjm0Z6zkRlhIG_0h8qPY,ChIJFfjmjm0Z6zkRlhIG_0h8qPY,129,5.0,,0,8.0,10 AM to 6 PM,False,False,,https://lh3.googleusercontent.com/p/AF1QipNLdhc4FAzgKR0SFsRGzzMLzBRGe5T6kj9VHf43=w408-h543-k-no
Sevro Suppliers,Corporate office,Corporate office,Corporate office,"Kathmandu 44600, Nepal",,Swayambhu,Kathmandu,,44600,NP,27.7216189,85.2973452,+977 984-3624530,+9779843624530,https://www.facebook.com/profile.php?id=61551687426989&is_tour_dismissed=true,ChIJYc2jmqEZ6zkRgaJ6HWqk8Qw,ChIJYc2jmqEZ6zkRgaJ6HWqk8Qw,59,0.0,,0,8.0,"12 to 6 AM, 10 AM to 6 PM",False,False,,https://streetviewpixels-pa.googleapis.com/v1/thumbnail?panoid=JL9kHpgM_mqkwKUdHVyk8Q&cb_client=search.gws-prod.gps&w=408&h=240&yaw=334.9707&pitch=0&thumbfov=100
Visionary International Pvt Ltd,Corporate office,Corporate office,Corporate office,"P7JP+698, Kathmandu 44600, Nepal",P7JP+698,Ichangunarayan,Kathmandu,,44600,NP,27.7302439,85.2860626,,,,ChIJN-LROQAZ6zkR1MS6FOXZtHw,ChIJN-LROQAZ6zkR1MS6FOXZtHw,103,5.0,,0,0.0,0,False,False,,https://lh3.googleusercontent.com/gps-cs-s/AHVAweoqiY1HFv16Xifq90t_uc7UuCGvZWpemdk-lac-4OdSY7tJr7V0VJtEtaFq65Rt6zdVUa0Y-2d8EAvKd2HbQzOU6hzQEG434NGn_-6k_wIdzfaYcRhSLnLsHgFH5EzoWTqgTyb-Ow=w408-h306-k-no
Style Station Beauty Parlour,Corporate office,Corporate office,Corporate office,"P7FP+7XR, Unnamed Road, Kathmandu 44600, Nepal","P7FP+7XR, Unnamed Road",Ichangunarayan,Kathmandu,,44600,NP,27.7232356,85.2873803,,,,ChIJcz1hPZQY6zkRDrajHe-BdcM,ChIJcz1hPZQY6zkRDrajHe-BdcM,101,0.0,,0,0.0,0,False,False,,https://streetviewpixels-pa.googleapis.com/v1/thumbnail?panoid=hrsneNfDbTB7c195VOxmvw&cb_client=search.gws-prod.gps&w=408&h=240&yaw=24.84714&pitch=0&thumbfov=100
Jaishree Bhadrakali Hardware (RAJ),Corporate office,Corporate office,Corporate office,"P7FQ+JGG, Kathmandu 44600, Nepal",P7FQ+JGG,Ichangunarayan,Kathmandu,,44600,NP,27.7241171,85.2887925,,,,ChIJg6EcGAAZ6zkRHAgYO3kekeY,ChIJg6EcGAAZ6zkRHAgYO3kekeY,105,0.0,,0,0.0,0,False,False,,https://streetviewpixels-pa.googleapis.com/v1/thumbnail?panoid=LOvlEoe_3-FJgSo090kP8Q&cb_client=search.gws-prod.gps&w=408&h=240&yaw=109.04709&pitch=0&thumbfov=100
PLASTIMBER IMPEX WPC PVC FOAM SHEET MANUFACTURER,Corporate office,Corporate office,Corporate office,"P7GR+GFQ, Unnamed Road, Kathmandu 44600, Nepal","P7GR+GFQ, Unnamed Road",Balaju,Kathmandu,,44600,NP,27.7263288,85.2912313,+91 99789 61122,+919978961122,,ChIJe8emFJUY6zkR5m8KW93jcA8,ChIJe8emFJUY6zkR5m8KW93jcA8,132,0.0,,0,0.0,0,False,False,,https://streetviewpixels-pa.googleapis.com/v1/thumbnail?panoid=os6ER2_zaRhcRZGBsGIbcA&cb_client=search.gws-prod.gps&w=408&h=240&yaw=187.23064&pitch=0&thumbfov=100
DandD Traders,Corporate office,Corporate office,Corporate office,"P7JV+56C, Kathmandu 44600, Nepal",P7JV+56C,Kharibot,Kathmandu,,,NP,27.7304409,85.2930215,+977 985-1026161,+9779851026161,,ChIJ43uBJwAZ6zkRB3eleeA729g,ChIJ43uBJwAZ6zkRB3eleeA729g,114,0.0,,0,7.0,10 AM to 5 PM,False,False,,
Osho Sustainable Designers and Developers Pvt. Ltd.,Corporate office,Corporate office,Corporate office,"P7FW+9QP, Siddhicharan Marg, Kathmandu 44600, Nepal","P7FW+9QP, Siddhicharan Marg",Swayambhu,Kathmandu,,44600,NP,27.7234564,85.2969651,+977 985-1246689,+9779851246689,https://www.oshosustainable.com.np/,ChIJqavnNAAZ6zkR1DlM_StNYow,ChIJqavnNAAZ6zkR1DlM_StNYow,93,5.0,,0,8.0,10 AM to 6 PM,False,False,,https://streetviewpixels-pa.googleapis.com/v1/thumbnail?panoid=SVrVPUrc-DWK9hMK8hwtWA&cb_client=search.gws-prod.gps&w=408&h=240&yaw=118.00923&pitch=0&thumbfov=100
IME Motors Ashok Leyland,Corporate office,Corporate office,Corporate office,"Industrial Area, Kathmandu 44600, Nepal",Industrial Area,Balaju,Kathmandu,,44600,NP,27.7266935,85.3011577,+977 980-1108922,+9779801108922,,ChIJJSnYSegY6zkR-CaTHjHeVig,ChIJJSnYSegY6zkR-CaTHjHeVig,91,3.9,,0,8.0,9:30 AM to 5:30 PM,False,False,,https://lh3.googleusercontent.com/gps-cs-s/AHVAweq2vZOA8l5Drnfz9sBBnxVUPGc9v2WkQsrH5blfQItE415MaAY0fTZSGrAtSeeiOf5r69_fh-Ipl5TwBAAOKoOQ3vAsa23Sllb3XamO65R7YKR_P8TqD9uo-Xsw6PBl44LO5IqorA=w408-h305-k-no
Rub International Traders,Corporate office,Corporate office,Corporate office,"Kathmandu 44600, Nepal",,Swayambhu,Kathmandu,,44600,NP,27.7196125,85.2878613,+977 1-4283699,+97714283699,,ChIJhbyiR7IZ6zkRTQ58x6vwwDw,ChIJhbyiR7IZ6zkRTQ58x6vwwDw,89,4.4,,0,8.0,9 AM to 5 PM,False,False,,https://lh3.googleusercontent.com/gps-cs-s/AHVAweruCtYXNk8AeDYMPAgBVGIPpSD2_xXd7aqU6Iothujh-nP9lYm1Sw-W6Tn665sJk83TXmqWQBII35jBtqO9PQimt6-9l_L3hYLUyn7QWdTkc8hJFhPRP30DNDpct3pjgWZZV77ZoZ9xhrcd=w408-h544-k-no
Swiss Gourmet Food Production Pvt Ltd,Corporate office,Corporate office,Corporate office,"P7CM+GFP, Unnamed Road, Kathmandu 44600, Nepal","P7CM+GFP, Unnamed Road",Ichangunarayan,Kathmandu,,44600,NP,27.7213488,85.283712,+977 984-1344880,+9779841344880,,ChIJuUyIyHwZ6zkR8fRvwJYPbF4,ChIJuUyIyHwZ6zkR8fRvwJYPbF4,90,5.0,,0,8.0,9 AM to 5 PM,False,False,,https://streetviewpixels-pa.googleapis.com/v1/thumbnail?panoid=qee-ZvT1Sfar5yndWzJjcQ&cb_client=search.gws-prod.gps&w=408&h=240&yaw=256.87207&pitch=0&thumbfov=100
Home,Mobile home park,Mobile home park,Mobile home park,"04 Sitapaila Rd, Kathmandu 44600, Nepal",04 Sitapaila Rd,Chhauni,Kathmandu,,44600,NP,27.7087244,85.2838345,+977 986-3262486,+9779863262486,,ChIJXa_NKaEZ6zkRnLQR1uuXiyE,ChIJXa_NKaEZ6zkRnLQR1uuXiyE,1,4.7,,0,0.0,0,False,False,,https://lh3.googleusercontent.com/gps-cs-s/AHVAweryoydWV8aPxv-ZJjh_mDJvKoqoeqP7MYZXVcGr3iPDHv3zO1uMgKrIec37cQf2F5k2eCv-tCHPqCbqL1mJNJz28tY2tXMZvtUwHj1R2v1XpoVP-nDebc9RWoF9Ah9_jOZW-2I=w408-h544-k-no
Global seeds Nepal Pvt Ltd,Corporate office,Corporate office,Corporate office,"P7CX+86M, Kathmandu 44600, Nepal",P7CX+86M,Swayambhu,Kathmandu,,44600,NP,27.7209431,85.2980886,,,,ChIJ-3XJe6kZ6zkR9_peLWyg7zI,ChIJ-3XJe6kZ6zkR9_peLWyg7zI,86,0.0,,0,0.0,0,False,False,,https://streetviewpixels-pa.googleapis.com/v1/thumbnail?panoid=TxgtuHibQmBqXJ3GNaHEjw&cb_client=search.gws-prod.gps&w=408&h=240&yaw=330.00146&pitch=0&thumbfov=100
Shanshuz Beauty parlour,Beauty salon,Beauty salon,Beauty salon,"P7HQ+W82, Nagarjun 44600, Nepal",P7HQ+W82,Balaju,Nagarjun,,44600,NP,27.72964,85.288169,,,,ChIJ7fY1Zp4Z6zkR5y5kIEvb9Vg,ChIJ7fY1Zp4Z6zkR5y5kIEvb9Vg,18,5.0,,0,0.0,0,False,False,,https://lh3.googleusercontent.com/gps-cs-s/AHVAwerPGsa8mgg8B40V9vqKH49Sabqg8eZGsraMTPHRyXlAvGB9q6XcDyinXH6nh-qKTZKtE6knSUl1fvxeItp-waJ96v70bEfnWJS5K8jpBFtwTvXgJNJssdfWmpIrMvEn-mwOKqM=w408-h306-k-no
GLOBAL MEDILINK,Corporate office,Corporate office,Corporate office,"P7FR+H74 Annapurna Maai Temple, Tarakeshwar 44600, Nepal",P7FR+H74 Annapurna Maai Temple,Ichangunarayan,Tarakeshwar,,44600,NP,27.723887,85.2907083,+977 984-1408827,+9779841408827,,ChIJa-j1YgAZ6zkRbsvMAwdQzGw,ChIJa-j1YgAZ6zkRbsvMAwdQzGw,82,4.3,,0,24.0,Open 24 hours,False,False,,https://lh3.googleusercontent.com/gps-cs-s/AHVAweqdTXvHFHB16TFHdKfDWSN3UX8PLvqQjfjCauhQwditPIgz4A3Y_W1jHtwrD1W3ErJHLP-SEoIaeFj6gB4aml2xDnE2Qwh_MdKPoGbl3hf61fBhcSSiKaFjn3vEEovOyP3nv4gM=w408-h544-k-no
B & B International Trading Pvt. Ltd.,Corporate office,Corporate office,Corporate office,"P7FV+HX5, बनस्‍थली मार्ग, Kathmandu 44600, Nepal","P7FV+HX5, बनस्‍थली मार्ग",Balaju,Kathmandu,,44600,NP,27.7238808,85.2949921,+977 985-6058166,+9779856058166,https://bandbinter.com/,ChIJW6pY5mcZ6zkR2Lh4qmbHMj8,ChIJW6pY5mcZ6zkR2Lh4qmbHMj8,88,5.0,,0,9.5,9:30 AM to 7 PM,False,False,,https://streetviewpixels-pa.googleapis.com/v1/thumbnail?panoid=yGJ-tAKFfPGOII_1vlYkCA&cb_client=search.gws-prod.gps&w=408&h=240&yaw=329.03067&pitch=0&thumbfov=100
Jasmine Beauty Parlour & Traning Center,Beauty salon,Beauty salon,Beauty salon,"P7GX+22M, साईबाबा मार्ग, Kathmandu 44600, Nepal","P7GX+22M, साईबाबा मार्ग",Balaju,Kathmandu,,44600,NP,27.7250852,85.2975314,+977 1-4981825,+97714981825,http://www.jasminebeautyparlour.com.np/,ChIJvfwjLeoY6zkRlRuaCNeR4c4,ChIJvfwjLeoY6zkRlRuaCNeR4c4,35,3.1,,0,8.0,10 AM to 6 PM,False,False,,https://lh3.googleusercontent.com/gps-cs-s/AHVAweobXWMGbD_pfWMWFCLpcD_2-GiOOt1K414ca2cC3E-DTr7LM3AUJ3noKEJw4NwXlo_KHFRTNh-HNrh57RWuP-G2pGzGBqN0YjgqptWKPegs9qW9wrZgAErFBn5OFk9JEfDObfRg=w426-h240-k-no
Team Sinergy Nepal Pvt.Ltd,Corporate office,Corporate office,Corporate office,"P7FW+VQF, Kathmandu 44600, Nepal",P7FW+VQF,Swayambhu,Kathmandu,,44600,NP,27.7246767,85.2969252,,,,ChIJgfv1bwAZ6zkRx4i-j1Wc4DM,ChIJgfv1bwAZ6zkRx4i-j1Wc4DM,73,5.0,,0,0.0,0,False,False,,https://streetviewpixels-pa.googleapis.com/v1/thumbnail?panoid=RnlS4BbPmTpyn6-TwqTcaw&cb_client=search.gws-prod.gps&w=408&h=240&yaw=72.196304&pitch=0&thumbfov=100
Lumbini Business Link (LBL),Corporate office,Corporate office,Corporate office,"Thulo Bharyang Bus Stop, Nagarjun 44600, Nepal",Thulo Bharyang Bus Stop,Ichangunarayan,Nagarjun,,44600,NP,27.7198566,85.2862959,+977 1-5249157,+97715249157,https://www.lumbinibusinesslink.com/,ChIJ131V1lMZ6zkRuPRSLPDk5JI,ChIJ131V1lMZ6zkRuPRSLPDk5JI,94,4.8,,0,9.5,9 AM to 6:30 PM,False,False,,https://streetviewpixels-pa.googleapis.com/v1/thumbnail?panoid=-rY1b1MKO44LBFj0RU97FA&cb_client=search.gws-prod.gps&w=408&h=240&yaw=4.5297523&pitch=0&thumbfov=100
Asmik International Pvt. Ltd.,Corporate office,Corporate office,Corporate office,"P7FQ+49V, Nagarjun 44600, Nepal",P7FQ+49V,Ichangunarayan,Nagarjun,,44600,NP,27.7227263,85.288374,+977 984-1897685,+9779841897685,https://asmikinternational.com/,ChIJZTK3rg8Z6zkRvpV52pflers,ChIJZTK3rg8Z6zkRvpV52pflers,76,5.0,,0,24.0,Open 24 hours,False,False,,https://lh3.googleusercontent.com/p/AF1QipO2bwZEX1k7RwmVxv4piBgNE8UO2g7z3A18rPUt=w418-h240-k-no
Ankit Dhakal,Corporate office,Corporate office,Corporate office,"P7CW+R6W, Kathmandu 44600, Nepal",P7CW+R6W,Swayambhu,Kathmandu,,44600,NP,27.7221228,85.2955797,,,,ChIJHYRnHAAZ6zkRe7hrFR736ys,ChIJHYRnHAAZ6zkRe7hrFR736ys,65,0.0,,0,0.0,0,False,False,,https://streetviewpixels-pa.googleapis.com/v1/thumbnail?panoid=Lc7mq2CwqGMKkN6y4RxgiA&cb_client=search.gws-prod.gps&w=408&h=240&yaw=296.12552&pitch=0&thumbfov=100
Good Quality Embroidery,Corporate office,Corporate office,Corporate office,"P79W+XRH, Kathmandu 44600, Nepal",P79W+XRH,Chock,Kathmandu,,,NP,27.7199293,85.2971057,+977 985-1052335,+9779851052335,,ChIJT3GkwygZ6zkRK1_RfTHUnqQ,ChIJT3GkwygZ6zkRK1_RfTHUnqQ,87,5.0,,0,0.0,0,False,False,,https://lh3.googleusercontent.com/gps-cs-s/AHVAweo93VF61Qyfa3E1YhBG9dWqgUgO2S8jOfPMxzS-RI2DQCvrNloczgSKSpKJ85jOAsID0t6CLxqq0JWzn4UslJ2jPM-BHp0N5-Gf0Etb3QK1BGVPVyPCwHXIDYO9McNUE1UANAfS=w426-h240-k-no
Mighty Home,Corporate office,Corporate office,Corporate office,"P7HV+FQW, Kathmandu 44600, Nepal",P7HV+FQW,Balaju,Kathmandu,,44600,NP,27.728828,85.294994,,,,ChIJtzM4FQAZ6zkRHYJSAtJshXM,ChIJtzM4FQAZ6zkRHYJSAtJshXM,66,0.0,,0,0.0,0,False,False,,https://streetviewpixels-pa.googleapis.com/v1/thumbnail?panoid=Y4wUJW3SUHWgkZM6q2NBzQ&cb_client=search.gws-prod.gps&w=408&h=240&yaw=45.653885&pitch=0&thumbfov=100
Build Green Pvt. Ltd.,Corporate office,Corporate office,Corporate office,"Thulobharyang, Kathmandu 44600, Nepal",Thulobharyang,Swayambhu,Kathmandu,,44600,NP,27.7205685,85.2824144,,,http://www.buildgreen.com.np/,ChIJy5Jwhl8Z6zkRtfg4wEEbijY,ChIJy5Jwhl8Z6zkRtfg4wEEbijY,84,0.0,,0,8.0,9:30 AM to 5:30 PM,False,False,,https://streetviewpixels-pa.googleapis.com/v1/thumbnail?panoid=wICWuBmRJKf-pelfj3qBcw&cb_client=search.gws-prod.gps&w=408&h=240&yaw=191.3163&pitch=0&thumbfov=100
waayu games,Corporate office,Corporate office,Corporate office,"Nagarjun 2, Kathmandu 44611, Nepal",Nagarjun 2,Ichangunarayan,Kathmandu,,44611,NP,27.7271072,85.2850282,+977 980-2493186,+9779802493186,,ChIJh3Ie9hUZ6zkRCeeU3P8sc3Q,ChIJh3Ie9hUZ6zkRCeeU3P8sc3Q,44,0.0,,0,0.0,12 to 3 PM,False,False,,https://streetviewpixels-pa.googleapis.com/v1/thumbnail?panoid=7Xnf4daPieAiDeAyKRXuoQ&cb_client=search.gws-prod.gps&w=408&h=240&yaw=196.86516&pitch=0&thumbfov=100
Himalayan kangaroo private limited,Corporate office,Corporate office,Corporate office,"P7MX+9HG, Kathmandu 44600, Nepal",P7MX+9HG,Balaju,Kathmandu,,44600,NP,27.7334465,85.2989624,,,,ChIJkTOfRM0Z6zkRYNtn34KzPpA,ChIJkTOfRM0Z6zkRYNtn34KzPpA,49,0.0,,0,0.0,0,False,False,,https://streetviewpixels-pa.googleapis.com/v1/thumbnail?panoid=gADjLh3S3dS82dsQJcUdIQ&cb_client=search.gws-prod.gps&w=408&h=240&yaw=261.2507&pitch=0&thumbfov=100
SS beauty parlor tareninga Center,Beauty salon,Beauty salon,Beauty salon,"P7CW+2QP, Ropeway Sadak, Kathmandu 44600, Nepal","P7CW+2QP, Ropeway Sadak",Swayambhu,Kathmandu,,44600,NP,27.7200869,85.2969608,,,,ChIJnQC2OewY6zkRqOnSC7Lt3m4,ChIJnQC2OewY6zkRqOnSC7Lt3m4,83,0.0,,0,0.0,0,False,True,,https://lh3.googleusercontent.com/gps-proxy/ALd4DhGCNB-x8KPC1bUWSTqvGTQ6Nx6mt5uHxhhrumfZpuf_P0I8xsFq9w9NqzRqNDjqjbcndRPiJFwIwatuWgfgi57_8xZc-qsznTse_-AroYL8vSP_Hwfr-7gSdJCnL2Flb-NKohYi35njvSdmh3PKAdyUHjwegwAhTX_qANxai_zKxjraM_IgnlUDbjTwLi8iU3ddIA=w408-h306-k-no
Rama Beauty Parlour & Training Center,Beauty salon,Beauty salon,Beauty salon,"P7CX+G5V, Gojaga Marg, Kathmandu 44600, Nepal","P7CX+G5V, Gojaga Marg",Swayambhu,Kathmandu,,44600,NP,27.7213555,85.2979338,+977 984-1720913,+9779841720913,,ChIJV1_kHOwY6zkR6MfDjhqNGDA,ChIJV1_kHOwY6zkR6MfDjhqNGDA,81,0.0,,0,11.0,7 AM to 6 PM,False,False,,https://lh3.googleusercontent.com/gps-proxy/ALd4DhHf3XTYzCffPaKklSJxuPlmFANJuHpAr7jjWooo0F9k-WQ7oau3SIEM4uXpYgbjLVfjCNYPapZQA_-Qf7FAQ7vKvb2iW-NaC0kD36tki4z0EX-HzevMPqqtpWaGh2xsI84n3AR7S_tkE9Dbk5-ji4FcVh6S3-r8YicVgKrdBxXgbvXHh-y57PKcX3wQBjoG9Z1dUA=w408-h306-k-no
Grand Beauty Parlour & Training Center,Beauty salon,Beauty salon,Beauty salon,"P7GW+4XF, Road, Kathmandu 44600, Nepal","P7GW+4XF, Road",Balaju,Kathmandu,,44600,NP,27.7253165,85.2974237,+977 984-1852574,+9779841852574,,ChIJB0SKLeoY6zkRqpS62O3amY0,ChIJB0SKLeoY6zkRqpS62O3amY0,76,0.0,,0,10.0,9 AM to 7 PM,False,False,,https://streetviewpixels-pa.googleapis.com/v1/thumbnail?panoid=9rNCW1TyN86yZgYyt3phhQ&cb_client=search.gws-prod.gps&w=408&h=240&yaw=192.09753&pitch=0&thumbfov=100
Zoom Beauty Academy | Balaju Branch,Beauty salon,Beauty salon,Beauty salon,,,,,,,0,27.7320757,85.2942353,+977 980-2351572,+9779802351572,http://zoombeautyacademy.com/,ChIJD_33Wbvl-0MRbwWnQFxA5eI,ChIJD_33Wbvl-0MRbwWnQFxA5eI,85,0.0,,0,0.0,0,False,False,,
Nikki Beauty Parlour,Beauty salon,Beauty salon,Beauty salon,"P7JV+FRP, Kathmandu 44600, Nepal",P7JV+FRP,Kharibot,Kathmandu,,,NP,27.7312152,85.2945709,,,,ChIJE5-_OQAZ6zkRnX8cazpLDg0,ChIJE5-_OQAZ6zkRnX8cazpLDg0,74,0.0,,0,0.0,0,False,False,,https://streetviewpixels-pa.googleapis.com/v1/thumbnail?panoid=PI4C3HBY2kzcDBFJ4qrxjQ&cb_client=search.gws-prod.gps&w=408&h=240&yaw=314.35757&pitch=0&thumbfov=100
Academy Of Coffee Excellance Nepal Pvt. Ltd Kathmandu,Corporate office,Corporate office,Corporate office,"P7FW+VJ9, Kathmandu 44600, Nepal",P7FW+VJ9,Balaju,Kathmandu,,44600,NP,27.724675,85.2966199,,,,ChIJd7xyDgAZ6zkR_0ghzm_if08,ChIJd7xyDgAZ6zkR_0ghzm_if08,62,0.0,,0,0.0,0,False,False,,https://streetviewpixels-pa.googleapis.com/v1/thumbnail?panoid=F_SfOZC_56OHvIyUSvhSGQ&cb_client=search.gws-prod.gps&w=408&h=240&yaw=322.30557&pitch=0&thumbfov=100
Pink Blossom Beauty Care & Cosmetics,Beauty salon,Beauty salon,Beauty salon,"P7CP+3HW, Nagarjun 44600, Nepal",P7CP+3HW,Ichangunarayan,Nagarjun,,44600,NP,27.7202414,85.2864629,+977 984-1718650,+9779841718650,,ChIJUdoxFZEY6zkR24IYdxZs1A4,ChIJUdoxFZEY6zkR24IYdxZs1A4,67,0.0,,0,9.0,9 AM to 6 PM,False,False,,https://lh3.googleusercontent.com/gps-proxy/ALd4DhGvw2HHRT5wJOWaXkMaq67YU3XYqeTrEofs-7f8qIBRkrjFh4oK5eCvovlyfASGOjQbk_5U2sxtdiakIdfqEXmTaH4d00JTKbwhNbRProXzkKUn4YAQ8Dw6ZhmkDjYRVBkmR8_UZLf0vEslytlpaFWFtHIT6LQcsvUzlGmxMkH41T9R358ur6mV8t6Q7y7fJ7VImQ=w408-h306-k-no
Sana's beauty palour,Beauty salon,Beauty salon,Beauty salon,"P7FR+RRG, Nagarjun 44600, Nepal",P7FR+RRG,Ichangunarayan,Nagarjun,,,NP,27.7245627,85.2920727,,,,ChIJ49HZbQAZ6zkRW6BRFNzL93o,ChIJ49HZbQAZ6zkRW6BRFNzL93o,71,0.0,,0,0.0,0,False,False,,https://streetviewpixels-pa.googleapis.com/v1/thumbnail?panoid=F_iVlOWwpGsulhDx2Adr5Q&cb_client=search.gws-prod.gps&w=408&h=240&yaw=27.966661&pitch=0&thumbfov=100
Pointer Holdings,Corporate office,Corporate office,Corporate office,"P7CX+5Q2, Kathmandu 44600, Nepal",P7CX+5Q2,Swayambhu,Kathmandu,,44600,NP,27.7203842,85.2994015,+977 1-5904130,+97715904130,https://sangroupnepal.com/,ChIJb-q9dAAZ6zkRr4r8MSPMOMk,ChIJb-q9dAAZ6zkRr4r8MSPMOMk,29,0.0,,0,8.6,9:30 AM to 6:06 PM,False,False,,https://streetviewpixels-pa.googleapis.com/v1/thumbnail?panoid=yKLOV-7dAFMSoDnVtif4Pw&cb_client=search.gws-prod.gps&w=408&h=240&yaw=315.5956&pitch=0&thumbfov=100
Brands Beauty Parlour,Beauty salon,Beauty salon,Beauty salon,"P7MM+3WG, Raniban Rd, Nagarjun 44600, Nepal","P7MM+3WG, Raniban Rd",Ichangunarayan,Nagarjun,,44600,NP,27.7326988,85.2848334,,,,ChIJX1RNYnkZ6zkRFy74IZoV8DA,ChIJX1RNYnkZ6zkRFy74IZoV8DA,62,4.0,,0,0.0,0,False,False,,https://streetviewpixels-pa.googleapis.com/v1/thumbnail?panoid=l1mrDJxK5MWuOqaDDu6SvA&cb_client=search.gws-prod.gps&w=408&h=240&yaw=78.878685&pitch=0&thumbfov=100
Cosmetic Shop Kharibot,Beauty salon,Beauty salon,Beauty salon,"P7JR+RWR, Janajagriti Marg, Kathmandu 44600, Nepal","P7JR+RWR, Janajagriti Marg",Balaju,Kathmandu,,44600,NP,27.7321816,85.292374,,,,ChIJuzTD0_wZ6zkRRAH8b0ZwOIE,ChIJuzTD0_wZ6zkRRAH8b0ZwOIE,70,0.0,,0,24.0,Open 24 hours,False,False,,https://streetviewpixels-pa.googleapis.com/v1/thumbnail?panoid=PYbgW21986FNoQA85FYvOg&cb_client=search.gws-prod.gps&w=408&h=240&yaw=309.28946&pitch=0&thumbfov=100
Bhimsen Dhuwani Sewa,Corporate office,Corporate office,Corporate office,"P79P+V2R, Kathmandu 44600, Nepal",P79P+V2R,Ichangunarayan,Kathmandu,,44600,NP,27.7197352,85.2850096,+977 980-2056450,+9779802056450,,ChIJocwF45AY6zkRgO4oBjxNZ-s,ChIJocwF45AY6zkRgO4oBjxNZ-s,102,0.0,,0,10.0,10 AM to 8 PM,False,False,,https://streetviewpixels-pa.googleapis.com/v1/thumbnail?panoid=zH5ZDaY5YfX4qWluapFBwA&cb_client=search.gws-prod.gps&w=408&h=240&yaw=101.85917&pitch=0&thumbfov=100
Ananda kuti saccos,Corporate office,Corporate office,Corporate office,"P7FP+QFP, Kathmandu 44600, Nepal",P7FP+QFP,Ichangunarayan,Kathmandu,,44600,NP,27.7241935,85.2867999,,,,ChIJCVfAwJ8Z6zkRWbZTAbDuNuo,ChIJCVfAwJ8Z6zkRWbZTAbDuNuo,18,5.0,,0,0.0,0,False,False,,https://streetviewpixels-pa.googleapis.com/v1/thumbnail?panoid=AwUVTQ3_t6ksZOY84PBVPQ&cb_client=search.gws-prod.gps&w=408&h=240&yaw=282.66214&pitch=0&thumbfov=100
Tvs showroom sanobharyang,Corporate office,Corporate office,Corporate office,"P7CR+M5P, Krish Ply Way, Kathmandu 44600, Nepal","P7CR+M5P, Krish Ply Way",,Kathmandu,,44600,NP,27.7216915,85.2904573,+977 980-2071208,+9779802071208,,ChIJq3VDZwAZ6zkRwyuuZ0Z-_a0,ChIJq3VDZwAZ6zkRwyuuZ0Z-_a0,41,1.0,,0,0.0,0,False,False,,https://streetviewpixels-pa.googleapis.com/v1/thumbnail?panoid=OY8xd-kpzt2YYHLhQMV8OQ&cb_client=search.gws-prod.gps&w=408&h=240&yaw=114.05339&pitch=0&thumbfov=100
District Census Office Sitapila,Government office,Government office,Government office,"P799+79X, Sitapaila Marg, Nagarjun 44600, Nepal","P799+79X, Sitapaila Marg",Sitapaila,Nagarjun,,44600,NP,27.7182341,85.2684864,,,,ChIJ6bttntEj6zkRKtg6PmZUs5s,ChIJ6bttntEj6zkRKtg6PmZUs5s,12,0.0,,0,0.0,0,False,False,,https://streetviewpixels-pa.googleapis.com/v1/thumbnail?panoid=Ys4iMwyl8cLgfBbcM-6uaQ&cb_client=search.gws-prod.gps&w=408&h=240&yaw=291.78525&pitch=0&thumbfov=100
Mount Dhaulagiri Cooperative Building,Corporate office,Corporate office,Corporate office,"P7CR+XQX, Nagarjun 44600, Nepal",P7CR+XQX,,Nagarjun,,,NP,27.7224876,85.2919852,,,,ChIJjwN6arwZ6zkRQIMkSIlHHwI,ChIJjwN6arwZ6zkRQIMkSIlHHwI,13,4.5,,0,0.0,0,False,False,,https://lh3.googleusercontent.com/gps-cs-s/AHVAwepXKuGadD9Lfh8bQgs8Rjl_BC2nsRq-jmWG6xKgAhElK1TKDWliP0agEfYMBB8_wxsJN_B-eP2hQ5HN8iPI2Wulx09ApgP3QbRwr0Vh3TVsINUqN9zMKt8U71j3yLGyfXahbNnXTMjvThky=w408-h357-k-no
Mc solution group,Corporate office,Corporate office,Corporate office,"Kathmandu 44600, Nepal",,Balaju,Kathmandu,,44600,NP,27.73091,85.2955375,+977 1-4534577,+97714534577,,ChIJ3xeSBwAZ6zkR8wAVMCAi23g,ChIJ3xeSBwAZ6zkR8wAVMCAi23g,10,0.0,,0,9.0,10 AM to 7 PM,False,False,,https://lh3.googleusercontent.com/p/AF1QipNc3wVgx7LSaBGTl1JEz5mA0V3gYQjCjMP6YxU4=w408-h408-k-no
Suman Design,Corporate office,Corporate office,Corporate office,"P7FX+8C7, Kathmandu 44600, Nepal",P7FX+8C7,Swayambhu,Kathmandu,,44600,NP,27.7232902,85.2985473,,,http://newamaharjan.site123.me/,ChIJaTfnuEQZ6zkR7K0J4ppJSE0,ChIJaTfnuEQZ6zkR7K0J4ppJSE0,70,0.0,,0,12.0,9 AM to 9 PM,False,False,,https://streetviewpixels-pa.googleapis.com/v1/thumbnail?panoid=H4zfj-uHfkHh_CnAw8wwXg&cb_client=search.gws-prod.gps&w=408&h=240&yaw=157.08942&pitch=0&thumbfov=100
Dolphin Group,Corporate office,Corporate office,Corporate office,"16 Ring Rd, Kathmandu 44600, Nepal",16 Ring Rd,Balaju,Kathmandu,,44600,NP,27.7246403,85.2966948,+977 980-2575254,+9779802575254,,ChIJfVx5DwAZ6zkRqIyO70FzAMY,ChIJfVx5DwAZ6zkRqIyO70FzAMY,4,5.0,,0,7.0,10 AM to 5 PM,False,False,,https://lh3.googleusercontent.com/p/AF1QipNPzTjy2pttJnlQcOqPw8kVFMV35pZkq2-T0obt=w408-h272-k-no
Star hair salon,Beauty salon,Beauty salon,Beauty salon,"P7CW+62V, Ravi Marg, Kathmandu 44600, Nepal","P7CW+62V, Ravi Marg",Swayambhu,Kathmandu,,44600,NP,27.7205894,85.2951427,,,,ChIJ_3XRPgAZ6zkR5mTOVtDBHLo,ChIJ_3XRPgAZ6zkR5mTOVtDBHLo,58,0.0,,0,0.0,0,False,False,,https://lh3.googleusercontent.com/gps-cs-s/AHVAweqJzjW1CLczyhetP8OyoMKtVoVQHcEXs0U-3rUsJN5KNWrp1HmrshM-ej_2mZLGVw4Rq9uPMF164643TiNEOBcy0ap1F5I5ZBfGHEFCv39FTX1ZE8Io34fiGxftQJe7ZjIlIZzDkiIQInpT=w408-h544-k-no
Ruchi trading PVT.LTD,Corporate office,Corporate office,Corporate office,"P7FQ+5VV, Kathmandu 44600, Nepal",P7FQ+5VV,Ichangunarayan,Kathmandu,,44600,NP,27.722985,85.2896618,+977 980-1306990,+9779801306990,,ChIJpxLMcwAZ6zkRKmKs0McSBDw,ChIJpxLMcwAZ6zkRKmKs0McSBDw,3,4.5,,0,7.0,10 AM to 5 PM,False,False,,https://streetviewpixels-pa.googleapis.com/v1/thumbnail?panoid=xCeMYx1dMZ9tI9MqiQz5LA&cb_client=search.gws-prod.gps&w=408&h=240&yaw=331.55954&pitch=0&thumbfov=100
speedlink communication,Corporate office,Corporate office,Corporate office,"P7FM+F82, Kathmandu 44600, Nepal",P7FM+F82,Ichangunarayan,Kathmandu,,44600,NP,27.7236464,85.2832615,,,,ChIJtUfklzcZ6zkR-y0mvjJVvWY,ChIJtUfklzcZ6zkR-y0mvjJVvWY,106,0.0,,0,0.0,0,False,False,,https://streetviewpixels-pa.googleapis.com/v1/thumbnail?panoid=FBxy__nk5KXEqBpUsYnXrQ&cb_client=search.gws-prod.gps&w=408&h=240&yaw=76.4868&pitch=0&thumbfov=100
Riti's Beauty Parlour,Beauty salon,Beauty salon,Beauty salon,"P7JP+8C3, Ichangu, Raniban, Nagarjun, Kathmandu, Nepal","P7JP+8C3, Ichangu, Raniban, Nagarjun",Ichangunarayan,Kathmandu,,,NP,27.7307724,85.2860348,+977 984-1487456,+9779841487456,,ChIJF-8MTLwY6zkRP_OC4dXaSwA,ChIJF-8MTLwY6zkRP_OC4dXaSwA,56,4.5,,0,15.0,5:30 AM to 8:30 PM,False,False,,https://lh3.googleusercontent.com/gps-cs-s/AHVAwepP4uq8cBCxEo9Kln4siCbPWhbykiUCj49OS-csSJU-zA6W7RdMhe0xhfy0SVjLTixfLZbr-rFMr8Dku-6raQmHyzJ5GegyhdPndVvlAszZc1AvyEFW9U_TImKPh5uAXBMFvCmd=w408-h306-k-no
B.G Beauty Creation (Banasthali Branch),Beauty salon,Beauty salon,Beauty salon,"Balaju,16 Banasthali Chowk, Kathmandu 44600, Nepal","Balaju,16 Banasthali Chowk",Swayambhu,Kathmandu,,44600,NP,27.7245321,85.2976942,+977 985-1105682,+9779851105682,,ChIJ2U0vzOgZ6zkRnkb_to4hKzc,ChIJ2U0vzOgZ6zkRnkb_to4hKzc,55,0.0,,0,0.0,0,False,False,,https://lh3.googleusercontent.com/gps-cs-s/AHVAweqs5jP-RszB-S-G3uhUI5xdepY0XKFCwbTO3zqnbHFGSyYkvaLE83hJDOhJvYQRcvn5ggF_ebKg0jA2XSqrEHRyEk1sVBB0B6dEFlbRtoAQuyH_DEeJvfIiNBh5UnIPDLBnX9W5O77v_heC=w408-h725-k-no
The Creator House,Corporate office,Corporate office,Corporate office,"Kathmandu 44600, Nepal",,Swayambhu,Kathmandu,,44600,NP,27.7224492,85.2927936,,,,ChIJh8zybwAZ6zkRuLwTNMawE5E,ChIJh8zybwAZ6zkRuLwTNMawE5E,1,5.0,,0,0.0,0,False,False,,https://streetviewpixels-pa.googleapis.com/v1/thumbnail?panoid=xtj43EEAr2bNkou1y5J5uw&cb_client=search.gws-prod.gps&w=408&h=240&yaw=270.57504&pitch=0&thumbfov=100
Trishuli Jal Vidhyut Company Limited,Corporate office,Corporate office,Corporate office,"P7FX+Q38, Kathmandu 44600, Nepal",P7FX+Q38,Swayambhu,Kathmandu,,44600,NP,27.7244119,85.297697,+977 1-5902964,+97715902964,https://tjvcl.com/,ChIJ4bvg0OsY6zkRQAn9DT4k_Bw,ChIJ4bvg0OsY6zkRQAn9DT4k_Bw,107,4.3,,0,7.0,10 AM to 5 PM,False,False,,https://streetviewpixels-pa.googleapis.com/v1/thumbnail?panoid=a87nbntIc2A3H9EHTrs92A&cb_client=search.gws-prod.gps&w=408&h=240&yaw=227.30936&pitch=0&thumbfov=100
Famous Art Digital Photo Studio,Photography studio,Photography studio,Photography studio,"P78M+R27, Kathmandu 44600, Nepal",P78M+R27,Swayambhu,Kathmandu,,44600,NP,27.7170433,85.2825404,+977 976-6845959,+9779766845959,,ChIJJ-RVrzQZ6zkR0gX81WxsgCI,ChIJJ-RVrzQZ6zkR0gX81WxsgCI,19,5.0,,0,14.0,7 AM to 9 PM,False,False,,https://streetviewpixels-pa.googleapis.com/v1/thumbnail?panoid=b4EBLI-MjMqHZ2B2VnTxMQ&cb_client=search.gws-prod.gps&w=408&h=240&yaw=213.69478&pitch=0&thumbfov=100
Anita Beauty Parlor,Beauty salon,Beauty salon,Beauty salon,"Kathmandu 44600, Nepal",,Balaju,Kathmandu,,44600,NP,27.7257989,85.2970596,+977 984-1128455,+9779841128455,,ChIJv5xKN-oY6zkRseV55CT9Wzc,ChIJv5xKN-oY6zkRseV55CT9Wzc,53,5.0,,0,0.0,0,False,False,,https://lh3.googleusercontent.com/p/AF1QipP1cZ4mbfl2cQ2HteFFcSjyUTucc-9u5c5s9KX0=w408-h306-k-no
Colour Tex Pvt. Ltd.,Corporate office,Corporate office,Corporate office,"Manakamana Tole, Kharibot Banasthali, Balaju-44611, Kathmandu, Nepal","Manakamana Tole, Kharibot Banasthali, Balaju-44611",Balaju,Kathmandu,,,NP,27.7316468,85.2920037,+977 985-1002628,+9779851002628,http://aqanfacilities.com/,ChIJp1f1MBoZ6zkRaJ2Ci1UqxYY,ChIJp1f1MBoZ6zkRaJ2Ci1UqxYY,50,4.5,,0,8.0,9:30 AM to 5:30 PM,False,False,,https://streetviewpixels-pa.googleapis.com/v1/thumbnail?panoid=sPEmtur_wub_iAWqKE3Xsg&cb_client=search.gws-prod.gps&w=408&h=240&yaw=188.25931&pitch=0&thumbfov=100
Ruby’s Beauty studio and academy,Beauty salon,Beauty salon,Beauty salon,"Tuyu Tej Chhen, Nagarjun 44600, Nepal",Tuyu Tej Chhen,Ichangunarayan,Nagarjun,,44600,NP,27.7209634,85.2847522,+977 985-1411413,+9779851411413,,ChIJ03IQSwAZ6zkRt1h4YKsRyNo,ChIJ03IQSwAZ6zkRt1h4YKsRyNo,26,5.0,,0,12.5,8 AM to 8:30 PM,False,False,,https://streetviewpixels-pa.googleapis.com/v1/thumbnail?panoid=kLePrRMZIQj89CSJKDEZqg&cb_client=search.gws-prod.gps&w=408&h=240&yaw=143.84866&pitch=0&thumbfov=100
Perfection Beauty Clinic,Beauty school,Beauty school,Beauty school,"132 Suman Marg, Kathmandu 44600, Nepal",132 Suman Marg,,Kathmandu,,44600,NP,27.7169667,85.3006968,+977 986-9090300,+9779869090300,,ChIJw5xWdr8Z6zkRtmMgVT0CtAo,ChIJw5xWdr8Z6zkRtmMgVT0CtAo,8,1.0,,0,0.0,0,False,False,,https://streetviewpixels-pa.googleapis.com/v1/thumbnail?panoid=HwXrOi-XGVeYRHSTNbVSVg&cb_client=search.gws-prod.gps&w=408&h=240&yaw=294.7832&pitch=0&thumbfov=100
Ruby's Beauty Studio & Academy,Beauty salon,Beauty salon,Beauty salon,"P7CP+93R, Thulo Bharkhu 45000, Nepal",P7CP+93R,Ichangunarayan,Thulo Bharkhu,,45000,NP,27.7209992,85.2851405,+977 985-1411413,+9779851411413,,ChIJv692IgDr6jkREB9sEfEovso,ChIJv692IgDr6jkREB9sEfEovso,27,5.0,,0,11.5,8:30 AM to 8 PM,False,False,,https://lh3.googleusercontent.com/gps-cs-s/AHVAwer8s3jOyCo7ihCi1vt7rpqq899mNTnrTKRudB0pduZnUm_kcjsoMKfOs1BRE2FBEp46VsHHmlVwI-v7jP-ik_WdoNtDUOe53cmdsYZksMKgN9fVbI2HjF_C2iCz6ZiQa-mc7__TUA=w408-h306-k-no
Chamati Multi Venue Pvt. Ltd.,Catering food and drink supplier,Catering food and drink supplier,Catering food and drink supplier,"Gojaga Marg, Kathmandu 46600, Nepal",Gojaga Marg,Swayambhu,Kathmandu,,46600,NP,27.7220438,85.2970945,+977 1-4950200,+97714950200,,ChIJhysGo9UZ6zkRIIphxqXHD8s,ChIJhysGo9UZ6zkRIIphxqXHD8s,9,3.9,,0,0.0,0,False,False,,https://lh3.googleusercontent.com/gps-cs-s/AHVAweo7X8cJwoFmTBJAr05_LyAODvHEaADHwv87cGmwarXT2s3ATflPFq-tEpL0E4fA7z3pll4CRqYxU_QJUR6BcbD_sa4qNjVkVlEvjDMtN4RasZretcTyhv2fv0V96-zWT9te7HP4_Q=w408-h306-k-no
LS Beauty Parlour & Cosmetics,Beauty salon,Beauty salon,Beauty salon,"Nursery chowk, Kathmandu 44600, Nepal",Nursery chowk,Dhungedhara,Kathmandu,,44600,NP,27.7274057,85.2900737,+977 982-7582876,+9779827582876,,ChIJaTX00kUZ6zkRumqa8OjIM00,ChIJaTX00kUZ6zkRumqa8OjIM00,13,3.0,,0,11.0,9 AM to 8 PM,False,False,,https://streetviewpixels-pa.googleapis.com/v1/thumbnail?panoid=lrohVFSWEssR-dLzx8D7Aw&cb_client=search.gws-prod.gps&w=408&h=240&yaw=182.40387&pitch=0&thumbfov=100
Kumari beauty parlor,Beauty salon,Beauty salon,Beauty salon,"P7HR+PPC, bhirkuti tole, Nagarjun 44600, Nepal","P7HR+PPC, bhirkuti tole",Balaju,Nagarjun,,,NP,27.729323,85.2917568,+977 1-4880029,+97714880029,,ChIJL8_M6r8Y6zkR4q1SaOhQoXk,ChIJL8_M6r8Y6zkR4q1SaOhQoXk,14,3.5,,0,9.0,10 AM to 7 PM,False,False,,https://lh3.googleusercontent.com/gps-cs-s/AHVAweqz5XMoUxWxy3Fv3tDRp6hn-SSZKgoS5fwvuIjwAZ-0yKcS8QUqAAxLeybaoRGhzYR49yR6AWLvkgthWHCx-aEjjnX8L7H_BfCLxBrudlP4StdU2MUd6eIislIPPGJOmiCY2c_QnA=w408-h306-k-no
Grace & glow beauty salon,Beauty salon,Beauty salon,Beauty salon,"P7MR+96P, Kathmandu 44600, Nepal",P7MR+96P,Balaju,Kathmandu,,44600,NP,27.7334355,85.2906241,+977 981-9714686,+9779819714686,,ChIJnRBVYgAZ6zkRXyCgIGW7NeA,ChIJnRBVYgAZ6zkRXyCgIGW7NeA,5,5.0,,0,24.0,Open 24 hours,False,False,,https://lh3.googleusercontent.com/gps-cs-s/AHVAweqEE2ngboeOFSTXqjKc8Rd86hbi9FeWmbwilnT6N-vseyH1BHiNHkirXDIg8J_NnAifYJH0vOFvYKzREc4mgFHYcIeCm2oQBGibhAYbn1gQ5VFrVWNvIZGUguSupgUIygSk8mtrA8IM5oEJ=w426-h240-k-no
Shila's Beauty Parlour,Beauty salon,Beauty salon,Beauty salon,"P7MW+CP8, Kathmandu 44600, Nepal",P7MW+CP8,Balaju,Kathmandu,,44600,NP,27.7335726,85.2968341,+977 984-9434060,+9779849434060,,ChIJ23MtWsMY6zkRtDZjmvCmCsQ,ChIJ23MtWsMY6zkRtDZjmvCmCsQ,11,4.7,,0,8.0,10 AM to 6 PM,False,False,,https://lh3.googleusercontent.com/gps-cs-s/AHVAweqXS2LHtRYi2QK1X0SfCIEw2rICBUHkM3-SkP-EPnNCYzYm3-C8Ep8zvQs_4adssWhhnu8m24PhrR_NAhQnl5K9DNrPDCMzjeUL2v8KsF9tZPOZjVxHX6wAEkTx0kfnKr1eymli=w408-h305-k-no
Maharani beauty salon and academy,Beauty salon,Beauty salon,Beauty salon,"P7FX+R37, Kathmandu 44600, Nepal",P7FX+R37,Swayambhu,Kathmandu,,44600,NP,27.7245268,85.2976847,+977 982-3331966,+9779823331966,https://www.tiktok.com/@maharanibeauty_saloon?_r=1&_t=ZS-92Ee8TxMGQe,ChIJOfgvBgAZ6zkRCprxuuDjqnU,ChIJOfgvBgAZ6zkRCprxuuDjqnU,3,5.0,,0,24.0,Open 24 hours,False,False,,https://streetviewpixels-pa.googleapis.com/v1/thumbnail?panoid=5OMbqy6xS6KkU9cFZCyRGA&cb_client=search.gws-prod.gps&w=408&h=240&yaw=232.74329&pitch=0&thumbfov=100
GEN I. Technology Pvt. Ltd.,Corporate office,Corporate office,Corporate office,"P7GV+MV9, Kathmandu 44600, Nepal",P7GV+MV9,Balaju,Kathmandu,,44600,NP,27.7266744,85.2947269,+977 980-2374830,+9779802374830,https://genit.com.np/,ChIJGx7zZAAZ6zkR5nOHFL2aC6o,ChIJGx7zZAAZ6zkR5nOHFL2aC6o,11,5.0,,0,0.0,0,False,False,,https://streetviewpixels-pa.googleapis.com/v1/thumbnail?panoid=7_BaU5NxhcSXfsgAtV3cEg&cb_client=search.gws-prod.gps&w=408&h=240&yaw=84.68458&pitch=0&thumbfov=100
Aadharsha Brikuti Mahila SACOS,Corporate office,Corporate office,Corporate office,"Kathmandu 44600, Nepal",,Balaju,Kathmandu,,44600,NP,27.728119,85.2918154,,,,ChIJkSc3WgAf6zkRm_J2PO0ics0,ChIJkSc3WgAf6zkRm_J2PO0ics0,112,0.0,,0,0.0,0,False,False,,https://streetviewpixels-pa.googleapis.com/v1/thumbnail?panoid=B84tOdH81NvKTgQHSw6Kxg&cb_client=search.gws-prod.gps&w=408&h=240&yaw=298.11157&pitch=0&thumbfov=100
Krishna Innovative Technology Pvt.Ltd,Corporate office,Corporate office,Corporate office,"Kathmandu 44600, Nepal",,Ichangunarayan,Kathmandu,,44600,NP,27.7245209,85.288685,+977 1-4881577,+97714881577,,ChIJzb0LLjEZ6zkRBq2mNSyG8P0,ChIJzb0LLjEZ6zkRBq2mNSyG8P0,7,5.0,,0,10.0,9 AM to 7 PM,False,False,,https://lh3.googleusercontent.com/gps-cs-s/AHVAweq_jbrhrGDUF51t0ivyMeOL0A7whh4ujEOwtsVbVJwHVKA4gQonxz2rS-YJhmM2rzhL6gRILiSRSjO6Hd4MA7TIA1YdyvFKqViQ5Y66l0g1X7f7ZGK1Mq1dlYzRssXA7CcA_qEt=w426-h240-k-no
CRV Base Kharibot,Government office,Government office,Government office,"P7JV+9J4, Kathmandu 44600, Nepal",P7JV+9J4,Balaju,Kathmandu,,44600,NP,27.7308841,85.2940675,,,,ChIJsS-AIQAZ6zkRcTsiGXqCvL4,ChIJsS-AIQAZ6zkRcTsiGXqCvL4,10,0.0,,0,0.0,0,False,False,,https://streetviewpixels-pa.googleapis.com/v1/thumbnail?panoid=Dge9XzR9bfE1X9818KelrA&cb_client=search.gws-prod.gps&w=408&h=240&yaw=322.89423&pitch=0&thumbfov=100
Sarita Beauty Parlour,Beauty salon,Beauty salon,Beauty salon,"P7CX+75C, Hansha Marg, Kathmandu 44600, Nepal","P7CX+75C, Hansha Marg",Swayambhu,Kathmandu,,44600,NP,27.7206767,85.2979,+977 984-1316850,+9779841316850,,ChIJlVrGIewY6zkRovckFbBMoZc,ChIJlVrGIewY6zkRovckFbBMoZc,52,4.5,,0,8.0,9:30 AM to 5:30 PM,False,False,,https://streetviewpixels-pa.googleapis.com/v1/thumbnail?panoid=UTAJSUpshOqQCNNeGgkNYA&cb_client=search.gws-prod.gps&w=408&h=240&yaw=279.15228&pitch=0&thumbfov=100
Dallu Green Garden,Garden,Garden,Garden,"P74X+PCR, Kathmandu 44600, Nepal",P74X+PCR,Chhauni,Kathmandu,,44600,NP,27.7069611,85.2981707,+977 980-2059969,+9779802059969,,ChIJhWSBzqoZ6zkRturkMg7Ernw,ChIJhWSBzqoZ6zkRturkMg7Ernw,14,5.0,,0,8.0,9 AM to 5 PM,False,False,,https://lh3.googleusercontent.com/p/AF1QipMMFXMTOl1rvhQTSe8IZng3jX8ZT3X3GT4aHn8K=w408-h544-k-no
Nexus Financial Consultants,Corporate office,Corporate office,Corporate office,"Kalyan, 58 विनायक मार्ग, Kathmandu 44600, Nepal","Kalyan, 58 विनायक मार्ग",Swayambhu,Kathmandu,,44600,NP,27.722981,85.3002128,,,https://nexusfc.sitelium.site/,ChIJM_EUReMZ6zkR_Odac-9R66k,ChIJM_EUReMZ6zkR_Odac-9R66k,17,5.0,,0,0.0,0,False,False,,https://streetviewpixels-pa.googleapis.com/v1/thumbnail?panoid=NF6PEGkFBaW_7ips0BpBDw&cb_client=search.gws-prod.gps&w=408&h=240&yaw=188.28555&pitch=0&thumbfov=100
Mamabasnithau,Government office,Government office,Government office,"P7FM+H9F, Nagarjun 44600, Nepal",P7FM+H9F,Ichangunarayan,Nagarjun,,44600,NP,27.724019,85.2832886,,,,ChIJaZ7KFwAZ6zkRiXypz0QxHBA,ChIJaZ7KFwAZ6zkRiXypz0QxHBA,29,0.0,,0,0.0,0,False,False,,https://streetviewpixels-pa.googleapis.com/v1/thumbnail?panoid=R80afEOWtnaRXHYHksFE4Q&cb_client=search.gws-prod.gps&w=408&h=240&yaw=58.85982&pitch=0&thumbfov=100
Sankhuwa Sabha,Garden,Garden,Garden,"P7HR+VJ9, Nagarjun 44600, Nepal",P7HR+VJ9,Balaju,Nagarjun,,,NP,27.7296601,85.2916054,,,,ChIJnbSIFAAZ6zkRb6yqHorxy9s,ChIJnbSIFAAZ6zkRb6yqHorxy9s,29,0.0,,0,0.0,0,False,False,,https://streetviewpixels-pa.googleapis.com/v1/thumbnail?panoid=JO3HTDFXCz-lzAST6Nzwzg&cb_client=search.gws-prod.gps&w=408&h=240&yaw=139.39174&pitch=0&thumbfov=100
Rivans Home,Garden,Garden,Garden,"P7JX+66H, Kathmandu 44600, Nepal",P7JX+66H,Balaju,Kathmandu,,44600,NP,27.7305519,85.2981077,,,,ChIJn3Y_OwAZ6zkRJl5u0_HSkGw,ChIJn3Y_OwAZ6zkRJl5u0_HSkGw,27,0.0,,0,0.0,0,False,False,,https://streetviewpixels-pa.googleapis.com/v1/thumbnail?panoid=ENJDnLLQX_Zk0NB0N2QdiQ&cb_client=search.gws-prod.gps&w=408&h=240&yaw=228.0937&pitch=0&thumbfov=100
Muskan nursery,Garden,Garden,Garden,"Yellow gumba, Nagarjun 44600, Nepal",Yellow gumba,Ichangunarayan,Nagarjun,,,NP,27.7256702,85.2836045,+977 984-1438159,+9779841438159,,ChIJhYOfP7sZ6zkRTiArfSviiWk,ChIJhYOfP7sZ6zkRTiArfSviiWk,23,4.6,,0,12.0,6 AM to 6 PM,False,False,,https://lh3.googleusercontent.com/gps-cs-s/AHVAweo2smqRgJsnC0hgGQNErKmt63C20E3DoBfx2385zIOh5HLyy0hn1lSeT6rKW957XJ23GWmAjQjGsEl8I2RaPSQcTynADNsKXgjmg469mKMiOYgNE3B9eR90443g4XFsdX1oEEbanpS3AzOC=w408-h544-k-no
Gen-Z chowk,Garden,Garden,Garden,"P892+V7H, nursery chowk, Kathmandu 44600, Nepal","P892+V7H, nursery chowk",,Kathmandu,,44600,NP,27.7196879,85.3007366,,,,ChIJIaX4VwAZ6zkRepkrlWRKMZI,ChIJIaX4VwAZ6zkRepkrlWRKMZI,22,0.0,,0,0.0,0,False,False,,
"GFCS Corporate Advisors । Account, Audit, Tax, Legal",Accounting firm,Accounting firm,Accounting firm,"Swatantra Marg, Kathmandu 44611, Nepal",Swatantra Marg,Swayambhu,Kathmandu,,44611,NP,27.7242495,85.2981482,+977 980-2360825,+9779802360825,https://gfcsnepal.com/,ChIJfW18LGEZ6zkR9UBWvXfL5M0,ChIJfW18LGEZ6zkR9UBWvXfL5M0,120,4.8,,0,9.0,9 AM to 6 PM,False,False,,https://streetviewpixels-pa.googleapis.com/v1/thumbnail?panoid=iyvGPFmmToRVg4shWww6BA&cb_client=search.gws-prod.gps&w=408&h=240&yaw=189.70251&pitch=0&thumbfov=100
Zoom Beauty Academy - Best Beauty Academy in Swoyambhu Kathmandu,Beauty salon,Beauty salon,Beauty salon,"Kathmandu 44620, Nepal",,Swayambhu,Kathmandu,,44620,NP,27.7204375,85.2876875,+977 980-2351573,+9779802351573,https://zoombeautyacademy.com/,ChIJ36OdDGwZ6zkRdSrZTYBrMzY,ChIJ36OdDGwZ6zkRdSrZTYBrMzY,2,4.7,,0,12.0,7 AM to 7 PM,False,False,,https://lh3.googleusercontent.com/p/AF1QipNCbGyEMR4qQyvI1aflBR0b1nkKGWMPPtYb0Mqu=w408-h631-k-no
ST Power Gym Fitness,Gym,Gym,Gym,"P75G+X26, Nagarjun 44600, Nepal",P75G+X26,Sitapaila,Nagarjun,,44600,NP,27.7099163,85.2750132,+977 986-0741260,+9779860741260,,ChIJeSa3YgAZ6zkRvc-Gn9qUDrY,ChIJeSa3YgAZ6zkRvc-Gn9qUDrY,20,5.0,,0,15.0,5 AM to 8 PM,False,False,,https://lh3.googleusercontent.com/gps-cs-s/AHVAwep_heep6dRnd6FmsNQNv5-5t9uN4lsIM24wd65p9g4IRTTvPjCsTI_zSXZHDuh3JETy2DwdCy0vpHu7jXv6kTvmG3LXCAYpW5HUe0VRRzprJtWuTimicHhnriB3AGYBsBirIGBoD6I3EZeO=w408-h306-k-no
Chamati Landpooling Office,Government office,Government office,Government office,"Chamati Landpooling Office, Kathmandu 44600, Nepal",Chamati Landpooling Office,Swayambhu,Kathmandu,,44600,NP,27.715874,85.2963143,,,,ChIJNcJ0fQAZ6zkR6ldKhblDyF0,ChIJNcJ0fQAZ6zkR6ldKhblDyF0,18,3.0,,0,7.0,10 AM to 5 PM,False,False,,https://streetviewpixels-pa.googleapis.com/v1/thumbnail?panoid=Www49XrS9MHnRq57qVzxVg&cb_client=search.gws-prod.gps&w=408&h=240&yaw=1.8023953&pitch=0&thumbfov=100
