name,main_category,category,address,city,lat,lng,rating,reviews_count,reviewsDistribution_oneStar,reviewsDistribution_twoStar,reviewsDistribution_threeStar,reviewsDistribution_fourStar,reviewsDistribution_fiveStar,weekly_hours,wifi,dine_in,takeout,delivery,breakfast,lunch,dinner,vegetarian,coffee,alcohol,beer,casual,family_friendly,tourists,reservations,cash_only,wheelchair_accessible_entrance,source_file,distribution_generated
Wanted Restaurant,Restaurant,Restaurant,"Bhaktapur 44800, Nepal",Bhaktapur,27.6696016,85.4109786,4.7,15,0,0,1,6,8,98.0,0,1,1,1,0,1,1,0,1,1,1,1,0,0,1,0,0,,1
Khushi Khaja Ghar,Asian restaurant,Asian restaurant,"MC86+82F, Unnamed Road, Suryabinayak 44800, Nepal",Suryabinayak,27.6658123,85.4100564,5.0,2,0,0,0,1,1,84.0,0,1,1,0,0,1,0,0,0,0,0,1,0,0,0,0,0,,1
Crave Corner,Asian restaurant,Asian restaurant,"MCC5+4R7, Suryabinayak 44800, Nepal",Suryabinayak,27.6704538,85.409407,5.0,1,0,0,0,0,1,0.0,0,0,0,0,0,0,0,0,0,0,0,0,0,0,0,0,0,,1
Bardali Kitchen & Sekuwa Ghar,Family restaurant,Family restaurant,"MCC3+XXW Srijananagar, 44800, Nepal",Suryabinayak,27.6724375,85.4049375,4.7,45,0,0,2,18,25,168.0,0,1,1,1,1,1,1,0,1,1,1,1,1,0,1,0,0,,1
Taboche Restaurant and coffee shop,Restaurant,Restaurant,"Bhaktapur 44800, Nepal",Bhaktapur,27.6713645,85.4213097,4.6,111,0,0,7,47,57,91.0,0,1,1,1,1,1,1,0,1,0,0,1,1,1,1,0,1,,1
The Burger House and Crunchy Fried Chicken,Restaurant,Restaurant,"Suryabinayak 44800, Nepal",Suryabinayak,27.6704472,85.4096093,3.4,255,1,23,118,99,14,87.5,0,1,1,1,0,1,1,0,1,1,1,1,0,0,1,0,0,,1
Paradise Foodland,Restaurant,Restaurant,"MCC6+822, Bhaktapur 44800, Nepal",Bhaktapur,27.6707736,85.4100168,3.3,138,1,16,68,48,5,105.0,0,1,1,0,0,1,0,0,1,1,1,1,0,0,1,0,0,,1
Sarlahi Khaja Ghar,Fast food restaurant,Fast food restaurant,"MC97+F5M, Araniko Highway, Suryabinayak 44800, Nepal",Suryabinayak,27.6687012,85.4129098,5.0,1,0,0,0,0,1,98.0,0,1,1,0,1,1,0,0,0,1,1,1,0,0,0,0,0,,1
Maila Daiko Khaja Ghar,Fast food restaurant,Fast food restaurant,"MC95+RFF, Araniko Highway, Suryabinayak 44800, Nepal",Suryabinayak,27.6695565,85.4086816,4.7,3,0,0,0,1,2,105.0,0,1,1,0,1,1,0,0,0,1,1,0,0,0,0,0,0,,1
Sushmita Khaja Ghar,Fast food restaurant,Fast food restaurant,"MC97+R3X, Araniko Highway, Bhaktapur 44800, Nepal",Bhaktapur,27.6696088,85.4127312,5.0,1,0,0,0,0,1,0.0,0,1,1,0,0,0,0,0,0,1,1,1,0,0,0,0,0,,1
Universal Tandoori Cafe,Family restaurant,Family restaurant,"Tinkune, Sallahghari, Araniko Highway, Bhaktapur 44800, Nepal",Bhaktapur,27.6713044,85.4082338,3.5,179,0,13,77,76,13,84.0,0,1,1,1,1,1,1,0,1,1,1,1,0,1,1,0,0,,1
North Rooftop Restaurant,Family restaurant,Family restaurant,"Ittachhen - 1, Bhaktapur 44800, Nepal",Bhaktapur,27.6721412,85.423476,4.1,54,0,1,10,29,14,0.0,0,1,1,0,0,1,1,0,1,1,1,1,0,1,1,0,0,,1
Bluemoon homestay and Restaurant,Restaurant,Restaurant,"1 Sallaghari, Bhaktapur 44800, Nepal",Bhaktapur,27.6751651,85.4085202,4.8,13,0,0,0,5,8,105.5,0,1,1,1,0,1,1,0,1,0,0,1,1,0,1,0,0,,1
Old Town Food: Best Late-Night Food in Bhaktapur,Family restaurant,Family restaurant,"2 Sallaghari- Duwakot Rd, Changunarayan 44800, Nepal",Changunarayan,27.6776181,85.4075666,4.1,344,0,4,63,186,91,121.0,1,1,1,1,1,1,1,1,1,1,1,1,1,1,1,0,0,,1
Newa Nanee,Restaurant,Restaurant,"MCF6+4RR, Bhaktapur 44800, Nepal",Bhaktapur,27.6735524,85.4124763,4.2,57,0,0,9,30,18,81.0,1,1,1,0,1,1,1,0,1,1,1,1,1,1,1,0,1,,1
Mi:loco Cafe' n Restaurant,Restaurant,Restaurant,"Bhaktapur Multiple Campus Road, Dudhpati-1, Bhaktapur 44800, Nepal",Bhaktapur,27.6711367,85.4216744,4.0,85,0,1,19,46,19,101.5,0,1,1,1,0,1,1,0,1,1,1,1,0,1,1,0,0,,1
Swastik Newari Khaja Ghar (Authentic Newari Restaurant),Nepalese restaurant,Nepalese restaurant,"Bhaktapur 44800, Nepal",Bhaktapur,27.6722911,85.426915,5.0,14,0,0,0,4,10,91.0,0,1,1,0,0,0,0,0,0,0,0,0,0,0,0,0,0,,1
Jai MataDi Sweet and Chat House,Restaurant,Restaurant,"Unnamed Road, 44800, Nepal",Suryabinayak,27.6695517,85.410913,3.7,7,0,0,2,4,1,84.0,0,1,1,0,0,1,0,0,0,0,0,1,0,0,0,0,0,,1
Lakshmi Khaja Ghar,Fast food restaurant,Fast food restaurant,"MC96+CPX, Araniko Highway, Suryabinayak 44800, Nepal",Suryabinayak,27.668624,85.4118629,4.2,9,0,0,1,5,3,98.0,0,1,1,0,1,1,0,0,0,1,1,1,0,0,0,1,1,,1
Cafe JAC Bhaktapur,Restaurant,Restaurant,"Suryabinayak 44800, Nepal",Suryabinayak,27.6652664,85.4226844,5.0,3,0,0,0,1,2,91.0,1,1,1,1,1,1,1,1,1,1,1,1,1,0,1,0,0,,1
Dipa Khaja Ghar,Fast food restaurant,Fast food restaurant,"MC8C+H2G, Araniko Highway, Bhaktapur 44800, Nepal",Bhaktapur,27.6664314,85.420063,5.0,1,0,0,0,0,1,0.0,0,1,1,0,1,1,0,0,0,1,1,1,0,0,0,0,0,,0
CHOPSTICK,Fast food restaurant,Fast food restaurant,"Unnamed Road, Suryabinayak 44800, Nepal",Suryabinayak,27.6689815,85.4057539,4.4,5,0,1,0,0,4,87.5,0,1,1,0,0,1,0,0,1,1,1,1,0,0,0,0,0,,0
Sukul Dhoka ko Michael Momo,Chinese restaurant,Chinese restaurant,"MCC5+7MQ, Suryabinayak 44800, Nepal",Suryabinayak,27.670709,85.4092365,3.5,2,0,1,0,0,1,0.0,0,1,1,0,0,0,0,0,0,0,0,1,0,0,0,0,0,,0
Suddha Sakahari Khaja Ghar,Breakfast restaurant,Breakfast restaurant,"Araniko Highway, Suryabinayak 44800, Nepal",Suryabinayak,27.669819,85.408712,0.0,0,0,0,0,0,0,91.0,0,1,0,0,1,1,0,0,0,0,0,1,0,0,0,0,0,,0
RBrr Khaja ghar,Restaurant,Restaurant,"MC77+QQX, Suryabinayak 44800, Nepal",Suryabinayak,27.6644892,85.414486,0.0,0,0,0,0,0,0,0.0,0,1,1,0,0,0,0,0,0,1,1,1,0,0,0,0,0,,0
Sindhu Khaja Ghar,Fast food restaurant,Fast food restaurant,"MC89+JQ9, Araniko Highway, Bhaktapur 44800, Nepal",Bhaktapur,27.6665413,85.4194733,3.0,2,1,0,0,0,1,91.0,0,1,1,0,1,1,0,0,0,1,1,1,0,0,0,0,0,,0
J.K. Rimjhim Food Stick,Asian restaurant,Asian restaurant,"MC86+R59, Unnamed Road, Suryabinayak 44800, Nepal",Suryabinayak,27.6670465,85.4104814,0.0,0,0,0,0,0,0,0.0,0,1,1,0,1,1,1,0,0,0,0,1,0,0,1,0,0,,0
Takila tea sallaghari outlet,Restaurant,Restaurant,"MCC5+327, Unnamed Road, Suryabinayak 44800, Nepal",Suryabinayak,27.6701624,85.4075394,0.0,0,0,0,0,0,0,0.0,0,1,1,0,0,0,0,0,0,0,0,1,0,0,0,0,0,,0
Maa’s Cafe,Cafe,Cafe,"Tinkune, Sallahghari, Bhaktapur 44800, Nepal",Bhaktapur,27.6708336,85.4091961,4.9,52,0,0,1,17,34,98.0,0,1,1,1,0,1,0,0,1,0,0,1,0,0,1,0,0,,1
Café:In,Coffee shop,Coffee shop,"Bhaktapur 44800, Nepal",Bhaktapur,27.664202,85.4217985,4.8,12,0,0,1,4,7,74.75,1,1,1,1,0,1,0,0,1,0,0,1,1,1,1,0,0,,1
Cin Cin Garden,Restaurant,Restaurant,"Bhaktapur 44800, Nepal",Bhaktapur,27.6706505,85.4218284,4.7,402,0,0,18,158,226,94.5,1,1,1,1,1,1,1,0,1,1,1,1,1,1,1,0,0,,1
The light cafe and restaurant,Restaurant,Restaurant,"Suryabinayak 44800, Nepal",Suryabinayak,27.6633759,85.4237223,5.0,1,0,0,0,0,1,107.0,0,1,0,0,0,0,0,0,1,0,0,1,0,0,0,0,0,,1
Baiga Cafe and Rooftop,Restaurant,Restaurant,"MCFF+3XG, Bhaktapur 44800, Nepal",Bhaktapur,27.6726941,85.4249557,4.9,10,0,0,0,3,7,101.5,0,0,0,0,0,0,0,0,0,0,0,0,0,0,0,0,0,,1
MOMO MUNI CAFE,Family restaurant,Family restaurant,"MCC4+V9G, Suryabinayak 44800, Nepal",Suryabinayak,27.6721982,85.4058445,5.0,1,0,0,0,0,1,70.0,0,1,1,0,0,1,0,0,0,0,0,1,0,0,0,0,0,,1
La Bella Restro srijananagar bhaktapur,Cafe,Cafe,"srijananagar, Bhaktapur 44800, Nepal",Bhaktapur,27.6723507,85.4052033,4.6,10,0,0,1,4,5,112.0,0,1,1,0,0,0,0,0,1,1,1,1,0,0,0,0,0,,1
CULTURE CAFE & BAR,Nepalese restaurant,Nepalese restaurant,"Pottery Square, Bhaktapur 44800, Nepal",Bhaktapur,27.6699487,85.4277691,4.7,43,0,0,2,17,24,98.0,0,1,1,1,0,1,0,0,1,1,1,1,0,1,1,0,0,,1
Bhaktapur Dairy And Coffee Shop,Cafe,Cafe,"MC89+F7X, Bhaktapur 44800, Nepal",Bhaktapur,27.666245,85.4182367,5.0,1,0,0,0,0,1,112.0,0,0,1,0,0,0,0,0,1,0,0,1,0,0,0,0,0,,1
The Pottery Cafe and bar,Restaurant,Restaurant,"Bhaktapur 44800, Nepal",Bhaktapur,27.6697144,85.4276931,4.5,271,0,0,21,125,125,84.0,0,1,1,0,1,1,1,0,1,1,1,1,0,1,1,0,1,,1
Siddhapokhari Kirana Pasal,Coffee shop,Coffee shop,"MCCC+G24, Bhaktapur 44800, Nepal",Bhaktapur,27.6711801,85.4200541,3.7,107,6,11,27,25,38,0.0,0,0,1,0,0,0,0,0,1,0,0,1,0,0,0,0,0,,0
SUZZANE FOOD CAFE,Cafe,Cafe,"MC96+W6F, Suryabinayak 44800, Nepal",Suryabinayak,27.6698033,85.4105413,1.0,1,1,0,0,0,0,0.0,0,1,1,0,1,0,0,0,1,0,0,1,0,0,0,0,0,,0
Palpasa Cafe & Fast Food,Cafe,Cafe,"MC96+X4M, Araniko Highway, Suryabinayak 44800, Nepal",Suryabinayak,27.6699536,85.4102817,2.8,5,0,2,2,1,0,91.0,0,1,1,0,1,1,0,0,1,0,0,1,0,0,0,0,0,,0
Sindhupalchok khaja ghar and coffee shop,Coffee shop,Coffee shop,"MC89+9M8, Bhaktapur 44800, Nepal",Bhaktapur,27.6659175,85.4192133,0.0,0,0,0,0,0,0,0.0,0,0,0,0,0,0,0,0,1,0,0,0,0,0,0,0,0,,0
Sunapati Ramechhap Khaja Ghar,Bar,Bar,"MCC6+4G6, Bhaktapur 44800, Nepal",Bhaktapur,27.6702942,85.4112787,1.0,1,1,0,0,0,0,0.0,0,1,0,0,0,0,0,0,0,1,1,1,0,0,0,0,0,,1
Ghorasaini Liquor & Fruits,Bar,Bar,"MCC7+9H6, Bhaktapur 44800, Nepal",Bhaktapur,27.6709226,85.4138819,0.0,0,0,0,0,0,0,120.0,0,0,0,0,0,0,0,0,0,1,1,1,0,0,0,0,0,,0
bhaktapur nepal,Bar,Bar,"MCC5+M4H, Bhaktapur 44800, Nepal",Bhaktapur,27.6716863,85.4078543,0.0,0,0,0,0,0,0,0.0,0,1,0,0,0,0,0,0,0,1,1,1,0,0,0,0,0,,0
The Golden Lion,Sports bar,Sports bar,"Height 44800, Nepal",Height,27.6617555,85.4211059,5.0,3,0,0,0,1,2,102.0,0,1,1,0,0,0,0,0,0,1,1,1,0,0,0,0,0,,1
Stunt bums,Bar,Bar,"MC75+QJW, Suryabinayak 44800, Nepal",Suryabinayak,27.6644841,85.4090714,0.0,0,0,0,0,0,0,0.0,0,0,0,0,0,0,0,0,0,1,0,0,0,0,0,0,0,,0
mrp sekuwa adda सेकुवा KG रक्सी MRP मा,Bar,Bar,"MCF3+6W5, Araniko Highway, Bhaktapur 44800, Nepal",Bhaktapur,27.6730246,85.4047476,4.2,47,0,0,7,25,15,112.0,1,1,1,1,0,1,1,0,1,1,1,1,1,0,1,0,0,,1
Battle Snooker,Sports bar,Sports bar,"MCCF+839, Nagarkot Road, Bhaktapur 44800, Nepal",Bhaktapur,27.6707806,85.422736,5.0,1,0,0,0,0,1,84.0,0,0,0,0,0,0,0,0,0,1,1,1,0,0,0,1,0,,1
The Garuda Bar,Bar,Bar,"Taumadhi Square, Rooftop Of Hotel Garuda, Bhaktapur 44800, Nepal",Bhaktapur,27.6707963,85.4288518,4.2,103,0,1,15,55,32,91.0,1,1,1,1,1,1,1,1,1,1,1,1,0,1,1,0,1,,1
Khankii Lounge & Bar with Thakali,Bar,Bar,"MCF3+6W5, Araniko Highway, Bhaktapur 44800, Nepal",Bhaktapur,27.6730144,85.4048528,0.0,0,0,0,0,0,0,87.5,0,1,0,0,0,0,0,0,0,1,1,1,0,0,1,0,0,,0
Tas-ka Bar,Bar,Bar,"12 Bolachhen, Bhaktapur 44800, Nepal",Bhaktapur,27.6702897,85.4285822,4.1,15,0,0,3,8,4,0.0,0,1,1,0,0,0,0,0,0,1,1,1,0,0,0,0,0,,1
Ja foodland and Bar,Bar,Bar,"MCCH+FWX, Bhaktapur 44800, Nepal",Bhaktapur,27.6712421,85.4298469,3.4,21,0,2,10,8,1,0.0,0,1,0,0,0,0,0,0,0,1,1,1,0,0,0,0,0,,1
The Tribal Bar,Bar,Bar,"MC8G+X4R, गःपलि मार्ग, Bhaktapur 44800, Nepal",Bhaktapur,27.6675284,85.4252122,0.0,0,0,0,0,0,0,0.0,0,1,0,0,0,0,0,0,0,1,1,1,0,1,1,0,0,,0
Lawaju Mithai Bhandar (लवजू मिठाइ भण्डार),Vegetarian restaurant,Vegetarian restaurant,"Garud Kunda, Jagati-KamalBinayak Rd, Bhaktapur 44800, Nepal",Bhaktapur,27.6767395,85.4371462,3.8,39,0,1,12,20,6,98.0,0,1,1,1,1,1,0,1,0,0,0,1,0,0,0,0,1,,1
सिध्दिलक्ष्मी मिठाई भण्डार,Vegetarian restaurant,Vegetarian restaurant,"100 Araniko Highway, Suryabinayak 44800, Nepal",Suryabinayak,27.6649522,85.4256451,3.6,80,0,4,31,37,8,98.0,0,1,1,0,1,1,1,1,1,0,0,1,1,1,0,1,0,,1
Balakhu Food Point,Restaurant,Restaurant,"Bhaktapur 44800, Nepal",Bhaktapur,27.6728194,85.4293616,4.8,268,0,0,9,95,164,82.25,1,1,1,0,1,1,1,1,1,1,1,1,1,1,1,1,1,,1
Na:Pukhu Fast Food,Restaurant,Restaurant,"Bhaktapur 44800, Nepal",Bhaktapur,27.6714316,85.4231449,3.4,108,0,10,50,42,6,91.0,0,1,1,0,0,1,0,0,1,1,1,1,0,0,1,0,0,,1
Tryst Fast Food Restaurant,Restaurant,Restaurant,"MCCC+JM3, Nagarkot Road, Bhaktapur 44800, Nepal",Bhaktapur,27.6715225,85.4216812,3.5,179,0,13,77,76,13,91.0,0,1,1,0,0,1,1,0,1,1,1,1,0,1,1,0,1,,1
Stick Fast Food,Restaurant,Restaurant,"MCCC+G97, Nagarkot Road, Bhaktapur 44800, Nepal",Bhaktapur,27.671189,85.4208855,4.0,2,0,0,1,1,0,0.0,0,0,0,0,0,0,0,0,0,0,0,0,0,0,0,0,0,,1
3rd eyes fast food,Restaurant,Restaurant,"MC8G+MR6 Bhulancha, Suryabinayak 44800, Nepal",Suryabinayak,27.6666523,85.4270263,5.0,3,0,0,0,1,2,84.0,0,1,1,0,0,0,0,0,0,0,0,1,0,0,0,0,0,,1
New Diamond Restaurant,Fast food restaurant,Fast food restaurant,"MCH5+GCR, Changunarayan 44800, Nepal",Changunarayan,27.6788591,85.4085359,5.0,2,0,0,0,1,1,91.0,0,0,0,0,0,0,0,0,0,0,0,0,0,0,0,0,0,,1
Kyodong Laphing and Fast Food,Restaurant,Restaurant,"MC8F+G93, Unnamed Road, Bhaktapur 44800, Nepal",Bhaktapur,27.6662604,85.4234316,4.0,1,0,0,0,1,0,91.0,0,1,1,0,0,1,1,0,0,0,0,1,0,0,0,0,0,,1
कान्तिपुर गेष्ट हाउस एण्ड रेष्टुरेन्ट,Hong Kong style fast food restaurant,Hong Kong style fast food restaurant,"Nagarkot Road, Bhaktapur 44800, Nepal",Bhaktapur,27.6712727,85.4207497,3.2,17,0,2,9,5,1,168.0,0,1,1,1,0,1,0,0,0,0,0,1,0,0,1,0,1,,1
New York Bites,Fast food restaurant,Fast food restaurant,"MCFG+587, Durbar Square Road, Bhaktapur 44800, Nepal",Bhaktapur,27.6728993,85.4258144,5.0,1,0,0,0,0,1,0.0,0,0,0,0,0,0,0,0,0,0,0,0,0,0,0,0,0,,1
Swadishta Momo And Fast Food,Restaurant,Restaurant,"MCF4+RVW, Bhaktapur 44800, Nepal",Bhaktapur,27.6746014,85.4072186,3.0,2,0,1,1,0,0,91.0,0,1,1,0,0,0,0,0,0,0,0,1,0,0,0,0,0,,1
Kumar Khaja Ghar कुमार खाजा घर,Fast food restaurant,Fast food restaurant,"MC76+7CJ, Bhaktapur 44800, Nepal",Bhaktapur,27.6632167,85.4110133,0.0,0,0,0,0,0,0,0.0,0,1,0,0,0,0,0,0,0,0,0,1,0,0,0,0,0,,0
De Temple Cafe,Restaurant,Restaurant,"North side of Dattatraya Square, Bhaktapur 44800, Nepal",Bhaktapur,27.6735231,85.4349476,4.4,197,0,1,19,96,81,105.0,0,1,1,1,1,1,1,0,1,1,1,1,0,1,1,0,1,,1
Madhikarmi JuJu Dhau Center,Dessert restaurant,Dessert restaurant,"MCFJ+4J6, Golmadhi, Bhaktapur 44800, Nepal",Bhaktapur,27.6727945,85.431531,4.5,59,0,0,5,27,27,91.0,0,0,1,0,0,0,0,0,0,0,0,1,0,0,0,0,0,,1
Hada Ice Cream,Ice cream shop,Ice cream shop,"Bhaktapur 44800, Nepal",Bhaktapur,27.6667617,85.4256602,4.0,438,0,6,97,238,97,84.0,0,1,1,1,0,0,0,0,1,0,0,1,0,0,0,0,1,,1
Hotel Prisha and Rooftop,Restaurant,Restaurant,"Nagarkot Road, Bhaktapur 44800, Nepal",Bhaktapur,27.6712287,85.4204982,4.3,35,0,0,4,18,13,0.0,0,1,1,1,1,1,1,0,1,1,1,1,0,0,1,0,0,,1
Timmure kamalbinayak,Barbecue restaurant,Barbecue restaurant,"Jagati-KamalBinayak Rd, Bhaktapur 44600, Nepal",Bhaktapur,27.6768151,85.4368339,4.0,115,0,2,25,63,25,87.5,1,1,1,1,0,1,1,1,0,1,1,1,1,1,1,0,1,,1
Eagle King sekuwa corner,Barbecue restaurant,Barbecue restaurant,"MCH5+G9H, Bhaktapur 44800, Nepal",Bhaktapur,27.6788165,85.4084699,0.0,0,0,0,0,0,0,105.0,0,1,1,0,0,1,0,0,0,1,1,1,0,0,0,0,0,,0
COFEE SHOP,Coffee shop,Coffee shop,"MCF5+W8Q, Bhaktapur 44800, Nepal",Bhaktapur,27.674848,85.4084642,0.0,0,0,0,0,0,0,0.0,0,0,0,0,0,0,0,0,1,0,0,0,0,0,0,0,0,,0
Fresh coffe House and Barkery,Coffee shop,Coffee shop,"MCC6+229, Suryabinayak 44800, Nepal",Suryabinayak,27.6700488,85.4101096,5.0,1,0,0,0,0,1,0.0,0,1,1,0,0,0,0,0,1,0,0,1,0,0,0,0,0,,1
Roshani Coffee Shop,Coffee shop,Coffee shop,"MCF5+GWP, Nagarkot Road, Bhaktapur 44800, Nepal",Bhaktapur,27.6738452,85.409822,3.4,38,0,3,18,15,2,91.0,0,1,1,0,1,1,0,0,1,0,0,1,0,0,0,0,1,,1
Shrestha Coffee Shop,Cafe,Cafe,"MCF5+MRV, Bhaktapur 44800, Nepal",Bhaktapur,27.6742261,85.4095526,3.4,21,0,2,10,8,1,94.5,0,1,0,0,0,0,0,0,1,0,0,1,0,0,0,1,1,,1
Drip Cafe,Coffee shop,Coffee shop,"Bhaktapur 44800, Nepal",Bhaktapur,27.671192,85.4207331,5.0,1,0,0,0,0,1,94.5,0,1,1,0,0,0,0,0,1,0,0,1,0,0,0,0,0,,1
UnderGround Cafe,Coffee shop,Coffee shop,"MCCC+5PM, Nagarkot Road, Bhaktapur 44800, Nepal",Bhaktapur,27.67039,85.421741,5.0,3,0,0,0,1,2,0.0,0,0,0,0,0,0,0,0,1,0,0,0,0,0,0,0,0,,1
My Cafe,Coffee shop,Coffee shop,"MCC4+RGP, Araniko Highway, Suryabinayak 44800, Nepal",Suryabinayak,27.6720649,85.4063076,0.0,0,0,0,0,0,0,0.0,0,1,1,0,0,0,0,0,1,0,0,1,0,0,0,0,0,,0
Prabin Cold Store,Coffee shop,Coffee shop,"MCGF+647, Nagarkot Rd, Bhaktapur 44800, Nepal",Bhaktapur,27.6755398,85.4227956,5.0,1,0,0,0,0,1,0.0,0,0,1,0,0,0,0,0,1,0,0,1,0,0,0,0,0,,1
"suryabinayak,5 katunje",Coffee shop,Coffee shop,"MC93+8QV, Suryabinayak, Nepal",Suryabinayak,27.6683542,85.4044251,5.0,1,0,0,0,0,1,0.0,0,1,0,0,0,0,0,0,1,0,0,1,0,0,0,0,0,,1
The bekary & coffee shop,Coffee shop,Coffee shop,"Bhaktapur 44800, Nepal",Bhaktapur,27.6683125,85.4043512,5.0,1,0,0,0,0,1,98.0,0,1,0,0,0,0,0,0,1,0,0,1,0,0,0,0,0,,1
Bhajya Pukhu Coffee,Coffee shop,Coffee shop,"Nagarkot Road, Bhaktapur 44800, Nepal",Bhaktapur,27.6712812,85.4211715,4.0,334,0,5,74,181,74,91.0,0,1,1,0,1,0,0,0,1,0,0,1,0,1,1,1,0,,1
Shova Coffee Shop,Coffee shop,Coffee shop,"MCCC+JM3, Siddhaphokari, Bhaktapur 44800, Nepal",Bhaktapur,27.67151,85.4216859,3.2,22,0,3,11,7,1,98.0,0,1,1,0,0,0,0,0,1,0,0,1,0,0,0,0,0,,1
Durbar Coffee & Eatery,Coffee shop,Coffee shop,"MCCG+WJP, Bhaktapur 44800, Nepal",Bhaktapur,27.672341,85.4266082,4.6,24,0,0,2,10,12,84.0,0,1,1,0,0,0,0,0,1,1,1,1,0,1,1,0,0,,1
Coffee Klatch,Coffee shop,Coffee shop,"12 Rammandir Rd, Bhaktapur 44800, Nepal",Bhaktapur,27.6700445,85.4282604,4.5,70,0,0,6,32,32,91.0,0,1,1,0,0,0,0,0,1,0,0,1,0,1,0,1,1,,1
Bijen Ko Pasal,Coffee shop,Coffee shop,"MCF3+2R3, Bhaktapur 44800, Nepal",Bhaktapur,27.6724194,85.4043218,0.0,0,0,0,0,0,0,0.0,0,0,0,0,0,0,0,0,1,0,0,0,0,0,0,0,0,,0
Shashil group,Coffee shop,Coffee shop,"Bhaktapur 44800, Nepal",Bhaktapur,27.6716926,85.4078369,0.0,0,0,0,0,0,0,144.0,0,1,1,0,0,0,0,0,1,0,0,1,0,0,0,0,0,,0
The Street Coffee House,Coffee store,Coffee store,"Sahid Smriti Khel, Maidan 44800, Nepal",Maidan,27.674435,85.4229588,5.0,23,0,0,0,7,16,105.0,0,1,1,0,0,0,0,0,0,0,0,0,0,0,0,0,0,,1
Refesh Coffee House and Bakery,Coffee store,Coffee store,"Araniko Highway, Suryabinayak 44800, Nepal",Suryabinayak,27.6700433,85.4101231,5.0,1,0,0,0,0,1,101.5,0,0,1,0,0,0,0,0,0,0,0,0,0,0,0,0,0,,1
One O One Coffee & Barista School,Coffee shop,Coffee shop,"Suryabinayak-6, Bhaktapur, Nepal",Bhaktapur,27.6639728,85.4259243,4.7,487,0,0,22,191,274,98.0,1,1,1,1,1,1,1,0,1,1,1,1,1,1,1,0,0,,1
The Morrison Cafe,Coffee shop,Coffee shop,"MCFG+24J, Bhaktapur 44800, Nepal",Bhaktapur,27.6725878,85.4252582,5.0,4,0,0,0,1,3,98.0,0,0,0,0,0,0,0,0,1,0,0,0,0,0,0,0,0,,1
Hillside beans barista coffee school,Coffee shop,Coffee shop,"MC7G+Q7X, F099, Suryabinayak 44800, Nepal",Suryabinayak,27.6644989,85.4257322,4.8,80,0,0,3,28,49,112.0,0,1,1,0,0,0,0,0,1,0,0,1,0,0,0,0,0,,1
Enjoycoffeeshop,Coffee shop,Coffee shop,"3 Somla galli, Bhaktapur 44800, Nepal",Bhaktapur,27.671456,85.4278273,5.0,5,0,0,0,1,4,89.5,0,0,1,1,0,0,0,0,1,0,0,1,0,0,0,0,0,,1
FreshPresso Coffee Bar,Cafe,Cafe,"बलखु 44800, Nepal",बलखु,27.6726397,85.4295795,4.6,39,0,0,2,17,20,108.5,0,1,1,0,0,0,0,0,1,1,1,1,0,1,0,0,0,,1
Refresh Cafe,Cafe,Cafe,"MCCC+GF7, Nagarkot Road, Bhaktapur 44800, Nepal",Bhaktapur,27.6712788,85.4211734,4.5,2,0,0,0,1,1,0.0,0,1,1,0,0,0,0,0,1,0,0,1,0,0,0,0,0,,1
Abc Cafe,Cafe,Cafe,"MC93+HXH, Suryabinayak 44800, Nepal",Suryabinayak,27.6689225,85.4049667,5.0,1,0,0,0,0,1,0.0,0,1,0,0,0,0,0,0,1,0,0,1,0,0,0,0,0,,1
TUSHARO CAFE,Cafe,Cafe,"101 Araniko Highway, Bhaktapur 44800, Nepal",Bhaktapur,27.6660451,85.4225424,5.0,1,0,0,0,0,1,168.0,0,1,1,0,1,0,0,0,1,1,1,1,0,0,0,0,0,,1
Janakpur Sweet and chat house,Family restaurant,Family restaurant,"MCH5+539, Changunarayan 44800, Nepal",Changunarayan,27.6778068,85.4078506,5.0,3,0,0,0,1,2,0.0,0,1,1,1,0,0,0,0,0,0,0,0,0,0,0,0,0,,1
Busy Bee Restro,Restaurant,Restaurant,"MCF5+GWP, Nagarkot Road, Bhaktapur 44800, Nepal",Bhaktapur,27.6738313,85.4098194,4.3,4,0,0,1,2,1,91.0,0,1,1,0,0,1,1,0,1,1,1,1,0,0,1,0,0,,1
Salla Cafe,Restaurant,Restaurant,"MCF5+GWV, Bhaktapur 44800, Nepal",Bhaktapur,27.6738651,85.4097823,3.3,3,0,0,2,1,0,0.0,0,1,1,1,1,1,1,0,1,1,1,1,0,0,1,0,0,,1
Вкусная еда,Restaurant,Restaurant,"MCG5+6P3, Bhaktapur 44800, Nepal",Bhaktapur,27.6754222,85.4092715,4.7,3,0,0,0,1,2,84.0,0,1,0,0,0,0,0,0,0,0,0,1,0,0,0,0,0,,1
Subecchya Restaurant (Shree Ram Birbal),Asian restaurant,Asian restaurant,"MCG4+M7W, Bhaktapur 44800, Nepal",Bhaktapur,27.6767355,85.4056893,4.0,1,0,0,0,1,0,0.0,0,1,1,0,0,0,0,0,0,0,0,1,0,0,0,0,0,,1
Jaiswal Handi mutton Restaurant,Indian restaurant,Indian restaurant,"MCF5+9MX, Bhaktapur 44800, Nepal",Bhaktapur,27.6734827,85.409241,4.0,4,0,0,1,2,1,91.0,0,1,1,0,0,0,0,0,0,0,0,1,0,0,0,0,0,,1
Newa Kitchen & Sekuwa House,Family restaurant,Family restaurant,"MCF5+8QH, Bhaktapur 44800, Nepal",Bhaktapur,27.6732633,85.409524,2.0,1,0,1,0,0,0,63.0,0,1,1,0,0,1,1,0,0,1,1,1,0,0,0,0,0,,1
Khwopa Garden Restaurant,Fast food restaurant,Fast food restaurant,"MCCF+P2V, Bhaktapur 44800, Nepal",Bhaktapur,27.6718514,85.4225442,4.0,1,0,0,0,1,0,0.0,0,0,0,0,0,0,0,0,0,0,0,0,0,0,0,0,0,,1
Kausee Newari Resturant,Restaurant,Restaurant,"MCH4+6XV, Sallaghari- Duwakot Rd, Changunarayan 44800, Nepal",Changunarayan,27.6781112,85.4074216,3.7,3,1,0,0,0,2,168.0,0,1,1,0,0,1,1,0,0,0,0,1,0,0,0,0,0,,0
Brothers food cafe,Family restaurant,Family restaurant,"MCH4+6RV, Bhaktapur Road, Changunarayan 44800, Nepal",Changunarayan,27.678122,85.4070447,0.0,0,0,0,0,0,0,0.0,0,0,0,0,0,0,0,0,0,0,0,0,0,0,0,0,0,,0
Shiva sweets and fastfood restro,Restaurant,Restaurant,"MCF5+RQF, Nagarkot Road, Bhaktapur 44800, Nepal",Bhaktapur,27.6745623,85.4094066,3.0,5,2,0,1,0,2,92.5,0,1,1,0,0,1,0,0,1,0,0,1,0,0,0,0,0,,0
JHIGU BHWYAE CHEN,Restaurant,Restaurant,"MCF5+8WJ, Nagarkot Road, Bhaktapur 44800, Nepal",Bhaktapur,27.6733384,85.4097721,0.0,0,0,0,0,0,0,0.0,0,1,1,0,0,0,0,0,0,1,1,1,0,0,0,0,0,,0
TAJ KHAJA ghar,Restaurant,Restaurant,"Bhaktapur Road, Bhaktapur 44800, Nepal",Bhaktapur,27.6760772,85.4085931,0.0,0,0,0,0,0,0,94.5,0,1,0,0,0,0,0,0,0,0,0,1,0,0,0,0,0,,0
AJ Cafeteria,Cafe,Cafe,"MCF5+GWG, Nagarkot Road, Bhaktapur 44800, Nepal",Bhaktapur,27.673825,85.4098184,3.5,11,1,2,2,3,3,94.5,0,1,1,0,0,1,0,0,1,0,0,1,0,0,0,1,0,,0
भि,Restaurant,Restaurant,"Bhaktapur 44800, Nepal",Bhaktapur,27.6738307,85.4097828,4.9,8,0,0,0,1,7,80.5,0,1,1,1,0,0,0,0,0,0,0,1,0,0,0,0,0,,0
Minu KhajaGhar and Bhojanalay,Fast food restaurant,Fast food restaurant,"MCF5+GQX, Nagarkot Road, Bhaktapur 44800, Nepal",Bhaktapur,27.6738602,85.4094831,5.0,1,0,0,0,0,1,0.0,0,1,1,0,1,1,1,0,0,0,0,1,0,0,0,0,0,,0
SallaGhari Khaja Ghar,Fast food restaurant,Fast food restaurant,"MCF6+G32, Nagarkot Road, Bhaktapur 44800, Nepal",Bhaktapur,27.6737669,85.4101513,4.0,1,0,0,0,1,0,91.0,0,1,1,0,0,0,0,0,0,0,0,1,0,0,0,0,0,,0
Gopal Khaja Ghar,Restaurant,Restaurant,"MCH5+22M, Bhaktapur Road, Bhaktapur 44800, Nepal",Bhaktapur,27.6775961,85.4075601,4.0,2,0,0,1,0,1,0.0,0,1,1,0,1,1,1,0,0,0,0,1,0,0,0,0,0,,0
Sanu Mo:Mo: Center and Bhojanalay,Dumpling restaurant,Dumpling restaurant,"MCC4+QG2, Araniko Highway, Suryabinayak 44800, Nepal",Suryabinayak,27.6718939,85.4062693,2.3,3,2,0,0,0,1,90.0,0,1,1,0,1,1,0,0,0,1,1,1,0,0,0,0,0,,0
Sanju Cold Store,Restaurant,Restaurant,"MCG8+9VP, Bhaktapur 44800, Nepal",Bhaktapur,27.6759705,85.4171998,0.0,0,0,0,0,0,0,0.0,0,1,0,0,0,0,0,0,0,0,0,1,0,0,0,0,0,,0
Chonga Ganesh Newari Khaja Ghar,Brunch restaurant,Brunch restaurant,"MCGC+728 Ittapako, Nagarkot Rd, Bhaktapur 44800, Nepal",Bhaktapur,27.6756675,85.4200654,0.0,0,0,0,0,0,0,0.0,0,1,0,0,0,0,0,0,0,0,0,1,0,0,0,0,0,,0
Mayur Restaurant,Restaurant,Restaurant,"Dattatraya Square, Tachupal Tole, Bhaktapur 44800, Nepal",Bhaktapur,27.6733621,85.434938,4.3,311,0,1,38,160,112,63.0,0,1,0,0,1,1,1,0,1,1,1,1,0,1,1,0,1,,1
"Bhadrakali Snooker,pool,Cafe and Hookah",Breakfast restaurant,Breakfast restaurant,"MCCF+94J, Bhaktapur 44800, Nepal",Bhaktapur,27.6709669,85.4227737,4.0,1,0,0,0,1,0,98.0,0,1,1,0,1,0,0,0,1,0,0,1,0,0,0,0,0,,1
Divyashree Restaurant And Banquet,Restaurant,Restaurant,"MCC3+RQ5, Srijana Nagar Bus Stop, Araniko Highway, Bhaktapur, Nepal",Bhaktapur,27.6720143,85.4044925,3.8,13,0,0,4,7,2,105.0,0,1,1,0,1,1,0,0,1,1,1,1,0,0,1,0,0,,1
BC Fast Foodl,Barbecue restaurant,Barbecue restaurant,"MC8G+3WM, Suryabinayak 44800, Nepal",Suryabinayak,27.6652101,85.4272984,0.0,0,0,0,0,0,0,91.0,0,1,1,0,0,0,0,0,0,0,0,1,0,0,0,0,0,,0
Hena Coffee,Coffee shop,Coffee shop,"Muldhoka, Kamalbinayak-10, Bhaktapur 44800, Nepal",Bhaktapur,27.677081,85.4359849,5.0,10,0,0,0,3,7,91.0,0,1,1,0,0,0,0,0,1,0,0,1,0,0,0,0,0,,1
Old Mill Cafe,Coffee shop,Coffee shop,"Kamalbinayak, Bhaktapur 44800, Nepal",Bhaktapur,27.675913,85.4392927,5.0,8,0,0,0,2,6,0.0,0,1,1,0,0,0,0,0,1,0,0,1,0,0,0,0,0,,1
MR BAKE Coffee,Coffee shop,Coffee shop,"MCGQ+G45, Kamal-Vinayak Bus Park, Garud Kundal Road, Bhaktapur 44800, Nepal",Bhaktapur,27.6762531,85.4378648,3.9,21,0,0,6,11,4,91.0,0,1,1,0,0,0,0,0,1,0,0,1,0,0,0,0,0,,1
The Coffee Time,Coffee shop,Coffee shop,"MCFM+P66 Nag-Pokhari, Bhaktapur 44800, Nepal",Bhaktapur,27.6742754,85.4330135,5.0,1,0,0,0,0,1,91.0,0,1,0,0,0,0,0,0,1,0,0,1,0,1,0,0,0,,1
Chiya Daboo,Coffee shop,Coffee shop,"MCFQ+8QG, Bhaktapur 44800, Nepal",Bhaktapur,27.673315,85.4394403,5.0,1,0,0,0,0,1,91.0,0,0,0,0,0,0,0,0,1,0,0,0,0,0,0,0,0,,1
Sanereetaz Balakhu Café,Coffee shop,Coffee shop,"Balakhu 44800, Nepal",Balakhu,27.6726124,85.4292056,5.0,7,0,0,0,2,5,122.5,1,1,1,0,1,0,0,0,1,1,1,1,0,0,0,0,0,,1
Food Bowl Restaurant,Coffee shop,Coffee shop,"Garud Kundal Road, Bhaktapur 44800, Nepal",Bhaktapur,27.6771492,85.436841,4.6,58,0,0,3,25,30,87.5,0,1,1,1,0,1,1,0,1,1,0,1,0,1,1,0,0,,1
Kaman Coffee Shop,Coffee shop,Coffee shop,"Chyamhasingh busstop, Jagati-KamalBinayak Rd, Bhaktapur 44800, Nepal",Bhaktapur,27.6734349,85.4381693,4.1,41,0,0,8,22,11,108.5,0,1,1,0,1,0,0,0,1,0,0,1,1,1,0,1,0,,1
Coffee in Style,Cafe,Cafe,"kwachhe tole 5, 44800, Nepal",Bhaktapur,27.6713463,85.4300451,4.4,105,0,0,10,52,43,91.0,0,1,1,1,1,1,0,1,1,0,0,1,0,1,0,0,0,,1
Himalayan Java Coffee - Bhaktapur,Coffee shop,Coffee shop,"Taumadhi Square, Bhaktapur 44600, Nepal",Bhaktapur,27.6708631,85.4292379,4.7,193,0,0,9,76,108,105.0,1,1,1,1,1,1,1,1,1,1,1,1,0,1,1,0,0,,1
Bikerz Point,Cafe,Cafe,"MCHM+8HW, Changunarayan Rd, Bhaktapur 44800, Nepal",Bhaktapur,27.6783543,85.4339395,4.8,6,0,0,0,2,4,0.0,0,1,0,0,0,0,0,0,1,0,0,1,0,0,0,0,0,,1
Nyasa Cafe,Cafe,Cafe,"MCGQ+JJ7, Bhaktapur 44800, Nepal",Bhaktapur,27.676534,85.43905,5.0,4,0,0,0,1,3,105.0,0,0,0,0,0,0,0,0,1,0,0,0,0,0,0,0,0,,1
Time's Cafe And Restro,Restaurant,Restaurant,"Bhaktapur 44800, Nepal",Bhaktapur,27.6774529,85.4380362,4.0,189,0,3,42,102,42,85.0,0,1,1,1,1,1,1,0,1,1,1,1,0,1,1,0,1,,1
JUJU CAFE,Cafe,Cafe,"बलखु 44800, Nepal",बलखु,27.6726179,85.4292028,4.4,57,0,0,6,28,23,91.0,0,1,1,0,1,1,0,0,1,1,1,1,0,1,1,0,0,,1
Fursad cafe,Cafe,Cafe,"Byasi Gate, Nagarkot Rd, Bhaktapur 44800, Nepal",Bhaktapur,27.675584,85.4302642,5.0,3,0,0,0,1,2,70.0,0,1,0,1,0,0,0,0,1,0,0,1,0,0,0,0,0,,1
Chiya Sangai: Best Tea Shop in Bhaktapur,Tea store,Tea store,"Kamalbinayak, Bhaktapur 44800, Nepal",Bhaktapur,27.6769293,85.4377586,5.0,1,0,0,0,0,1,112.0,1,1,1,1,0,0,0,0,0,0,0,0,0,0,0,0,1,,1
Bhintuna food cafe,Restaurant,Restaurant,"Kamalpokhari Path, Bhaktapur 44800, Nepal",Bhaktapur,27.675825,85.4381791,4.8,31,0,0,1,11,19,101.5,1,1,1,1,1,1,1,1,1,1,1,1,1,0,0,1,0,,1
Moody Cafe,Restaurant,Restaurant,"Mahakali, Bhaktapur 44800, Nepal",Bhaktapur,27.6756057,85.4317077,4.5,15,0,0,1,7,7,84.0,0,1,1,1,1,1,1,0,1,1,1,1,0,0,1,0,0,,1
Restaurant Tusa,Restaurant,Restaurant,"Nagpokhari, Bhaktapur 44800, Nepal",Bhaktapur,27.6736992,85.4334327,4.7,109,0,0,5,43,61,0.0,0,1,1,0,0,1,1,0,1,1,1,1,0,1,1,0,0,,1
Lovely Milk Bar Bhaktapur,Cafe,Cafe,"MCFM+9W5 Tachpal Tole, Bhaktapur 44800, Nepal",Bhaktapur,27.6733785,85.4348665,5.0,13,0,0,0,4,9,91.0,0,1,1,0,1,0,0,0,1,0,0,1,0,0,0,0,0,,1
De' Hide Out Cafe With Restro,Restaurant,Restaurant,"Liwali-8, Opposite of Khwopa Engineering College main gate, Bhaktapur 44800, Nepal",Bhaktapur,27.6708993,85.4389241,4.2,26,0,0,4,14,8,98.0,0,1,1,0,0,1,1,0,1,1,1,1,0,0,1,0,0,,1
HADA STORE (BHAKTAPUR JUJU DHAU 巴德岗老酸奶店）,Coffee shop,Coffee shop,"03 Durbar Square Main Gate, Bhaktapur 44800, Nepal",Bhaktapur,27.6722935,85.4269415,4.5,36,0,0,3,17,16,104.5,0,0,1,0,0,0,0,0,1,1,1,1,0,0,0,0,0,,1
Namaste Coffee Shop,Coffee shop,Coffee shop,"Nagarkot Road, Bhaktapur 44800, Nepal",Bhaktapur,27.6713833,85.4295005,4.5,8,0,0,0,4,4,0.0,0,1,1,0,0,0,0,0,1,0,0,1,0,0,0,0,0,,1
Jhee Newa Cafe,Coffee shop,Coffee shop,"MCFJ+2FW, Bhaktapur 44800, Nepal",Bhaktapur,27.6726029,85.4312104,4.0,1,0,0,0,1,0,101.5,0,1,0,0,0,0,0,0,1,0,0,1,0,0,0,0,0,,1
Kissing Fish Spa,Coffee shop,Coffee shop,"MCCJ+M36, Bhaktapur 44800, Nepal",Bhaktapur,27.6716587,85.4301434,5.0,1,0,0,0,0,1,78.0,0,0,1,0,1,1,0,0,1,0,0,0,0,0,0,0,0,,1
Kopu burger cafe,Coffee shop,Coffee shop,"MCCH+9WW, Bhaktapur 44800, Nepal",Bhaktapur,27.6709997,85.4298171,5.0,1,0,0,0,0,1,0.0,0,1,0,0,0,0,0,0,1,0,0,1,0,0,0,0,0,,1
Ichu galli,Coffee shop,Coffee shop,"3 Somala galli, Kathmandu 44600, Nepal",Kathmandu,27.6713256,85.4279672,5.0,1,0,0,0,0,1,0.0,0,1,0,0,0,0,0,0,1,0,0,1,0,0,0,0,0,,1
DAAMI Cafe,Coffee shop,Coffee shop,"MC9H+M64, Rammandir Rd, Bhaktapur 44800, Nepal",Bhaktapur,27.6691297,85.4280708,5.0,1,0,0,0,0,1,0.0,0,1,0,0,0,0,0,0,1,0,0,1,0,0,0,0,0,,1
Kanxi chiya pasal,Coffee shop,Coffee shop,"MCCJ+WXX, Araniko Highway, Bhaktapur 44800, Nepal",Bhaktapur,27.6722306,85.4324328,1.0,1,1,0,0,0,0,0.0,0,0,0,0,0,0,0,0,1,0,0,1,0,0,0,0,0,,1
Coffee Break,Cafe,Cafe,"Tibukchhen Tol, Bhaktapur 44800, Nepal",Bhaktapur,27.6718026,85.4305635,5.0,5,0,0,0,1,4,84.0,0,0,1,0,0,0,0,0,1,0,0,0,0,0,0,0,0,,1
Pulanchhen,Cafe,Cafe,"MCFG+GRH, Bholachhen - Yachhen Rd, Bhaktapur 44800, Nepal",Bhaktapur,27.673801,85.4270962,5.0,1,0,0,0,0,1,98.0,0,1,1,0,1,0,0,0,1,1,1,1,0,0,0,0,0,,1
Sha-Jhya Cafe & Funkey Delights,Cafe,Cafe,"MCCH+QR9, Unnamed Road, Bhaktapur 44800, Nepal",Bhaktapur,27.6719183,85.4296154,3.7,158,0,6,55,78,19,91.0,0,1,1,0,1,1,1,0,1,1,0,1,0,1,1,0,1,,1
Bhaktapur King Curd,Cafe,Cafe,"MCCG+WR6, Bhaktapur 44800, Nepal",Bhaktapur,27.6722945,85.4270212,4.4,8,0,0,1,4,3,94.5,0,1,1,0,0,0,0,0,1,0,0,1,0,0,0,0,0,,1
Chandrayan Espresso Bar,Espresso bar,Espresso bar,"Nagarkot Road, Ittachhen - 17, Bhaktapur 44800, Nepal",Bhaktapur,27.6721252,85.4235942,3.8,86,6,4,22,19,35,98.0,0,1,1,1,1,0,0,0,1,1,0,1,0,1,0,0,0,,0
Suresh coffee shop,Coffee shop,Coffee shop,"MCHJ+24J Mahakali sthan, Bhaktapur 44800, Nepal",Bhaktapur,27.6775854,85.4302684,0.0,0,0,0,0,0,0,0.0,0,0,0,0,0,0,0,0,1,0,0,1,0,0,0,0,0,,0
श्याम चिया पसल,Coffee shop,Coffee shop,"MCGM+C28, Bhaktapur 44800, Nepal",Bhaktapur,27.6760317,85.4325788,0.0,0,0,0,0,0,0,0.0,0,0,1,0,0,0,0,0,1,0,0,1,0,0,0,0,0,,0
Fried local foods,Coffee shop,Coffee shop,"MCCH+PV5, Bhaktapur 44800, Nepal",Bhaktapur,27.6718627,85.4297751,0.0,0,0,0,0,0,0,0.0,0,1,1,0,0,0,0,0,1,0,0,1,0,0,0,0,0,,0
Art Gallery Cafe (AGC),Coffee shop,Coffee shop,"MCCJ+PX6, Golmadhi, Bhaktapur 44800, Nepal",Bhaktapur,27.6717925,85.4324033,0.0,0,0,0,0,0,0,0.0,0,0,0,0,0,0,0,0,1,0,0,0,0,0,0,0,0,,0
Kharbuza's Shop,Coffee shop,Coffee shop,"MCGF+V4G, Bhaktapur 44800, Nepal",Bhaktapur,27.6771993,85.4228395,0.0,0,0,0,0,0,0,0.0,0,1,1,0,0,0,0,0,1,0,0,1,0,0,0,0,0,,0
rajan khiunju,Coffee shop,Coffee shop,"MCFG+WWM, Bhaktapur 44800, Nepal",Bhaktapur,27.6748464,85.4273098,0.0,0,0,0,0,0,0,0.0,0,0,0,0,0,0,0,0,1,0,0,0,0,0,0,0,0,,0
Daily Grind Coffee,Restaurant,Restaurant,"Bhaktapur Durbar Square, Bhaktapur 44800, Nepal",Bhaktapur,27.6721663,85.429265,4.8,9,0,0,0,2,7,98.0,0,1,1,1,0,0,0,0,0,0,0,0,0,0,0,0,0,,0
Gomari Chhen,Coffee shop,Coffee shop,"MCCM+W47, Golmadhi Tol, Bhaktapur 44800, Nepal",Bhaktapur,27.6722932,85.4327994,0.0,0,0,0,0,0,0,0.0,0,0,0,0,0,0,0,0,1,0,0,0,0,0,0,0,0,,0
Tuchhimama,Coffee shop,Coffee shop,"MCFJ+8FR, Tuchhimala Rd, Bhaktapur 44800, Nepal",Bhaktapur,27.6733738,85.4311453,0.0,0,0,0,0,0,0,0.0,0,1,1,0,0,0,0,0,1,0,0,1,0,0,0,0,0,,0
Aayan’s cafe and fastfood,Coffee shop,Coffee shop,"MCFJ+9FC, Tuchhimala Rd, Bhaktapur 44800, Nepal",Bhaktapur,27.6734265,85.4311372,0.0,0,0,0,0,0,0,0.0,0,1,1,0,0,0,0,0,1,0,0,1,0,0,0,0,0,,0
Punahari Coffee Shop,Cafe,Cafe,"MCGP+734, Bhaktapur 44800, Nepal",Bhaktapur,27.6756396,85.4351914,1.0,1,1,0,0,0,0,0.0,0,1,1,0,0,0,0,0,1,0,0,1,0,0,0,0,0,,0
Cafe De Bonjour,Fast food restaurant,Fast food restaurant,"MCFG+3MP, Bhaktapur 44800, Nepal",Bhaktapur,27.6727303,85.4267056,4.2,6,1,0,0,1,4,87.0,0,1,1,0,0,0,0,0,1,0,0,1,0,0,0,0,0,,0
The Hangout,Cafe,Cafe,"MCGJ+GW9, Bhaktapur 44800, Nepal",Bhaktapur,27.676286,85.4323664,4.0,4,1,0,0,0,3,0.0,0,1,0,0,0,0,0,0,1,0,0,1,0,0,0,0,0,,0
Khwopa Media,Cafe,Cafe,"MCCP+QVX, Bhaktapur 44800, Nepal",Bhaktapur,27.6719772,85.4372379,5.0,1,0,0,0,0,1,0.0,0,1,0,0,0,0,0,0,1,0,0,1,0,0,0,0,0,,0
Namo Buddha Khaja Ghar,Cafe,Cafe,"MCGF+C5P, Nagarkot Rd, Bhaktapur 44800, Nepal",Bhaktapur,27.6760901,85.4229492,4.5,4,0,0,1,0,3,84.0,0,1,0,0,0,0,0,0,1,0,0,1,0,0,0,0,0,,0
बर्गर हाउस,Cafe,Cafe,"MCFG+38P, Bhaktapur 44800, Nepal",Bhaktapur,27.6727151,85.4258303,4.1,155,3,8,25,50,69,77.0,0,1,1,0,0,1,0,0,1,0,0,1,0,1,0,0,1,,0
Zoom Eat Street,Cafe,Cafe,"MCFG+3MP, Bhaktapur 44800, Nepal",Bhaktapur,27.6727115,85.4266876,2.5,2,1,0,0,1,0,91.0,0,1,1,0,0,0,0,0,1,0,0,1,0,0,0,0,0,,0
Cafe Zone,Cafe,Cafe,"MCCJ+P7F, Bhaktapur 44800, Nepal",Bhaktapur,27.6718091,85.4306621,3.8,21,1,2,4,7,7,101.5,0,1,1,0,0,0,0,0,1,1,1,1,0,0,0,1,1,,0
TERAKOTA WINDOW CAFE,Cafe,Cafe,"MCFJ+GF, Tuchhimala Rd, Bhaktapur 44800, Nepal",Bhaktapur,27.6738041,85.4311855,0.0,0,0,0,0,0,0,114.0,0,1,1,1,1,0,0,0,1,0,0,1,0,0,0,0,0,,0
Lumanti Cafe,Cafe,Cafe,"Bhaktapur 44800, Nepal",Bhaktapur,27.6733741,85.4370836,0.0,0,0,0,0,0,0,77.0,0,1,1,1,0,0,0,1,1,1,1,1,1,0,1,1,0,,0
Vajra Boutique Hotel,Restaurant,Restaurant,"10 Nagarkot Rd, Bhaktapur 44800, Nepal",Bhaktapur,27.6726197,85.4295217,4.2,209,13,8,21,59,108,0.0,1,1,1,1,1,1,1,1,1,1,1,1,0,1,1,0,0,,0
Alphabet Pizzeria,Restaurant,Restaurant,"Bhaktapur 44800, Nepal",Bhaktapur,27.6722963,85.4241239,4.5,950,31,9,45,218,647,74.5,1,1,1,1,0,1,1,0,1,1,1,1,1,1,1,0,1,,0
The Nanee,Cafe,Cafe,"Itachhen 2, Bhaktapur 44800, Nepal",Bhaktapur,27.6727318,85.4257091,4.5,93,5,1,6,12,69,0.0,1,0,0,0,0,0,0,0,0,0,0,0,0,0,0,0,0,,0
its chai wala,Cafe,Cafe,"Byasi Gate, Nagarkot Rd, Bhaktapur 44800, Nepal",Bhaktapur,27.6752631,85.4300374,0.0,0,0,0,0,0,0,0.0,0,0,0,0,0,0,0,0,1,0,0,0,0,0,0,0,0,,0
LUNIVA RESTAURANT AND GUEST HOUSE,Cafe,Cafe,"MCFJ+WJ6 Mulachhen, Bholachhen - Yachhen Rd, Bhaktapur 44800, Nepal",Bhaktapur,27.6747818,85.4312311,4.4,11,1,1,0,0,9,0.0,1,0,0,0,0,0,0,0,0,0,0,0,0,0,0,0,0,,0
Shiva Guest House,Cafe,Cafe,"Durbar square, Bhaktapur 46800, Nepal",Bhaktapur,27.6718108,85.428603,4.0,17,1,2,1,5,8,0.0,1,0,0,0,0,0,0,0,0,0,0,0,0,0,0,0,0,,0
Nasajwolan Newa kitchen & Continental Food,Family restaurant,Family restaurant,"Nagarkot Road, Bhaktapur 44800, Nepal",Bhaktapur,27.6723271,85.424125,2.1,7,4,0,2,0,1,77.0,0,1,1,0,0,1,1,0,0,1,1,1,0,0,1,0,0,,0
Coffee Square,Cafe,Cafe,"MCFG+5GX, Bhaktapur 44800, Nepal",Bhaktapur,27.6729764,85.4263687,4.4,22,1,0,2,6,13,0.0,0,0,0,0,0,0,0,0,1,0,0,0,0,0,0,0,0,,0
Hostel Swastik,Restaurant,Restaurant,"Swastik Ln, Bhaktapur 44800, Nepal",Bhaktapur,27.6755045,85.434147,4.9,54,0,2,0,1,51,0.0,1,0,0,0,0,0,0,0,0,0,0,0,0,0,0,0,0,,0
Awal paha chhen,Restaurant,Restaurant,"MCGM+9GF, Bhaktapur 44800, Nepal",Bhaktapur,27.675937,85.433786,0.0,0,0,0,0,0,0,77.0,0,0,0,0,0,0,0,0,0,0,0,0,0,0,0,0,0,,0
NUMA KRISHI TATHA FRESH FARM PVT,Family restaurant,Family restaurant,"MCFG+GVW Phul bari toll, Bhaktapur 44800, Nepal",Bhaktapur,27.6738729,85.4272013,0.0,0,0,0,0,0,0,0.0,0,1,1,0,1,1,0,0,0,0,0,1,0,0,1,0,0,,0
Taleju Grand Hotel - Bhaktapur,Cafe,Cafe,"Darbar Square, Bhaktapur 44800, Nepal",Bhaktapur,27.6726564,85.4289499,4.8,17,0,0,0,4,13,0.0,1,0,0,0,0,0,0,0,0,0,0,0,0,0,0,0,0,,0
Sukuldhoka_ newar_khaja_ghar,Restaurant,Restaurant,"MCCJ+X45, Bhaktapur 44800, Nepal",Bhaktapur,27.6723944,85.4303515,0.0,0,0,0,0,0,0,0.0,0,0,0,0,0,0,0,0,0,0,0,0,0,0,0,0,0,,0
Newa Lahana Bhaktapur & Hotel,Restaurant,Restaurant,"Bhaktapur 44600, Nepal",Bhaktapur,27.6722545,85.4308109,4.3,44,7,0,0,1,36,0.0,0,1,1,1,1,1,1,1,1,1,0,0,1,0,1,0,0,,0
Aamako Bara Pasal,Restaurant,Restaurant,"12 Rammandir Rd, Bhaktapur 44800, Nepal",Bhaktapur,27.6719045,85.4294079,4.0,188,19,4,23,49,93,0.0,0,1,1,0,0,1,0,0,0,0,0,1,0,1,1,0,1,,0
Travellers Bistro,Asian restaurant,Asian restaurant,"MCFP+83V Travellers Bistro, Nagarkot Rd, Bhaktapur 44800, Nepal",Bhaktapur,27.6733506,85.4351605,0.0,0,0,0,0,0,0,0.0,0,0,0,0,0,0,0,0,0,0,0,0,0,0,0,0,0,,0
Sudhha MoMo,Momo restaurant,Momo restaurant,"MCFH+5R9, Bhaktapur 44800, Nepal",Bhaktapur,27.6728872,85.4296237,0.0,0,0,0,0,0,0,0.0,0,1,1,0,0,0,0,0,0,0,0,1,0,0,0,0,0,,0
Mahakali Mo mo,Fast food restaurant,Fast food restaurant,"MCGJ+GWG, Bhaktapur 44800, Nepal",Bhaktapur,27.6763359,85.4324363,0.0,0,0,0,0,0,0,0.0,0,1,1,0,1,1,0,0,0,0,0,1,0,0,0,0,0,,0
Community at The Nanee,Restaurant,Restaurant,"Itachhen 2, Bhaktapur, Nepal",Bhaktapur,27.6727094,85.4258379,4.7,63,0,0,3,25,35,108.5,0,1,1,1,0,1,1,0,1,1,1,1,0,1,1,0,0,,1
Baiga Vutoo,Restaurant,Restaurant,"Bhaktapur 44800, Nepal",Bhaktapur,27.6724496,85.429542,4.9,13,0,0,0,4,9,77.0,0,1,1,0,0,0,0,0,0,0,0,0,0,0,0,0,0,,1
De Arena Restaurant Paryatak Pasal,Restaurant,Restaurant,"Bhaktapur 44800, Nepal",Bhaktapur,27.6735504,85.4346362,4.6,30,0,0,2,13,15,87.5,1,1,1,1,1,1,1,0,1,1,1,1,1,1,1,1,0,,1
Jhegu newa kitchen restro,Family restaurant,Family restaurant,"Chariot track, Bhaktapur 44800, Nepal",Bhaktapur,27.6698837,85.4293982,4.4,10,0,0,1,5,4,70.0,1,1,1,1,1,1,1,1,1,1,1,1,1,1,1,0,1,,1
New Watshala Garden Restaurant,Restaurant,Restaurant,"5 Durbar Square, Bhaktapur 44800, Nepal",Bhaktapur,27.6718001,85.4285972,4.6,5,0,0,1,0,4,83.5,0,1,1,1,0,0,0,0,0,0,0,0,0,0,0,0,0,,0
Peaceful Korean Restaurant,Korean restaurant,Korean restaurant,"Dattatraya Square - 09, Bhaktapur, Nepal",Bhaktapur,27.6733352,85.4350754,4.3,147,5,6,16,36,84,70.0,0,1,1,1,1,1,1,1,1,1,1,1,1,1,1,0,1,,0
Sakotha Woh-Chatamari Fast Food,Fast food restaurant,Fast food restaurant,"MCCH+PQH, Bhaktapur 44800, Nepal",Bhaktapur,27.6719049,85.4294072,4.5,20,0,0,3,4,13,66.27,0,1,1,0,0,0,0,0,0,0,0,1,0,0,0,1,1,,0
Binayak Fast Food & Sekuwa Corner,Fast food restaurant,Fast food restaurant,"MCGP+PVF, Bhaktapur 44800, Nepal",Bhaktapur,27.6768541,85.4371348,4.5,2,0,0,0,1,1,84.0,0,1,1,0,0,0,0,0,0,0,0,1,0,0,0,0,0,,0
Temple Terrace Restaurant,Restaurant,Restaurant,"Paanch Taley Mandir, Taumadhi Square, Opposite to, Bhaktapur 44800, Nepal",Bhaktapur,27.6714191,85.4293764,5.0,1,0,0,0,0,1,0.0,1,0,1,0,0,0,0,0,0,0,0,0,0,0,0,1,1,,1
Samsara thakali restaurant,Thai restaurant,Thai restaurant,"Inacho - Hanumanghat Rd, Bhaktapur 44800, Nepal",Bhaktapur,27.672294,85.433751,4.5,10,0,0,1,5,4,99.0,0,1,0,1,0,0,0,0,0,0,0,0,0,0,0,0,0,,1
Gwakhancha,Restaurant,Restaurant,"Somla Gali, Taumadhi Square, Bhaktapur 44800, Nepal",Bhaktapur,27.6711897,85.4284526,5.0,7,0,0,0,2,5,91.0,0,1,1,1,0,0,0,0,0,0,0,0,0,0,0,0,0,,1
Awal Newari Khaja Ghar,Restaurant,Restaurant,"MCGM+JH3, MCGMawal N+JGR, Bhaktapur 44800, Nepal",Bhaktapur,27.6768192,85.4337163,5.0,1,0,0,0,0,1,0.0,0,0,0,0,0,0,0,0,0,0,0,0,0,0,0,0,0,,1
The Golden Eyes Restaurant & Cafe,Restaurant,Restaurant,"Nyatapola Temple, Bhaktapur 44800, Nepal",Bhaktapur,27.6715495,85.429344,3.5,85,0,6,37,36,6,86.0,0,1,1,1,1,1,1,0,1,1,1,1,0,1,1,0,0,,1
Chiya & Cheers,Bar,Bar,"03 Bolachhen, Bhaktapur 44800, Nepal",Bhaktapur,27.6703872,85.4281081,4.9,22,0,0,1,7,14,0.0,0,0,0,0,0,0,0,0,0,1,0,0,0,0,0,0,0,,1
D'Ja Cafe & Sports Bar with Rooftop Restaurant,Sports bar,Sports bar,"MCCJ+Q2G, Bhaktapur 44800, Nepal",Bhaktapur,27.6719349,85.4300687,3.8,33,0,1,10,17,5,0.0,0,0,0,0,0,0,0,0,0,1,0,0,0,0,0,0,0,,1
Namaste Restaurant,Family restaurant,Family restaurant,"5 Taumadhi, Bhaktapur 44800, Nepal",Bhaktapur,27.6713046,85.4294878,3.9,209,0,4,55,112,38,98.0,0,1,0,0,1,1,1,0,1,1,1,1,0,1,1,0,1,,1
J block,Breakfast restaurant,Breakfast restaurant,"MCCQ+9MM, Bhaktapur 44800, Nepal",Bhaktapur,27.6709633,85.4391693,0.0,0,0,0,0,0,0,0.0,0,0,0,0,1,0,0,0,0,0,0,0,0,0,0,0,0,,0
Dinesh Dai ko Chya Pasal tatha Juju Dhau,Restaurant,Restaurant,"MCFP+F42, Bhaktapur 44800, Nepal",Bhaktapur,27.6736076,85.4353107,5.0,4,0,0,0,0,4,0.0,0,1,1,0,0,0,0,0,0,0,0,1,0,0,0,0,0,,0
Gopal Dai Ko Chya Pasal,Nepalese restaurant,Nepalese restaurant,"Dattatraya Temple, Bhaktapur 44800, Nepal",Bhaktapur,27.6733399,85.4354511,5.0,2,0,0,0,0,2,0.0,0,1,1,0,0,1,0,0,0,1,1,1,0,0,0,0,0,,0
Sekuwalaya,Bar,Bar,"MCCM+V6Q, Bhaktapur 44800, Nepal",Bhaktapur,27.6723152,85.4328948,3.8,11,3,0,0,1,7,0.0,0,1,0,0,0,0,0,0,0,1,1,1,0,0,0,0,0,,0
Hungry Musician Terrace & Bhaktapur Workshop Residency,Musical club,Musical club,"Jaganathan road, Bhaktapur 44800, Nepal",Bhaktapur,27.6721859,85.43032,4.8,18,0,0,1,2,15,0.0,0,0,0,0,0,0,0,0,0,0,0,0,0,0,0,0,1,,0
parin Liquor shop,Bar,Bar,"MCFH+V48, Bhaktapur 44800, Nepal",Bhaktapur,27.6746724,85.4278343,5.0,1,0,0,0,0,1,0.0,0,0,0,0,0,0,0,0,0,1,1,1,0,0,0,0,0,,0
Ktm,Bar,Bar,"MCFG+WX2, Bhaktapur 44800, Nepal",Bhaktapur,27.674766,85.4273979,0.0,0,0,0,0,0,0,0.0,0,1,0,0,0,0,0,0,0,1,1,1,0,0,0,0,0,,0
Bal Bhai Newari Khaja Ghar,Fast food restaurant,Fast food restaurant,"MCFH+W4F, Nagarkot Rd, Bhaktapur 44800, Nepal",Bhaktapur,27.6748129,85.4278108,2.3,3,2,0,0,0,1,98.0,0,1,1,0,1,1,0,0,0,1,1,1,0,0,0,1,0,,0
Hotel Empire & Rooftop Restaurant,Restaurant,Restaurant,"Taumadhi Square, Nyatapola 44800, Nepal",Nyatapola,27.6716687,85.4293462,4.1,116,11,6,11,26,62,0.0,1,0,0,0,0,0,0,0,0,0,0,0,0,0,0,0,0,,0
Manju Baha Hotel,Restaurant,Restaurant,"MCFM+WGR, Bhaktapur 44800, Nepal",Bhaktapur,27.6747238,85.433787,4.7,91,2,2,3,7,77,0.0,1,0,0,0,0,0,0,0,0,0,0,0,0,0,0,0,0,,0
Muglan Hotel & Thakali Restaurant,Restaurant,Restaurant,"MCFH+4HM Durbar Square, भक्तपुर 44800, Nepal",भक्तपुर,27.6728125,85.4289375,4.1,205,27,8,13,35,122,0.0,1,0,0,0,0,0,0,0,0,0,0,0,0,0,0,0,0,,0
khwapa chhen Guest House and Restaurant,Restaurant,Restaurant,"3, Bhaktapur 44800, Nepal",Bhaktapur,27.6721267,85.4273216,3.9,78,6,5,14,18,35,0.0,1,0,0,0,0,0,0,0,0,0,0,0,0,0,0,0,0,,0
bhaktapur juju dhu pasal.,Restaurant,Restaurant,"MCFJ+5J9, Bhaktapur 44800, Nepal",Bhaktapur,27.6729218,85.4315966,4.0,1,0,0,0,1,0,77.0,0,1,1,0,0,0,0,0,0,0,0,0,0,0,0,0,0,,0
Ittchhen Tole -2,Restaurant,Restaurant,"MCFG+3FX, Bhaktapur 44800, Nepal",Bhaktapur,27.6727421,85.4262308,4.0,1,0,0,0,1,0,0.0,0,0,0,0,0,0,0,0,0,0,0,0,0,0,0,0,0,,0
The waffle spot,Fast food restaurant,Fast food restaurant,"Bhaktapur 44800, Nepal",Bhaktapur,27.6723074,85.426568,5.0,1,0,0,0,0,1,0.0,0,0,0,0,0,0,0,0,0,0,0,0,0,0,0,0,0,,0
Ravi Dai Newa Chhen (Dattatraya Khaja Ghar / दत्तात्रय खाजा घर),Restaurant,Restaurant,"Dattatraya Temple, Bhaktapur 44800, Nepal",Bhaktapur,27.6733346,85.4352088,3.9,80,0,2,21,43,14,0.0,0,1,1,1,0,1,1,0,0,1,1,1,0,0,1,0,0,,1
Narey's Café,Coffee shop,Coffee shop,"MC7G+R4C, Suryabinayak 44800, Nepal",Suryabinayak,27.6645571,85.4252743,5.0,5,0,0,0,1,4,0.0,0,1,1,0,0,0,0,0,1,0,0,1,0,0,0,0,0,,1
Coffee land,Coffee shop,Coffee shop,"Suryabinayak chok, Araniko Highway, Suryabinayak 44800, Nepal",Suryabinayak,27.6655004,85.4251129,5.0,7,0,0,0,2,5,101.5,0,1,1,1,0,0,0,0,1,0,0,1,0,0,0,0,0,,1
CoffeeStation&Bakery,Coffee shop,Coffee shop,"MC8F+6Q3, Suryabinayak 44800, Nepal",Suryabinayak,27.6654581,85.4243362,5.0,2,0,0,0,1,1,0.0,0,1,0,0,0,0,0,0,1,0,0,1,0,0,0,0,0,,1
Beans - The Coffee shop,Coffee shop,Coffee shop,"Ram Devi Complex, Suryabinayak 44800, Nepal",Suryabinayak,27.6672465,85.4260279,4.1,35,0,0,7,19,9,94.5,0,1,1,0,1,0,0,0,1,0,0,1,0,1,0,0,0,,1
Ghising Khaja Ghar,Coffee shop,Coffee shop,"MC6F+QJM, Suryabinayak 44800, Nepal",Suryabinayak,27.6619692,85.4240448,5.0,1,0,0,0,0,1,0.0,0,1,0,0,0,0,0,0,1,0,0,1,0,0,0,0,0,,1
Twayana Nasa: Chhe,Coffee shop,Coffee shop,"MC6F+V29, Suryabinayak 44800, Nepal",Suryabinayak,27.6620794,85.4220969,5.0,2,0,0,0,1,1,0.0,0,0,1,0,0,0,0,0,1,0,0,1,0,0,0,0,0,,1
Suraj's home,Coffee shop,Coffee shop,"MC7J+H45, Itabu Height-8, Suryabinayak 44800, Nepal",Suryabinayak,27.6634284,85.4303185,0.0,0,0,0,0,0,0,0.0,0,1,0,0,0,0,0,0,1,0,0,1,0,0,0,0,0,,0
Bastakoti Khaja Ghar,Restaurant,Restaurant,"Big mart, Kamalbinayak, Bhaktapur 44800, Nepal",Bhaktapur,27.677067,85.4370221,0.0,0,0,0,0,0,0,84.0,0,0,0,0,0,0,0,0,0,0,0,0,0,0,0,0,0,,0
Anil Newari Khajaghar,Restaurant,Restaurant,"Bhaktapur 44800, Nepal",Bhaktapur,27.6759361,85.4229454,3.0,1,0,0,1,0,0,84.0,0,1,1,0,0,0,0,0,0,1,1,1,0,0,0,0,0,,0
Ittachen Bhaktapur,Family restaurant,Family restaurant,"MCFG+554, Bhaktapur 44800, Nepal",Bhaktapur,27.6729221,85.4254375,0.0,0,0,0,0,0,0,0.0,0,0,0,0,0,0,0,0,0,0,0,0,0,0,0,0,0,,0
Newa Delights,Restaurant,Restaurant,"Bhaktapur 44800, Nepal",Bhaktapur,27.6726948,85.4246997,0.0,0,0,0,0,0,0,80.0,0,0,0,0,0,0,0,0,0,0,0,0,0,0,0,0,0,,0
Kasi Restro & Baar,Restaurant,Restaurant,"Muldhoka, Nagarkot Rd, KATHMANDU 44800, Nepal",KATHMANDU,27.6766991,85.4350799,0.0,0,0,0,0,0,0,0.0,0,0,0,0,0,0,0,0,0,0,0,0,0,0,0,0,0,,0
Duwal Dai ko chiya pasal,Restaurant,Restaurant,"MCFF+G45, Cancer hospital road, Bhaktapur 44800, Nepal",Bhaktapur,27.673771,85.4228499,0.0,0,0,0,0,0,0,0.0,0,1,0,0,0,0,0,0,0,0,0,1,0,0,0,0,0,,0
Swiss Tea House,Cafe,Cafe,"MC6F+V5J, Suryabinayak 44800, Nepal",Suryabinayak,27.6623983,85.4227701,5.0,4,0,0,0,1,3,0.0,0,1,0,0,1,0,0,0,1,0,0,1,0,0,0,0,0,,1
K2 Coffee (Nepali Arabica Coffee Supplier),Coffee store,Coffee store,"Adrasha Road, Bhaktapur 44800, Nepal",Bhaktapur,27.6642212,85.4337559,5.0,1,0,0,0,0,1,0.0,0,0,0,0,0,0,0,0,0,0,0,0,0,0,0,0,0,,1
Everest Bakery's Coffee Shop,Coffee store,Coffee store,"भक्तपुर, Suryabinayak 44800, Nepal",Suryabinayak,27.6654263,85.4247885,4.1,7,0,0,1,4,2,91.0,1,0,1,1,0,0,0,0,0,0,0,0,0,0,0,0,0,,1
GK Coffee Cold Store,Coffee store,Coffee store,"MC9P+342, Bhaktapur 44800, Nepal",Bhaktapur,27.6676471,85.4352535,4.4,16,0,0,2,8,6,91.0,0,0,0,0,0,0,0,0,0,0,0,0,0,0,0,1,0,,1
Kumar Special Panipuri and Coffee Shop,Coffee shop,Coffee shop,"MC8Q+996, Jagati, Bhaktapur, Nepal",Bhaktapur,27.665906,85.4383846,5.0,1,0,0,0,0,1,0.0,0,0,0,0,0,0,0,0,1,0,0,0,0,0,0,0,0,,1
Relish MoMo Center,Momo restaurant,Momo restaurant,"ईताछें, Nagarkot Road, 44800, Nepal",Bhaktapur,27.6722161,85.4241035,2.5,4,2,0,0,2,0,84.0,0,1,1,0,0,0,0,0,0,0,0,1,0,0,0,0,0,,0
Shriyanka Burger Hub,Restaurant,Restaurant,"MCFG+587, Durbar Square Road, Bhaktapur 44800, Nepal",Bhaktapur,27.6729162,85.42575,0.0,0,0,0,0,0,0,0.0,0,0,0,0,0,0,0,0,0,0,0,0,0,0,0,0,0,,0
Durbar Restaurant & Burger Hub,Hamburger restaurant,Hamburger restaurant,"MCFF+4V3, Bhaktapur 44800, Nepal",Bhaktapur,27.6727348,85.4246806,0.0,0,0,0,0,0,0,0.0,0,1,1,0,0,0,0,0,0,0,0,1,0,0,0,0,0,,0
Suman cold store,Restaurant,Restaurant,"MCGF+Q4H, Bhaktapur 44800, Nepal",Bhaktapur,27.6769336,85.42285,0.0,0,0,0,0,0,0,0.0,0,1,1,0,0,0,0,0,0,0,0,1,0,0,0,0,0,,0
Byasi khaja ghar,Fast food restaurant,Fast food restaurant,"MCGG+4QQ, Bhaktapur 44800, Nepal",Bhaktapur,27.6753468,85.4269932,0.0,0,0,0,0,0,0,0.0,0,1,0,0,0,0,0,0,0,0,0,1,0,0,0,0,0,,0
momo center,Fast food restaurant,Fast food restaurant,"Taumadhi Square, Bhaktapur 44800, Nepal",Bhaktapur,27.6716806,85.4301006,0.0,0,0,0,0,0,0,0.0,0,1,1,0,0,0,0,0,0,0,0,1,0,0,0,0,0,,0
Komeda Cafe,Cafe,Cafe,"MC8F+5CR, Bhaktapur 44800, Nepal",Bhaktapur,27.6654822,85.4235039,4.8,9,0,0,0,3,6,105.0,0,1,1,0,1,0,0,0,1,0,0,1,0,0,0,0,0,,1
ASALfood and beverage,Restaurant,Restaurant,"Suryabinayak 44800, Nepal",Suryabinayak,27.6621394,85.4261398,4.5,8,0,0,0,4,4,0.0,0,1,0,0,0,0,0,0,0,0,0,1,0,0,0,0,0,,1
Yonjan,Restaurant,Restaurant,"MC7M+2F8, Suryabinayak 44800, Nepal",Suryabinayak,27.6625467,85.4336946,5.0,1,0,0,0,0,1,0.0,0,1,0,0,0,0,0,0,0,0,0,1,0,0,0,0,0,,1
S & S Khaja Ghar & Sekuwa Corner,Cafe,Cafe,"MC7F+HH2, Suryabinayak 44800, Nepal",Suryabinayak,27.6641245,85.4240109,5.0,3,0,0,0,1,2,105.0,0,0,0,0,0,0,0,0,1,0,0,0,0,0,0,0,0,,1
Nasika Sekuwa and Burger Station,Restaurant,Restaurant,"MC7G+79V, F099, Suryabinayak 44800, Nepal",Suryabinayak,27.6632535,85.425985,5.0,1,0,0,0,0,1,98.0,0,1,1,0,0,0,0,0,0,0,0,1,0,0,0,0,0,,1
Diyo Garden Restaurant,Restaurant,Restaurant,"Suryabinayak -6, Bhaktapur 44800, Nepal",Bhaktapur,27.6633774,85.4259391,3.6,5,0,1,2,0,2,91.0,0,1,1,0,0,1,0,0,1,1,1,1,0,0,1,0,0,,0
Aagya wine and dine,Restaurant,Restaurant,"MC7F+6JQ, Suryabinayak 44800, Nepal",Suryabinayak,27.6630991,85.4240961,5.0,1,0,0,0,0,1,0.0,0,1,1,0,1,1,1,0,1,1,1,1,0,0,1,0,0,,0
Samir khaja Ghar,Cafe,Cafe,"MC6G+PF8, Suryabinayak 44800, Nepal",Suryabinayak,27.6617848,85.4261976,0.0,0,0,0,0,0,0,140.0,0,1,1,0,0,0,0,0,1,1,1,1,0,0,0,0,0,,0
Everest Momo & Newari Khaja Ghar,Restaurant,Restaurant,"MC7G+PHJ, Suryabinayak 44800, Nepal",Suryabinayak,27.6643784,85.4261986,4.7,3,0,0,0,1,2,0.0,0,1,1,0,0,0,0,0,0,0,0,1,0,0,0,0,0,,1
Ray Mama's Restro,Restaurant,Restaurant,"Suryabinyak -6 Bhaktapur, Suryabinayak 44800, Nepal",Suryabinayak,27.6626591,85.4259429,0.0,0,0,0,0,0,0,84.0,0,1,1,1,0,1,0,0,0,0,0,1,0,0,0,0,0,,0
Dreamland Kitchen Restaurant,Asian restaurant,Asian restaurant,"MC9G+36Q, Bhaktapur 44800, Nepal",Bhaktapur,27.6677053,85.4255981,5.0,2,0,0,0,1,1,0.0,0,1,0,0,0,1,0,0,0,1,1,1,0,0,0,0,0,,1
Dolakha Khaja Ghar,Restaurant,Restaurant,"Ganesh Temple, Suryabinayak 44800, Nepal",Suryabinayak,27.6628502,85.4259424,0.0,0,0,0,0,0,0,93.0,0,1,1,1,0,0,0,0,0,0,0,0,0,0,0,0,0,,0
Uttam Dai Ko MoMo,Restaurant,Restaurant,"Jagati, bus stop, Nepal",Bhaktapur,27.6664747,85.438088,4.2,53,0,0,8,28,17,0.0,0,1,1,1,0,1,0,0,0,0,0,1,0,0,1,0,0,,1
Kumpakha khaja ghar & Mini Party palace,Restaurant,Restaurant,"MC7F+682, Suryabinayak 44800, Nepal",Suryabinayak,27.6630064,85.4232512,4.0,1,0,0,0,1,0,98.0,0,1,0,0,0,0,0,0,0,0,0,1,0,0,0,0,0,,0
Peace Heart Zone,Pizza restaurant,Pizza restaurant,"MC7F+8FX, Suryabinayak 44800, Nepal",Suryabinayak,27.6633687,85.4237219,0.0,0,0,0,0,0,0,98.0,0,1,1,0,0,0,0,0,0,0,0,1,0,0,0,0,0,,0
Lisankhu Pakhar Daanse Khaja Ghar,Restaurant,Restaurant,"MC7F+2M4, Suryabinayak 44800, Nepal",Suryabinayak,27.6625108,85.4241925,0.0,0,0,0,0,0,0,0.0,0,1,1,0,1,1,1,0,0,1,1,1,0,0,0,0,0,,0
De Newa Kitchen,Cafe,Cafe,"MC8Q+8GR, Jagati, Bhaktapur, Nepal",Bhaktapur,27.6658536,85.438753,5.0,3,0,0,0,1,2,168.0,0,1,1,0,0,0,0,0,1,0,0,1,0,0,0,0,0,,1
Ajima cafe,Restaurant,Restaurant,"MCCG+86V, Bhaktapur 44800, Nepal",Bhaktapur,27.670873,85.4255394,5.0,3,0,0,0,1,2,0.0,0,0,0,0,0,0,0,0,0,0,0,0,0,0,0,0,0,,1
A-One Fast Food & Chaat Center,Family restaurant,Family restaurant,"MC9H+G6V, Rammandir Rd, Bhaktapur 44800, Nepal",Bhaktapur,27.6688119,85.4279565,5.0,1,0,0,0,0,1,0.0,0,1,0,0,0,0,0,0,0,0,0,1,0,0,0,0,0,,1
D icon Restaurant,Bar,Bar,"Bhaktapur 44800, Nepal",Bhaktapur,27.6723776,85.4384499,5.0,2,0,0,0,1,1,98.0,0,1,1,1,0,0,0,0,0,1,1,1,0,0,0,0,0,,1
Suryabinayak bhaktapur,Bar,Bar,"MC8G+45P, F099, Bhaktapur 44800, Nepal",Bhaktapur,27.66532,85.4254412,0.0,0,0,0,0,0,0,0.0,0,0,0,0,0,0,0,0,0,1,0,0,0,0,0,0,0,,0
D&R Fast Food,Fast food restaurant,Fast food restaurant,"Araniko Highway, Bhaktapur 44800, Nepal",Bhaktapur,27.6674076,85.4358847,3.6,16,0,1,6,7,2,94.5,0,1,1,0,1,1,0,0,1,1,1,1,0,0,0,0,0,,1
New enjoy mo: mo: & stick food,Fast food restaurant,Fast food restaurant,"MC8G+98X, Bhaktapur 44800, Nepal",Bhaktapur,27.6659909,85.4258588,0.0,0,0,0,0,0,0,97.22,0,1,1,1,1,1,1,0,0,0,0,1,0,0,0,0,0,,0
Araniko Khaja Ghar,Fast food restaurant,Fast food restaurant,"बाराहीस्थान-१४, बाराहीस्थान मार्ग, Suryabinayak 44800, Nepal",Suryabinayak,27.6663379,85.4234822,4.1,12,0,0,2,7,3,87.5,0,1,0,0,1,1,0,0,0,1,1,1,0,0,0,1,0,,1
RajeshDaikoNewariKhajagharराजेश दाईको नेवारी खाजा घर,Fast food restaurant,Fast food restaurant,"MC8F+3JX, Suryabinayak 44800, Nepal",Suryabinayak,27.6652255,85.4241241,0.0,0,0,0,0,0,0,0.0,0,1,1,0,0,0,0,0,0,0,0,1,0,0,0,0,0,,0
The marcopolo restaurant,Fast food restaurant,Fast food restaurant,"Taumadhi Square, Bhaktapur 44800, Nepal",Bhaktapur,27.6708871,85.4290875,0.0,0,0,0,0,0,0,0.0,0,0,0,0,0,0,0,0,0,0,0,0,0,0,0,0,0,,0
Dashinkali everest momo center,Fast food restaurant,Fast food restaurant,"MC8G+M69, गःपलि मार्ग, Bhaktapur 44800, Nepal",Bhaktapur,27.666657,85.425601,4.0,7,0,0,2,4,1,91.0,0,1,1,0,0,0,0,0,0,0,0,1,0,0,0,1,1,,1
Aalucha,Fast food restaurant,Fast food restaurant,"Durbar Square, Bhaktapur 44800, Nepal",Bhaktapur,27.6715487,85.4283565,3.9,587,0,12,153,315,107,0.0,1,1,1,1,0,1,1,1,0,0,0,1,1,0,0,0,1,,1
Bagale Fast Food and Sekuwa Corner,Fast food restaurant,Fast food restaurant,"MC9Q+W4J, Garud Kundal Road, Bhaktapur 44800, Nepal",Bhaktapur,27.6698558,85.4377501,0.0,0,0,0,0,0,0,98.0,0,1,0,0,0,0,0,0,0,0,0,1,0,0,0,0,0,,0
The Lazy Lump,Restaurant,Restaurant,"Ram Mandir, Bhulacha Suryabinayal,Near, Bhaktapur, Nepal",Bhaktapur,27.666067,85.4274325,5.0,6,0,0,0,2,4,91.0,0,1,1,1,1,1,1,0,1,1,1,1,0,0,1,0,0,,1
तारा दाईको डुनट पसल,Breakfast restaurant,Breakfast restaurant,"MC9M+366, Araniko Highway, Bhaktapur 44800, Nepal",Bhaktapur,27.6676619,85.4330136,3.3,9,0,1,5,3,0,91.0,0,0,1,0,1,0,0,0,0,0,0,1,0,0,1,0,0,,1
AYUSH GHASA CHHE,Asian restaurant,Asian restaurant,"101 Araniko Highway, Bhaktapur 44800, Nepal",Bhaktapur,27.6652493,85.4270454,0.0,0,0,0,0,0,0,108.5,0,1,1,1,1,1,1,0,0,0,0,1,0,0,0,0,0,,0
Everest MoMo,Fast food restaurant,Fast food restaurant,"12 Rammandir Rd, Bhaktapur 44800, Nepal",Bhaktapur,27.671336,85.4300794,3.8,123,0,4,37,64,18,66.5,0,1,1,1,0,0,0,0,0,0,0,1,0,0,0,0,0,,1
Sukul,Fast food restaurant,Fast food restaurant,"MCCJ+HHJ, Bhaktapur 44800, Nepal",Bhaktapur,27.6714524,85.431381,0.0,0,0,0,0,0,0,0.0,0,1,1,0,0,0,0,0,0,0,0,1,0,0,0,0,0,,0
Gosain Hotel And Cafe,Fast food restaurant,Fast food restaurant,"MCCH+9WW, Bhaktapur 44800, Nepal",Bhaktapur,27.670994,85.4298429,0.0,0,0,0,0,0,0,168.0,0,1,1,0,0,1,0,0,1,0,0,1,0,0,0,0,0,,0
Kavreli khajaghar,Coffee shop,Coffee shop,"MC9F+JXJ, Unnamed Road, 44800, Nepal",Bhaktapur,27.6690835,85.4248994,5.0,1,0,0,0,0,1,0.0,0,1,1,0,0,0,0,0,1,0,0,1,0,0,0,0,0,,1
Sunil tea shop,Coffee shop,Coffee shop,"MCCG+358, भक्तपुर मार्ग, Bhaktapur 44800, Nepal",Bhaktapur,27.6701657,85.4254489,3.9,16,0,0,4,9,3,112.0,0,1,1,0,0,0,0,0,1,0,0,1,0,0,0,0,0,,1
Barahi Coffee Shop,Coffee shop,Coffee shop,"MC8C+FV4, Araniko Highway, Bhaktapur 44800, Nepal",Bhaktapur,27.6661498,85.4222161,3.3,12,0,1,6,4,1,98.0,0,1,1,0,0,0,0,0,1,0,0,1,0,0,0,0,0,,1
Cosy Cafe,Coffee shop,Coffee shop,"12 Rammandir Rd, Bhaktapur 44800, Nepal",Bhaktapur,27.6700737,85.4283216,3.7,3,1,0,0,0,2,144.0,0,1,1,0,0,0,0,0,1,0,0,1,0,1,0,0,0,,0
Kristina Cafe and Coffee Shop,Cafe,Cafe,"MC8F+C2H, Araniko Highway, Bhaktapur 44800, Nepal",Bhaktapur,27.666073,85.4226171,4.0,4,0,0,1,2,1,105.0,0,1,1,0,0,0,0,0,1,0,0,1,0,0,0,0,0,,0
Amity Tea & Coffee Corner,Coffee shop,Coffee shop,"MCCH+436, Pottery Square Road, Bhaktapur 44800, Nepal",Bhaktapur,27.67029,85.42765,3.5,6,1,1,0,2,2,0.0,0,1,1,0,1,1,0,0,1,1,1,1,0,0,0,0,0,,0
Tea shop,Coffee shop,Coffee shop,"4 Bolachhen, Bhaktapur 44800, Nepal",Bhaktapur,27.670376,85.4284829,0.0,0,0,0,0,0,0,0.0,0,0,1,0,0,0,0,0,1,0,0,1,0,0,0,0,0,,0
Kanxoz Cafe,Coffee shop,Coffee shop,"Bhulancha, 4, Bhulancha, Bhaktapur 44800, Nepal",Bhaktapur,27.6672969,85.426885,0.0,0,0,0,0,0,0,105.0,0,1,0,0,0,0,0,0,1,0,0,1,0,0,0,0,0,,0
Yaman Coffee Shop,Coffee shop,Coffee shop,"MC8F+JFX, बाराहीस्थान मार्ग, Bhaktapur 44800, Nepal",Bhaktapur,27.6666191,85.4237202,2.9,7,1,1,4,0,1,105.0,0,1,1,0,1,0,0,0,1,0,0,1,0,0,0,0,0,,0
Bhaktapur Bartending & Barista,Coffee shop,Coffee shop,"Suryabinayak chowk, Bhaktapur 44800, Nepal",Bhaktapur,27.6653251,85.4254639,4.8,24,1,0,0,0,23,66.0,0,0,0,0,0,0,0,0,0,0,0,0,0,0,0,0,1,,0
YG COFFEE & TRAINING CENTRE,Coffee shop,Coffee shop,"MC8F+9MX, सुर्यविनायक मार्ग, Bhaktapur 44800, Nepal",Bhaktapur,27.6660197,85.4242277,0.0,0,0,0,0,0,0,0.0,0,0,0,0,0,0,0,0,1,0,0,0,0,0,0,0,0,,0
Anju Store,Coffee shop,Coffee shop,"MC8F+CG9, गःपलि मार्ग, Suryabinayak 44800, Nepal",Suryabinayak,27.6659972,85.4238661,0.0,0,0,0,0,0,0,98.0,0,0,1,1,0,0,0,0,1,0,0,1,0,0,0,0,0,,0
Bangsagopal,Coffee shop,Coffee shop,"MC9G+RGQ, मंगलाछें मार्ग, Bhaktapur 44800, Nepal",Bhaktapur,27.6695875,85.4263594,3.0,1,0,0,1,0,0,0.0,0,1,0,0,0,0,0,0,1,0,0,1,0,0,0,0,0,,0
Suman Tamang Shop,Coffee shop,Coffee shop,"MC8F+JW8, Bhaktapur 44800, Nepal",Bhaktapur,27.666443,85.4248226,0.0,0,0,0,0,0,0,0.0,0,0,0,0,0,0,0,0,1,0,0,1,0,0,0,0,0,,0
Momo & Khaja corner,Coffee shop,Coffee shop,"MC8F+5HP, Suryabinayak 44800, Nepal",Suryabinayak,27.665455,85.4239267,0.0,0,0,0,0,0,0,0.0,0,0,0,0,0,0,0,0,1,0,0,0,0,0,0,0,0,,0
The 1990 Yummy Laphing & Momo Center,Asian restaurant,Asian restaurant,"बाराही मन्दिर, Road, Bhaktapur 44800, Nepal",Bhaktapur,27.6692533,85.4250107,4.3,247,0,1,30,127,89,77.0,0,1,1,0,0,1,0,0,0,0,0,1,0,0,1,0,1,,1
The Burger House And Crunchy Fried Chicken,Restaurant,Restaurant,"MCCC+9MX, Bhaktapur 44800, Nepal",Bhaktapur,27.6710646,85.4217254,5.0,8,0,0,0,2,6,84.0,0,1,1,0,0,0,0,0,0,0,0,0,0,0,0,0,0,,1
Unique Khaja Ghar,Nepalese restaurant,Nepalese restaurant,"MC8C+5VP, Bhaktapur 44800, Nepal",Bhaktapur,27.6654513,85.4221887,5.0,2,0,0,0,1,1,0.0,0,1,1,0,0,1,1,0,0,1,1,1,0,0,0,0,0,,1
"Lumbini tandoori bhojanalaya,suryabinayak",Restaurant,Restaurant,"MC8F+57M, Suryabinayak 44800, Nepal",Suryabinayak,27.6654551,85.4231862,5.0,6,0,0,0,2,4,0.0,0,1,1,0,0,0,0,0,0,0,0,1,0,0,0,0,0,,1
Grill and chill,Chicken restaurant,Chicken restaurant,"MC8F+56H, Bhaktapur 44800, Nepal",Bhaktapur,27.6654456,85.4231215,4.5,10,0,0,1,5,4,87.5,0,1,1,0,0,1,1,0,0,1,1,1,0,0,1,0,0,,1
Mo: Mo Shop,Restaurant,Restaurant,"MCCC+G99, Nagarkot Road, Bhaktapur 44800, Nepal",Bhaktapur,27.6712938,85.4209804,5.0,3,0,0,0,1,2,0.0,0,1,0,0,0,0,0,0,0,0,0,1,0,0,0,0,0,,1
Lhosa Chhen,Restaurant,Restaurant,"Bhaktapur 44600, Nepal",Bhaktapur,27.6649091,85.4227092,4.3,9,1,0,0,2,6,98.0,0,1,1,1,1,1,1,0,1,1,1,1,0,0,1,0,0,,0
BARAHI AJIMA NEWARI KHAJA GHAR,Family restaurant,Family restaurant,"MC9G+WJ3, Bhaktapur 44800, Nepal",Bhaktapur,27.6697631,85.426554,5.0,1,0,0,0,0,1,0.0,0,1,0,0,0,0,0,0,0,0,0,1,0,0,0,0,0,,0
times cafe,Cafe,Cafe,"MC8G+W5F, Unnamed Road, Suryabinayak 44800, Nepal",Suryabinayak,27.6673032,85.4254267,4.1,8,0,0,2,4,2,98.0,0,1,0,0,1,1,0,0,1,1,1,1,0,0,1,0,0,,1
Moori De lounge,Cafe,Cafe,"MC8F+C9H, Bhaktapur 44800, Nepal",Bhaktapur,27.666067,85.4234754,5.0,1,0,0,0,0,1,0.0,0,1,1,0,0,0,0,0,1,1,1,1,0,0,0,0,0,,1
Ramailo MOMO,Momo restaurant,Momo restaurant,"MC8F+5RX, Araniko Highway, Suryabinayak 44800, Nepal",Suryabinayak,27.6654899,85.4246151,4.3,7,1,0,0,1,5,84.0,0,1,1,0,0,0,0,0,0,0,0,1,0,0,0,0,0,,0
Just Chill Restaurant,Restaurant,Restaurant,"Bhaktapur 44800, Nepal",Bhaktapur,27.6652904,85.4224034,0.0,0,0,0,0,0,0,90.5,0,0,0,0,0,0,0,0,0,0,0,0,0,0,0,0,0,,0
Delhi Alkarim Biryani and Fast Food,Asian restaurant,Asian restaurant,"MC9H+F5W, Durbar Square Road, Bhaktapur 44800, Nepal",Bhaktapur,27.6687485,85.4279453,4.2,6,0,1,1,0,4,0.0,0,0,0,0,0,0,0,0,0,0,0,0,0,0,0,0,0,,0
LAFANGAZ Cafe,Restaurant,Restaurant,"Bharwacho, Bhaktapur 44800, Nepal",Bhaktapur,27.6711233,85.4234664,0.0,0,0,0,0,0,0,106.0,0,1,1,1,0,0,0,0,0,0,0,0,0,0,0,0,0,,0
Nimto MoMo Naan & Stick Food House,Restaurant,Restaurant,"MC8G+477, F099, Suryabinayak 44800, Nepal",Suryabinayak,27.6652775,85.4256796,0.0,0,0,0,0,0,0,78.0,0,1,1,0,0,1,0,0,0,0,0,1,0,0,0,0,0,,0
The Momo Factory,Restaurant,Restaurant,"Suryabinayak 44800, Nepal",Suryabinayak,27.6653663,85.4262875,2.3,4,2,1,0,0,1,90.5,0,1,0,0,0,0,0,0,0,0,0,1,0,0,0,0,0,,0
Suryabinayak Burger House & Crunchy Fried Chicken,Restaurant,Restaurant,"MC8G+M7C, Suryabinayak 44800, Nepal",Suryabinayak,27.6666969,85.4256377,1.7,14,10,0,2,2,0,84.0,0,1,1,1,0,1,0,0,0,0,0,1,0,0,1,0,0,,0
Mangalachhen,Family restaurant,Family restaurant,"MC9G+RGQ, मंगलाछें मार्ग, Bhaktapur 44800, Nepal",Bhaktapur,27.6697682,85.426547,0.0,0,0,0,0,0,0,0.0,0,1,0,0,0,0,0,0,0,0,0,1,0,0,0,0,0,,0
Hypnotize restro,Restaurant,Restaurant,"101 Araniko Highway, Bhaktapur 44800, Nepal",Bhaktapur,27.6664092,85.4205994,0.0,0,0,0,0,0,0,91.0,0,1,1,0,1,1,0,0,1,1,1,1,0,0,1,0,0,,0
Luthabu,Family restaurant,Family restaurant,"MC8H+22G, Suryabinayak 44800, Nepal",Suryabinayak,27.6650513,85.4275729,0.0,0,0,0,0,0,0,0.0,0,1,0,0,0,0,0,0,0,0,0,1,0,0,0,0,0,,0
Barahi Liquors,Bar,Bar,"Bansagopal, Bhaktapur 44800, Nepal",Bhaktapur,27.671011,85.4257652,5.0,1,0,0,0,0,1,0.0,0,1,0,0,0,0,0,0,0,1,1,1,0,0,0,1,0,,1
Bhaktapur,Restaurant,Restaurant,"MCCG+86R, Bhaktapur 44800, Nepal",Bhaktapur,27.6708782,85.425545,0.0,0,0,0,0,0,0,0.0,0,0,0,0,0,0,0,0,0,0,0,0,0,0,0,0,0,,0
bishnu mo m,Restaurant,Restaurant,"MC9H+P6H, Rammandir Rd, Bhaktapur 44800, Nepal",Bhaktapur,27.6693229,85.4281027,0.0,0,0,0,0,0,0,0.0,0,1,1,0,0,0,0,0,0,0,0,1,0,0,0,0,0,,0
Classic Burger & Stick Food Service,Restaurant,Restaurant,"MC9H+Q59, Bhaktapur 44800, Nepal",Bhaktapur,27.6694417,85.428121,0.0,0,0,0,0,0,0,77.0,0,1,1,0,0,1,0,0,0,0,0,1,0,0,0,0,0,,0
Pride food cafe,Restaurant,Restaurant,"MC8G+666 ढोलेश्वोर महादेव बस बिसौनी, Suryabinayak 44800, Nepal",Suryabinayak,27.6655255,85.4255009,0.0,0,0,0,0,0,0,0.0,0,1,1,0,0,1,1,0,1,0,0,1,0,0,0,0,0,,0
New Vishnu Mo Mo Center,Dumpling restaurant,Dumpling restaurant,"MCCF+53X, Nagarkot Road, Bhaktapur 44800, Nepal",Bhaktapur,27.6704939,85.4227322,0.0,0,0,0,0,0,0,0.0,0,1,1,0,1,0,0,0,0,0,0,1,0,0,0,0,1,,0
Sasto mitho khaja ghar,Restaurant,Restaurant,"MC8C+4XF Sasto mitho khaja ghar, Suryabinayak 44800, Nepal",Suryabinayak,27.6653184,85.4224212,0.0,0,0,0,0,0,0,0.0,0,1,0,0,0,0,0,0,0,0,0,1,0,0,0,0,0,,0
New City Top Rakesh Special Panipuri House,Restaurant,Restaurant,"MC9G+2G8, Suryabinayak 44800, Nepal",Suryabinayak,27.6675754,85.4263916,0.0,0,0,0,0,0,0,73.5,0,1,1,0,1,1,0,0,0,1,1,1,0,0,0,0,0,,0
Malla's Kitchen,Cafe,Cafe,"MC8G+VM9, 27°40'01.3, 25'36.7""E N 85°, Bhaktapur 44800, Nepal",Bhaktapur,27.6670549,85.4268318,5.0,4,0,0,0,0,4,98.0,0,1,1,1,1,1,0,1,1,1,1,1,0,0,1,1,1,,0
Bhajyapukhu Cafe Outlet,Cafe,Cafe,"MC9G+2JP, Suryabinayak 44800, Nepal",Suryabinayak,27.6675974,85.4265822,5.0,1,0,0,0,0,1,84.0,0,0,1,0,0,0,0,0,1,0,0,1,0,0,0,0,0,,0
The zeroth cafe and fast food,Cafe,Cafe,"MC9H+M64, Rammandir Rd, Bhaktapur 44800, Nepal",Bhaktapur,27.6691349,85.4280808,5.0,6,0,0,0,0,6,91.0,0,1,1,0,1,1,0,0,1,0,0,1,0,0,0,0,0,,0
Purbeli chiya pasal,Fast food restaurant,Fast food restaurant,"Bhaktapur 44800, Nepal",Bhaktapur,27.6714331,85.4229092,5.0,5,0,0,0,1,4,97.5,0,1,1,1,1,0,0,0,0,0,0,1,1,0,0,1,1,,1
Laphing Hut,Cafe,Cafe,"Ram Mandir, Tourism Market, Suryabinayak 44800, Nepal",Suryabinayak,27.6676166,85.4264276,5.0,1,0,0,0,0,1,49.0,0,0,1,0,0,0,0,0,1,0,0,1,0,0,0,0,0,,0
Akarshan Cafe,Cafe,Cafe,"MC7F+PWH, Suryabinayak 44800, Nepal",Suryabinayak,27.6643186,85.4248565,3.2,6,1,1,1,2,1,77.0,0,1,1,0,1,1,0,0,1,1,1,1,0,0,0,0,0,,0
Duwal Wireless,Cafe,Cafe,"MCCF+F9Q, Bhaktapur 44800, Nepal",Bhaktapur,27.6712216,85.4234705,4.0,2,0,0,1,0,1,0.0,0,1,0,0,0,0,0,0,1,0,0,1,0,0,0,0,0,,0
JYO JYO CAFE Pvt.Ltd.☕️,Cafe,Cafe,"6 Laxmi Market, Bhaktapur 44800, Nepal",Bhaktapur,27.6643982,85.4256247,0.0,0,0,0,0,0,0,0.0,0,1,1,1,0,0,0,0,1,0,0,1,0,0,0,0,0,,0
The Vibevault & ChiyaKhana,Cafe,Cafe,"Bhaktapur 44800, Nepal",Bhaktapur,27.6668872,85.4259959,0.0,0,0,0,0,0,0,84.0,0,1,1,0,0,0,0,0,1,0,0,0,0,0,0,0,0,,0
Khadka Restro,Cafe,Cafe,"MCC8+38C, Bhaktapur 44800, Nepal",Bhaktapur,27.6701931,85.415751,2.0,3,1,1,1,0,0,87.5,0,1,1,0,0,0,0,0,1,0,0,1,0,0,0,0,0,,0
Hotel White House,Restaurant,Restaurant,"Suryabinayak 44800, Nepal",Suryabinayak,27.6622144,85.4225893,4.0,50,3,5,10,4,28,168.0,0,1,1,0,1,1,1,0,1,1,1,1,0,1,1,1,0,,0
MOMO CAFE,Coffee shop,Coffee shop,"MCF3+9JH, Srijananagar, Bhaktapur, Nepal",Bhaktapur,27.67344,85.4041116,0.0,0,0,0,0,0,0,0.0,0,0,0,0,0,0,0,0,1,0,0,0,0,0,0,0,0,,0
Local house,Coffee shop,Coffee shop,"MCF3+5H3, Shirjanagar, Bhaktapur, Nepal",Bhaktapur,27.6728868,85.4039087,0.0,0,0,0,0,0,0,94.5,0,1,1,0,0,0,0,0,1,0,0,1,0,0,0,0,0,,0
Creative Burger & Pasta House,Restaurant,Restaurant,"Bhaktapur 44800, Nepal",Bhaktapur,27.672397,85.4051819,4.8,105,0,0,4,37,64,98.0,0,1,1,1,0,1,1,0,1,1,1,1,0,0,1,0,0,,1
Good Mood Food Cafe,Restaurant,Restaurant,"MCC4+X33, Bhaktapur 44800, Nepal",Bhaktapur,27.6723939,85.4051633,3.6,29,0,2,11,13,3,84.0,0,1,1,0,1,1,1,0,1,1,1,1,0,0,0,0,0,,1
bhaktapur srijanagar,Bar,Bar,"MCF4+H4G, srijananagar, Bhaktapur, Nepal",Bhaktapur,27.6739329,85.4053391,0.0,0,0,0,0,0,0,0.0,0,0,0,0,0,0,0,0,0,1,0,0,0,0,0,0,0,,0
Nauni Ghiu Biryani Restro And Bar,Restaurant,Restaurant,"MCF4+F22, Sirjana nagar, Bhaktapur 44800, Nepal",Bhaktapur,27.6736257,85.4050284,0.0,0,0,0,0,0,0,0.0,0,1,1,0,0,1,0,0,0,1,1,1,0,0,0,0,0,,0
Firewood Sekuwa Palace N Thakali,Restaurant,Restaurant,"MCF3+8FV, Araniko Highway, Bhaktapur 44800, Nepal",Bhaktapur,27.6733771,85.4036604,4.0,54,9,1,5,7,32,98.0,0,1,1,1,0,1,1,0,1,1,1,1,0,0,1,0,0,,0
Antarikshya Stick Food,Fast food restaurant,Fast food restaurant,"MCF3+PV7, Bhaktapur 44800, Nepal",Bhaktapur,27.6742943,85.4046743,0.0,0,0,0,0,0,0,0.0,0,1,1,0,0,0,0,0,0,0,0,1,0,0,0,0,0,,0
Bishal Momo,Momo restaurant,Momo restaurant,"Kathmandu 44600, Nepal",Kathmandu,27.6733609,85.4051482,4.4,103,4,4,9,20,66,38.0,1,1,1,1,0,0,0,0,0,0,0,1,1,0,0,0,1,,0
AD-hose,Coffee shop,Coffee shop,"Bhaktapur, Nepal",Bhaktapur,27.6692427,85.4052233,0.0,0,0,0,0,0,0,0.0,0,1,1,0,0,0,0,0,1,0,0,1,0,0,0,0,0,,0
Rajan Khunju,Coffee shop,Coffee shop,"MC84+H5W, Suryabinayak, Nepal",Suryabinayak,27.665405,85.404719,0.0,0,0,0,0,0,0,0.0,0,0,0,0,0,0,0,0,1,0,0,0,0,0,0,0,0,,0
chi’s sweet home,Coffee shop,Coffee shop,"Suryabinayak-5, Nepal",Suryabinayak,27.6680311,85.4067485,0.0,0,0,0,0,0,0,0.0,0,1,0,0,0,0,0,0,1,0,0,1,0,0,0,0,0,,0
Ningleku House,Assamese restaurant,Assamese restaurant,"dsad 44800, Nepal",dsad,27.6701266,85.4026572,5.0,1,0,0,0,0,1,24.0,0,1,1,0,1,1,1,0,0,0,0,1,0,0,1,0,0,,1
Hamro Khaja Junction,Fast food restaurant,Fast food restaurant,"MC93+8PF, Suryabinayak 5, Nepal",Suryabinayak,27.668302,85.404303,0.0,0,0,0,0,0,0,0.0,0,0,0,0,0,0,0,0,0,0,0,0,0,0,0,0,0,,0
Subechhya Restaurant,Family restaurant,Family restaurant,"MCF3+7GV, Srijananagar, Bhaktapur, Nepal",Bhaktapur,27.6732465,85.4037988,0.0,0,0,0,0,0,0,0.0,0,1,1,0,0,1,0,0,0,0,0,1,0,0,0,0,0,,0
Shandaar Mo:Mo,Cafe,Cafe,"MC96+R9V, Suryabinayak 44800, Nepal",Suryabinayak,27.6696249,85.4109317,5.0,1,0,0,0,0,1,0.0,0,1,1,0,0,0,0,0,1,0,0,1,0,0,0,0,0,,0
bakhunchhe house,Cafe,Cafe,"MC83+HJQ, Suryabinayak 44800, Nepal",Suryabinayak,27.6664503,85.4040677,0.0,0,0,0,0,0,0,0.0,0,0,0,0,0,0,0,0,1,0,0,0,0,0,0,0,0,,0
Bijay Coffee Shop,Cafe,Cafe,"MC8P+M94, Bhaktapur 44800, Nepal",Bhaktapur,27.6666304,85.4359586,4.0,5,0,0,1,3,1,95.43,0,0,1,0,0,0,0,0,1,0,0,1,0,0,0,0,0,,1
Jagati hanumanghat Road,Coffee shop,Coffee shop,"MC9M+4VC, Bhaktapur 44800, Nepal",Bhaktapur,27.6669539,85.4363544,0.0,0,0,0,0,0,0,0.0,0,1,1,0,0,0,0,0,1,0,0,1,0,0,0,0,0,,0
Underground Gamers Cafe,Cafe,Cafe,"MC9M+35M, Araniko Highway, Bhaktapur 44800, Nepal",Bhaktapur,27.6677098,85.4329235,4.0,2,0,0,1,1,0,0.0,0,1,0,0,0,0,0,0,1,0,0,1,0,0,0,0,0,,1
Subin Cafe,Cafe,Cafe,"MCCQ+PP3, Bhaktapur 44800, Nepal",Bhaktapur,27.6717718,85.4393062,3.2,23,0,3,12,7,1,108.5,0,1,1,0,1,0,0,0,1,0,0,1,0,0,0,1,1,,1
Halesi meat shop and sekuwa corner,Family restaurant,Family restaurant,"MC8Q+996 Jagati, Bhaktapur, Nepal",Bhaktapur,27.6658296,85.4383976,5.0,1,0,0,0,0,1,0.0,0,0,0,0,0,0,0,0,0,0,0,0,0,0,0,0,0,,1
Royal jagati khajaghar and sekuwa corner,Restaurant,Restaurant,"Jagati(near checkpost, Bhaktapur 44600, Nepal",Bhaktapur,27.6658507,85.4387659,5.0,1,0,0,0,0,1,0.0,0,1,1,1,1,1,1,0,0,1,1,1,0,0,1,0,0,,1
The Laphin House and Momo Centre,Restaurant,Restaurant,"MC9P+4J8, Bhaktapur 44800, Nepal",Bhaktapur,27.6677888,85.4365747,4.0,1,0,0,0,1,0,0.0,0,0,0,0,0,0,0,0,0,0,0,0,0,0,0,0,0,,0
Krishna Fast Food,Cafe,Cafe,"MCCQ+7H8, Unnamed Road, Bhaktapur 44800, Nepal",Bhaktapur,27.6706541,85.4389575,0.0,0,0,0,0,0,0,0.0,0,1,1,0,1,1,0,0,1,0,0,1,0,0,0,0,0,,0
Shree Jagati Mithai Bhandar,Candy store,Candy store,"jagati, Bhaktapur 44800, Nepal",Bhaktapur,27.6665544,85.4377743,4.0,8,1,0,2,0,5,108.5,0,0,0,0,0,0,0,0,0,0,0,0,0,0,0,0,0,,0
Destination Restaurant &Bakery Cafe,Fast food restaurant,Fast food restaurant,"MC9P+394, Araniko Highway, Bhaktapur 44800, Nepal",Bhaktapur,27.6676408,85.4359415,0.0,0,0,0,0,0,0,0.0,0,0,0,0,0,0,0,0,0,0,0,0,0,0,0,0,0,,0
Halu Khaja Ghar,Family restaurant,Family restaurant,"MC9Q+XHJ, Bhaktapur 44800, Nepal",Bhaktapur,27.670213,85.4389827,0.0,0,0,0,0,0,0,168.0,0,0,0,0,0,0,0,0,0,0,0,0,0,0,0,0,0,,0
Chhitomitho momo,Restaurant,Restaurant,"MC8M+98V, Araniko Highway, Suryabinayak 44800, Nepal",Suryabinayak,27.6660273,85.4332801,0.0,0,0,0,0,0,0,0.0,0,1,1,0,0,0,0,0,0,0,0,1,0,0,0,0,0,,0
Center Momo & Burger House,Restaurant,Restaurant,"MC8M+9RM, Araniko Highway, Bhaktapur 44800, Nepal",Bhaktapur,27.6659531,85.4345625,4.3,15,1,0,2,2,10,0.0,0,0,0,0,0,0,0,0,0,0,0,0,0,0,0,0,0,,0
A One Liquor Shop,Bar,Bar,"Dhara chowk, Bhaktapur 44800, Nepal",Bhaktapur,27.6712166,85.4378953,5.0,3,0,0,0,1,2,84.0,0,0,0,0,0,0,0,0,0,0,0,0,0,0,0,0,0,,1
Namaste Kabhre Restro,Fast food restaurant,Fast food restaurant,"MC8P+QF7, Bhaktapur 44800, Nepal",Bhaktapur,27.6669134,85.436165,3.0,2,0,1,1,0,0,0.0,0,1,1,0,0,1,0,0,0,1,1,1,0,0,0,0,0,,1
Manandhar Hotel,Restaurant,Restaurant,"MC8P+FF5, Araniko Highway, Bhaktapur 44800, Nepal",Bhaktapur,27.6661458,85.4362277,3.4,11,2,2,1,2,4,77.0,0,1,1,0,1,1,0,0,0,0,0,1,0,0,0,1,1,,0
IHOB Cafe and Restaurant,Fast food restaurant,Fast food restaurant,"MCHQ+2FJ, Kamalpokhari Path, Bhaktapur 44800, Nepal",Bhaktapur,27.677582,85.438631,0.0,0,0,0,0,0,0,0.0,0,0,0,0,0,0,0,0,0,0,0,0,0,0,0,0,0,,0
Nawa Durga Khaja Ghar and Fast Food,Restaurant,Restaurant,"Kamalbinayak, Bhaktapur 44800, Nepal",Bhaktapur,27.6752549,85.438541,3.0,2,0,1,1,0,0,0.0,0,0,0,0,0,0,0,0,0,0,0,0,0,0,0,0,0,,1
KV Lounge and Jagatiko Chhoila Pasal,Restaurant,Restaurant,"Kamalbinayak, Bhaktapur 44800, Nepal",Bhaktapur,27.6765449,85.437712,4.0,134,0,2,30,73,29,105.0,1,1,1,1,1,1,1,0,1,1,1,1,0,1,1,0,0,,1
The Box Hub,Bar,Bar,"MCHQ+2GR, Kamalbinayak, Bhaktapur 44800, Nepal",Bhaktapur,27.6776134,85.4387782,5.0,8,0,0,0,2,6,98.0,0,0,0,0,0,0,0,0,0,1,0,0,0,0,0,0,0,,1
Keshab Coffee Shop,Cafe,Cafe,"MCFQ+77J, Chyamasiha road, Bhaktapur 44800, Nepal",Bhaktapur,27.6732069,85.4381559,3.9,16,0,0,4,9,3,77.0,0,1,0,0,0,0,0,0,1,0,0,1,0,0,0,1,1,,1
Khwopa Beans Cafe,Coffee shop,Coffee shop,"MCFQ+67V, जगाती रोड, Bhaktapur 44800, Nepal",Bhaktapur,27.6731166,85.4380831,0.0,0,0,0,0,0,0,98.0,0,0,0,0,0,0,0,0,1,0,0,0,0,0,0,0,0,,0
Duwal house,Coffee shop,Coffee shop,"MCCR+R4F, Bhaktapur 44800, Nepal",Bhaktapur,27.672089,85.4403049,0.0,0,0,0,0,0,0,0.0,0,1,0,0,0,0,0,0,1,0,0,1,0,0,0,0,0,,0
The sign cafe,Coffee shop,Coffee shop,"The sign cafe, Kamalbinayak, Bhaktapur 44800, Nepal",Bhaktapur,27.6756952,85.4377457,0.0,0,0,0,0,0,0,0.0,0,1,1,0,0,0,0,0,1,0,0,0,0,0,0,0,0,,0
Nagarkot Khaja & Thakali Bhojanalaya,Nepalese restaurant,Nepalese restaurant,"MCGQ+C28, Jagati-KamalBinayak Rd, Bhaktapur 44800, Nepal",Bhaktapur,27.6760335,85.4375354,5.0,6,0,0,0,2,4,98.0,0,1,1,0,0,1,1,0,1,1,1,1,0,0,1,0,0,,1
Yes Cafe,Cafe,Cafe,"Jagati-KamalBinayak Rd, Bhaktapur 44800, Nepal",Bhaktapur,27.6758349,85.4382209,3.0,4,0,1,2,1,0,101.5,0,1,1,1,0,0,0,0,1,0,0,1,0,0,0,0,0,,1
Shiva ram house,Bar,Bar,"MCFQ+RXR, Bhaktapur 44800, Nepal",Bhaktapur,27.6746056,85.4399017,0.0,0,0,0,0,0,0,0.0,0,0,0,0,0,0,0,0,0,1,0,0,0,0,0,0,0,,0
Mamako Coffee Shop,Coffee shop,Coffee shop,"MCCC+QX4, दुधपाटी मार्ग, Bhaktapur 44800, Nepal",Bhaktapur,27.6718891,85.4224559,3.0,2,0,1,0,1,0,112.0,0,1,1,0,1,0,0,0,1,0,0,1,0,0,0,0,0,,0
Matina Cafe,Cafe,Cafe,"Taumadhi Square, Bhaktapur 44800, Nepal",Bhaktapur,27.6715049,85.4298364,3.2,86,1,13,44,26,2,98.0,0,1,1,1,1,1,0,0,1,1,1,1,0,1,1,0,0,,1
Lotus restaurant and rooftop bar,Indian restaurant,Indian restaurant,"MCCH+FRW, Taumadi Marg, Bhaktapur 44800, Nepal",Bhaktapur,27.6712409,85.4295755,2.3,3,2,0,0,0,1,0.0,0,0,0,0,0,0,0,0,0,0,0,0,0,0,0,0,0,,0
Shanghai Express | Chinese Restaurant,Chinese restaurant,Chinese restaurant,"14 Pottery Square, Bhaktapur 00001, Nepal",Bhaktapur,27.6699502,85.4277479,0.0,0,0,0,0,0,0,98.0,0,1,0,0,0,1,0,0,0,0,0,1,0,0,0,0,0,,0
Surybanyak,Hamburger restaurant,Hamburger restaurant,"MC8G+P78, Suryabinayak 44800, Nepal",Suryabinayak,27.6668246,85.425633,0.0,0,0,0,0,0,0,0.0,0,1,1,0,0,0,0,0,0,0,0,1,0,0,0,0,0,,0
Aaditya Paanipuri ChanaChatpat & Cold Drinks,Restaurant,Restaurant,"MCCJ+59W, Bhaktapur 44800, Nepal",Bhaktapur,27.6703549,85.4310597,3.0,1,0,0,1,0,0,0.0,0,1,1,0,0,0,0,0,0,0,0,1,0,0,0,0,0,,0
Sagar Khaza Ghar,Restaurant,Restaurant,"MC9J+X64, Bhaktapur 44800, Nepal",Bhaktapur,27.6698976,85.4305634,0.0,0,0,0,0,0,0,0.0,0,0,0,0,0,0,0,0,0,0,0,0,0,0,0,0,0,,0
Planet Bhaktapur Hotel,Restaurant,Restaurant,"7, cha vdc, Mandev Marg, Bhaktapur 44800, Nepal",Bhaktapur,27.682026,85.4301483,4.7,273,0,0,12,107,154,0.0,1,0,0,0,0,0,0,0,0,0,0,0,0,0,0,0,0,,1
Mo:mo pasal,Momo restaurant,Momo restaurant,"Bhaktapur 44800, Nepal",Bhaktapur,27.6777681,85.4226628,5.0,6,0,0,0,2,4,84.0,0,1,1,1,0,0,0,0,0,0,0,1,0,0,0,0,0,,1
Mohan Newa Khazaghar,Restaurant,Restaurant,"MCF4+53Q, Bhaktapur 44800, Nepal",Bhaktapur,27.6729566,85.4052439,4.3,3,0,0,0,2,1,80.5,0,0,0,0,0,0,0,0,0,0,0,0,0,0,0,0,0,,1
Himalayan Takeaway Bhaktapur,Restaurant,Restaurant,"Kwachhen 8, Bhaktapur 44800, Nepal",Bhaktapur,27.6713509,85.4301202,5.0,1,0,0,0,0,1,91.5,0,0,0,0,0,0,0,0,0,0,0,0,0,0,0,0,0,,0
Newari khaja and bara ghar,Restaurant,Restaurant,"MCCH+HXV, Bhaktapur 44800, Nepal",Bhaktapur,27.6714791,85.4299259,4.3,6,0,0,2,0,4,0.0,0,0,0,0,0,0,0,0,0,0,0,0,0,0,0,0,0,,0
Sandar MoMo,Momo restaurant,Momo restaurant,"MCCC+JX6, Bhaktapur 44800, Nepal",Bhaktapur,27.6715316,85.4224053,3.3,3,1,0,0,1,1,0.0,0,1,1,0,0,0,0,0,0,0,0,1,0,0,0,0,0,,0
DAJUBHAI KHAJA GHAR,Restaurant,Restaurant,"MCC8+JP7, Nagarkot Road, Bhaktapur 44800, Nepal",Bhaktapur,27.6715355,85.4167828,0.0,0,0,0,0,0,0,168.0,0,0,0,0,0,0,0,0,0,0,0,0,0,0,0,0,0,,0
Aesamari Sattal,Coffee shop,Coffee shop,"MCCH+9J5, Bhaktapur 44800, Nepal",Bhaktapur,27.6708855,85.4290938,1.0,1,1,0,0,0,0,0.0,0,0,1,0,0,0,0,0,1,0,0,1,0,0,0,0,0,,0
Newari khajaghar & Sekuwa corner,Coffee shop,Coffee shop,"MC7C+HQR, Suryabinayak 44800, Nepal",Suryabinayak,27.6639829,85.4218836,0.0,0,0,0,0,0,0,0.0,0,1,1,0,0,0,0,0,1,1,1,1,0,0,0,0,0,,0
"1990s laphing,dhara",Restaurant,Restaurant,"MCCQ+Q92, Garud Kundal Road, Bhaktapur 44800, Nepal",Bhaktapur,27.6718977,85.438394,0.0,0,0,0,0,0,0,0.0,0,0,0,0,0,0,0,0,0,0,0,0,0,0,0,0,0,,0
Yomari Pasa:,Cafe,Cafe,"Kwachhen, Bhaktapur 44800, Nepal",Bhaktapur,27.6715439,85.4301936,5.0,2,0,0,0,1,1,91.0,0,1,1,1,0,0,0,0,1,0,0,1,0,0,0,0,0,,1
De'MoMo Factory Bhaktapur,Restaurant,Restaurant,"101 Araniko Highway, Bhaktapur 44800, Nepal",Bhaktapur,27.6672809,85.4234083,4.0,9,1,1,1,0,6,91.0,0,1,1,0,0,0,0,0,0,0,0,1,0,0,0,0,0,,0
Gamenic Cafe (Game Bar & Cafe),Bar,Bar,"1 Jagati-KamalBinayak Rd, Bhaktapur 44800, Nepal",Bhaktapur,27.6717182,85.438968,3.3,4,0,1,2,1,0,0.0,0,0,0,0,0,0,0,0,0,1,0,0,0,0,0,0,0,,1
Matina Laphing House,Cafe,Cafe,"MCCJ+F28 Kwachhen, Bhaktapur 44800, Nepal",Bhaktapur,27.6711545,85.4300711,2.8,4,2,0,0,1,1,84.0,0,1,0,0,0,0,0,0,1,0,0,1,0,0,0,0,0,,0
Untouched like blue dawn,Cafe,Cafe,"MC9J+49H, Unnamed Road, Bhaktapur 44800, Nepal",Bhaktapur,27.6678168,85.43099,0.0,0,0,0,0,0,0,98.0,0,1,0,0,0,0,0,0,1,0,0,1,0,0,0,0,0,,0
Sagar tea shop,Coffee shop,Coffee shop,"PC3Q+495, Bhaktapur, Nepal",Bhaktapur,27.7027997,85.4385237,5.0,1,0,0,0,0,1,0.0,0,1,1,0,0,0,0,0,1,0,0,1,0,0,0,0,0,,1
Nagarkot peace garden cafe,Coffee shop,Coffee shop,"6 Changunarayan Rd, Changunarayan 44600, Nepal",Changunarayan,27.7028242,85.4399102,0.0,0,0,0,0,0,0,0.0,0,1,0,0,0,0,0,0,1,0,0,1,0,0,0,0,0,,0
Friendship coffee shop,Coffee shop,Coffee shop,"MCGV+F4R, Bhaktapur 44800, Nepal",Bhaktapur,27.6763214,85.4428386,0.0,0,0,0,0,0,0,0.0,0,0,0,0,0,0,0,0,1,0,0,0,0,0,0,0,0,,0
Bamboo Brunch Restaurant,Restaurant,Restaurant,"PC5Q+CVF, Changunarayan Rd, Changunarayan 44600, Nepal",Changunarayan,27.7085611,85.4396613,4.4,14,1,0,0,4,9,70.0,0,1,1,0,1,1,1,0,1,0,0,1,0,0,1,0,0,,0
The Turning Point Restro,Fast food restaurant,Fast food restaurant,"Ghumti Ghar Bus Stop, Changunarayan Rd, Changunarayan 44600, Nepal",Changunarayan,27.705531,85.4403806,4.8,4,0,0,0,1,3,0.0,0,1,1,1,0,1,1,0,1,1,1,1,0,0,0,0,0,,0
SISHIR RESORT,Restaurant,Restaurant,"PC4W+7WJ, Changunarayan 44600, Nepal",Changunarayan,27.705148,85.447923,5.0,2,0,0,0,1,1,0.0,0,1,0,0,0,0,0,0,0,0,0,1,0,0,1,0,0,,1
Pk Height Khaja Ghar,Restaurant,Restaurant,"PC3Q+4HG, Changunarayan Rd, Changunarayan, Nepal",Changunarayan,27.7028133,85.4389522,0.0,0,0,0,0,0,0,0.0,0,0,0,0,0,0,0,0,0,0,0,0,0,0,0,0,0,,0
Pikhel Khaja Ghar,Bar,Bar,"PC2R+C2C Pikhel Bus Stop, Changunarayan Rd, Changunarayan, Nepal",Changunarayan,27.7010539,85.4400137,0.0,0,0,0,0,0,0,0.0,0,1,1,0,0,0,0,0,0,1,1,1,0,0,0,0,0,,0
Shankha lal khaja ghar,Fast food restaurant,Fast food restaurant,"MCXW+45J, Chhaling Road, Bhaktapur, Nepal",Bhaktapur,27.6978251,85.4453949,0.0,0,0,0,0,0,0,0.0,0,1,0,0,0,0,0,0,0,0,0,1,0,0,0,0,0,,0
Namaste Newa Fastfood,Restaurant,Restaurant,"MCHQ+5MC, 10 Nagarkot Rd, Bhaktapur 44800, Nepal",Bhaktapur,27.6780133,85.4391407,3.6,122,0,7,47,57,11,98.0,0,1,1,0,1,1,1,1,1,1,1,1,0,1,1,0,1,,1
Alfa home,Coffee shop,Coffee shop,"JCXX+CFM, Suryabinayak, Nepal",Suryabinayak,27.6485793,85.448664,5.0,2,0,0,0,1,1,0.0,0,1,0,0,0,0,0,0,1,0,0,1,0,0,0,0,0,,1
bhanye,Coffee shop,Coffee shop,"MCFW+X95, Bhaktapur 44800, Nepal",Bhaktapur,27.6748627,85.4459376,5.0,1,0,0,0,0,1,0.0,0,1,1,0,0,0,0,0,1,0,0,1,0,0,0,0,0,,1
Sathiko Bakes & Cakes,Cafe,Cafe,"Milanchowk, Suryabinayak-10, Suryabinayak, Nepal",Suryabinayak,27.6555219,85.4603871,3.0,2,0,1,1,0,0,94.5,0,0,0,0,0,0,0,0,0,0,0,0,0,0,0,0,0,,1
Phaidhoka Khaja Ghar,Restaurant,Restaurant,"Bhaktapur Nala Rd, फैढोका 44800, Nepal",फैढोका,27.668621,85.4662416,4.7,27,0,0,1,11,15,94.5,0,1,1,0,0,1,0,0,0,1,1,1,0,0,0,0,0,,1
Jay Himalayan Family Resort Restro,Restaurant,Restaurant,"Nalinchowk, Nepal",Nalinchowk,27.6569466,85.455566,3.9,18,0,0,5,10,3,70.0,0,1,1,0,1,1,1,0,1,1,1,1,0,0,1,0,0,,1
Blunch Resort,Restaurant,Restaurant,"MC6X+C33, Suryabinayak, Nepal",Suryabinayak,27.6609597,85.4481456,4.3,45,0,0,6,23,16,0.0,0,0,0,0,0,0,0,0,0,0,0,0,0,0,0,0,0,,1
Nakha Chhen Newari Restaurant,Restaurant,Restaurant,"kamalvinayak area, Bhaktapur 44800, Nepal",Bhaktapur,27.6831696,85.4539651,4.9,7,0,0,0,2,5,0.0,1,1,1,1,1,1,1,0,1,1,1,1,1,0,1,0,0,,1
Bar 555777,Bar,Bar,"MC5X+2PC, Suryabinayak, Nepal",Suryabinayak,27.6575716,85.4492298,0.0,0,0,0,0,0,0,0.0,0,0,0,0,0,0,0,0,0,1,0,0,0,0,0,0,0,,0
हाइवे खाजा घर,Fast food restaurant,Fast food restaurant,"MC6W+G6G, Bhatey Dhikoor Bus Stop, वाचामरी भाते-ढिकूर, Araniko Highway, Bhaktapur, Nepal",Bhaktapur,27.6613064,85.4455643,1.0,1,1,0,0,0,0,87.5,0,1,1,0,0,1,0,0,0,1,1,1,0,0,0,0,0,,1
black cherry cafe,Fast food restaurant,Fast food restaurant,"JCWV+23W, Suryabinayak, Nepal",Suryabinayak,27.6451028,85.4427153,5.0,1,0,0,0,0,1,0.0,0,1,1,0,0,0,0,0,0,0,0,1,0,0,0,0,0,,1
Fast Food,Restaurant,Restaurant,"JCXX+6X3, Suryabinayak, Nepal",Suryabinayak,27.6480052,85.4499348,0.0,0,0,0,0,0,0,0.0,0,1,1,0,1,1,0,0,0,0,0,1,0,0,0,0,0,,0
Friendship cofee shop,Coffee shop,Coffee shop,"Bhaktapur 44800, Nepal",Bhaktapur,27.6767411,85.4428571,0.0,0,0,0,0,0,0,0.0,0,0,0,0,0,0,0,0,1,0,0,0,0,0,0,0,0,,0
Friendship coffee shop,Coffee shop,Coffee shop,"Bhaktapur 44800, Nepal",Bhaktapur,27.6766696,85.4427921,0.0,0,0,0,0,0,0,0.0,0,1,0,0,0,0,0,0,1,0,0,1,0,0,0,0,0,,0
LA: WO: Station,Restaurant,Restaurant,"Ratopati,Chhaling-5, Bhaktapur 44600, Nepal",Bhaktapur,27.6797431,85.4429394,4.7,9,0,0,0,4,5,96.5,0,1,1,1,1,1,1,0,1,0,0,1,0,0,0,0,0,,1
Purushottam Newa Khaja Ghar Restro,Asian restaurant,Asian restaurant,"Nagarkot Rd, Bhaktapur 44800, Nepal",Bhaktapur,27.6788682,85.4413761,4.0,108,0,1,24,59,24,77.0,1,1,1,1,0,1,0,1,0,1,1,1,1,0,1,0,0,,1
Chawo khaja Ghar And Tea Point,Fast food restaurant,Fast food restaurant,"MCPV+7F, Bhaktapur, Nepal",Bhaktapur,27.6857468,85.4436662,4.5,2,0,0,0,1,1,0.0,0,1,0,0,0,0,0,0,0,0,0,1,0,0,0,0,0,,1
Chyasha cafe,Cafe,Cafe,"Kamalbinayak, Bhaktapur 44800, Nepal",Bhaktapur,27.6763231,85.4398356,5.0,2,0,0,0,1,1,98.0,0,0,0,0,0,0,0,0,1,0,0,0,0,0,0,0,0,,1
Srisha's Dairy and Bakery,Cafe,Cafe,"Lancha falcha (Bhatkekyapati, Nagarkot Road, Bhaktapur 44800, Nepal",Bhaktapur,27.6813731,85.4448577,4.5,2,0,0,0,1,1,108.5,0,0,0,0,0,0,0,0,0,0,0,0,0,0,0,0,0,,0
Vintuna Khaja ghar,Asian restaurant,Asian restaurant,"MCJV+8MR, Bhaktapur 44800, Nepal",Bhaktapur,27.6808625,85.4441406,0.0,0,0,0,0,0,0,84.0,0,0,0,0,0,0,0,0,0,0,0,0,0,0,0,0,0,,0
Maheshwor Khaja Pasal,Fast food restaurant,Fast food restaurant,"MCJV+HX2, Nagarkot Road, Bhaktapur 44800, Nepal",Bhaktapur,27.6813928,85.4448893,1.0,1,1,0,0,0,0,108.5,0,1,1,0,0,0,0,0,0,0,0,1,0,0,0,0,0,,0
Thakali Station,Asian restaurant,Asian restaurant,"Jagati-KamalBinayak Rd, Bhaktapur 44800, Nepal",Bhaktapur,27.6783117,85.4407716,3.6,99,0,5,39,46,9,87.5,0,1,1,1,1,1,1,0,1,1,1,1,0,1,1,0,0,,1
Dawa dai khaja ghar,Nepalese restaurant,Nepalese restaurant,"MCJV+PVR, Pipeline Road, Bhaktapur 44800, Nepal",Bhaktapur,27.6818508,85.4446401,0.0,0,0,0,0,0,0,0.0,0,1,1,0,1,1,1,0,0,1,1,1,0,0,0,0,0,,0
Lakhe Food Land,Fast food restaurant,Fast food restaurant,"nala road, Bhaktapur 44800, Nepal",Bhaktapur,27.6748528,85.4456897,0.0,0,0,0,0,0,0,51.0,0,1,1,1,1,1,0,0,0,0,0,1,0,0,0,0,0,,0
Easy Fast Food,Coffee shop,Coffee shop,"MFJ3+WHF, Mahamanjushree Nagarkot, Nepal",Mahamanjushree Nagarkot,27.6829462,85.4532658,4.4,7,0,0,1,3,3,0.0,0,1,1,0,0,0,0,0,1,1,1,1,0,0,0,0,0,,1
Bhaktapur,Cafe,Cafe,"MCGR+6WV, Bhaktapur 44800, Nepal",Bhaktapur,27.675625,85.4422873,0.0,0,0,0,0,0,0,133.0,0,1,1,0,0,0,0,0,1,0,0,1,0,0,0,0,0,,0
SHANDAR MO:MO,Restaurant,Restaurant,"Kamalbinayak, BATYAKAPATI, Nepal",BATYAKAPATI,27.6758611,85.448792,0.0,0,0,0,0,0,0,0.0,0,0,0,1,0,0,0,0,0,0,0,0,0,0,0,0,0,,0
Ram caafe,Restaurant,Restaurant,"MCFX+7MW, Bhaktapur, Nepal",Bhaktapur,27.6732467,85.4492083,0.0,0,0,0,0,0,0,0.0,0,1,0,0,0,0,0,0,0,0,0,1,0,0,0,0,0,,0
Shreya Newari Khaja Ghar,Family restaurant,Family restaurant,"Bhaktapur 44800, Nepal",Bhaktapur,27.674057,85.4421886,3.0,1,0,0,1,0,0,0.0,0,1,1,1,0,0,0,0,0,0,0,0,0,0,0,0,0,,0
Pond Station Hotel,Restaurant,Restaurant,"Kamalbinayak, Bhaktapur 44800, Nepal",Bhaktapur,27.6752537,85.4481499,0.0,0,0,0,0,0,0,0.0,0,0,0,0,0,0,0,0,0,0,0,0,0,0,0,0,0,,0
Food Point Restro,Restaurant,Restaurant,"CHYAMASINGH, NALA ROAD, Bhaktapur 44800, Nepal",Bhaktapur,27.6749704,85.4451027,0.0,0,0,0,0,0,0,90.0,0,0,1,1,0,0,0,0,0,0,0,0,0,0,0,0,0,,0
Bhakta,Fast food restaurant,Fast food restaurant,"MCFW+WC3, Bhaktapur 44800, Nepal",Bhaktapur,27.6747541,85.4460334,0.0,0,0,0,0,0,0,0.0,0,1,1,0,0,0,0,0,0,0,0,1,0,0,0,0,0,,0
Sandesh Computer,Internet cafe,Internet cafe,"MCGV+W6G, Bhaktapur 44800, Nepal",Bhaktapur,27.6773638,85.443104,0.0,0,0,0,0,0,0,0.0,0,0,0,0,0,0,0,0,0,0,0,0,0,0,0,0,0,,0
Sunil khaja ghar,Restaurant,Restaurant,"MC8G+5C3, Suryabinayak 44800, Nepal",Suryabinayak,27.6752491,85.4434855,0.0,0,0,0,0,0,0,0.0,0,1,0,0,0,0,0,0,0,0,0,1,0,0,0,0,0,,0
Lets Celebrate Family Resturant,Restaurant,Restaurant,"Bhaktapur 44800, Nepal",Bhaktapur,27.67378,85.4421313,0.0,0,0,0,0,0,0,0.0,0,1,1,1,0,1,0,0,0,0,0,1,0,0,0,0,0,,0
Pratik's Cafe,Cafe,Cafe,"MFQ3+332, Nagarkot Road, Changunarayan, Nepal",Changunarayan,27.687648,85.4526503,3.2,14,0,2,7,4,1,84.0,0,1,1,0,1,1,0,0,1,1,1,1,0,0,0,0,0,,1
Himal shrestha,Bar,Bar,"MCGW+6X3, Kamalbinayak, Bhaktapur 44800, Nepal",Bhaktapur,27.6755069,85.4474094,0.0,0,0,0,0,0,0,0.0,0,1,0,0,0,0,0,0,0,1,1,1,0,0,0,0,0,,0
Chhusyaki Traders,Bar,Bar,"MCGR+V8Q, Bhaktapur 44800, Nepal",Bhaktapur,27.6772092,85.4408656,3.6,21,0,1,8,10,2,74.67,0,0,0,0,0,0,0,0,0,1,1,1,0,0,0,0,1,,1
Bansbari Kitchen,Barbecue restaurant,Barbecue restaurant,"MFP5+JJF, Mahamanjushree Nagarkot, Nepal",Mahamanjushree Nagarkot,27.6865656,85.4590553,0.0,0,0,0,0,0,0,0.0,0,0,0,0,0,0,0,0,0,0,0,0,0,0,0,0,0,,0
Maligaun high Cafe,Coffee shop,Coffee shop,"JCQR+XMC, Suryabinayak, Nepal",Suryabinayak,27.6399236,85.4416878,4.5,2,0,0,0,1,1,0.0,0,1,1,0,0,1,0,0,1,0,0,1,0,0,0,0,0,,1
Camper 01,Restaurant,Restaurant,"Mahamanjushree Nagarkot, Nepal",Mahamanjushree Nagarkot,27.6862685,85.4514109,3.6,8,0,0,3,4,1,0.0,0,1,1,0,0,1,1,0,1,1,1,1,0,0,1,0,0,,1
Chusky's,Restaurant,Restaurant,"JCRP+X5G, Suryabinayak, Nepal",Suryabinayak,27.6423538,85.4354595,5.0,4,0,0,0,1,3,0.0,0,0,0,0,0,0,0,0,0,0,0,0,0,0,0,0,0,,1
Purushottam khaja ghar,Restaurant,Restaurant,"MCVX+6X2 challing gudi ratopati, Changunarayan 5, Nepal",Changunarayan,27.6930004,85.4498839,0.0,0,0,0,0,0,0,0.0,0,1,0,0,0,0,0,0,0,0,0,1,0,0,0,0,0,,0
Balram khaja ghar,Fast food restaurant,Fast food restaurant,"JCRP+2WJ, Doleshor Path, Suryabinayak, Nepal",Suryabinayak,27.6400904,85.4372728,5.0,2,0,0,0,1,1,0.0,0,1,0,0,0,0,0,0,0,0,0,1,0,0,0,0,0,,1
Doleshwor kirana and khaja pasal,Restaurant,Restaurant,"JCQQ+P3R, Doleshwor Mahadev Rd, Suryabinayak, Nepal",Suryabinayak,27.6393565,85.4376453,0.0,0,0,0,0,0,0,0.0,0,0,0,0,0,0,0,0,0,0,0,0,0,0,0,0,0,,0
Doleshwor Village Resort,Restaurant,Restaurant,"Doleshwor Mahadev Rd, Suryabinayak, Nepal",Suryabinayak,27.6430437,85.4356005,4.0,153,0,2,34,83,34,0.0,1,0,0,0,0,0,0,0,0,0,0,0,0,0,0,0,0,,1
Dulal tea shop,Cafe,Cafe,"Bhaktapur Nala Rd, Mahamanjushree Nagarkot, Nepal",Mahamanjushree Nagarkot,27.6705657,85.4623427,3.7,11,1,0,5,0,5,70.0,0,0,1,0,1,0,0,0,1,0,0,1,0,0,0,0,0,,0
Friendship restro,Restaurant,Restaurant,"suryabinayek, Kathmandu 44600, Nepal",Kathmandu,27.6603735,85.4485444,4.0,4,0,0,1,2,1,94.5,0,1,1,1,1,1,1,0,1,0,0,1,1,0,1,0,0,,1
Maya khaja ghar,Family restaurant,Family restaurant,"3 Araniko Highway, Suryabinayak 44811, Nepal",Suryabinayak,27.6608589,85.4466364,5.0,1,0,0,0,0,1,0.0,0,1,1,0,0,1,1,0,0,0,0,1,0,0,0,0,0,,1
Pikhel Snooker and Pool House,Cafe,Cafe,"MCWX+WP4, Chhaling Road, Changunarayan, Nepal",Changunarayan,27.6972587,85.4493306,0.0,0,0,0,0,0,0,0.0,0,1,0,0,0,0,0,0,1,1,1,1,0,0,0,0,0,,0
Daju Vai Khaja Ghar,Restaurant,Restaurant,"MFR6+X22, Bhaktapur, Nepal",Bhaktapur,27.6923888,85.4600068,0.0,0,0,0,0,0,0,0.0,0,0,0,0,0,0,0,0,0,0,0,0,0,0,0,0,0,,0
Peaceful Baansghari Resort,Restaurant,Restaurant,"MF62+6G5, Suryabinayak, Nepal",Suryabinayak,27.6605064,85.4513596,3.2,22,0,3,11,7,1,91.0,0,1,1,0,0,1,0,0,1,1,1,1,0,0,1,0,0,,1
Dhanush Restaurant,Restaurant,Restaurant,"MF53+93V, Kathmandu, Nepal",Kathmandu,27.6584933,85.4526872,4.3,3,0,0,0,2,1,0.0,0,1,1,0,1,1,0,0,1,0,0,1,0,0,1,0,0,,1
Araniko Village Resort,Cottage rental,Cottage rental,"Araniko Highway Basghari, Bhaktapur 44806, Nepal",Bhaktapur,27.6574907,85.4540373,3.7,117,10,9,28,24,46,0.0,1,0,0,0,0,0,0,0,0,0,0,0,0,0,0,0,0,,0
Majic Mushroom Cafe,Restaurant,Restaurant,"JCQF+GG, Anantalingeshwar, Nepal",Anantalingeshwar,27.6388035,85.4239018,0.0,0,0,0,0,0,0,0.0,0,1,1,0,0,1,1,0,1,0,0,1,0,0,0,0,0,,0
Seed & Spoon,Restaurant,Restaurant,"Ratopati Kamalbinayak-Jitpur, Chagunarayan 08, Nagarkot Road, Bhaktapur 44800, Nepal",Bhaktapur,27.6818442,85.4583658,3.8,16,0,1,5,8,2,101.5,0,1,1,1,0,1,0,0,1,1,1,1,0,0,1,0,0,,1
NEA Training Centre Canteen,Cafe,Cafe,"MFP4+P7F, Mahamanjushree Nagarkot, Nepal",Mahamanjushree Nagarkot,27.6868218,85.4556838,3.9,60,3,3,15,18,21,84.0,0,1,0,0,1,1,0,0,1,0,0,0,0,0,0,1,0,,0
Balaram Store,Restaurant,Restaurant,"MFQ4+GX6 Bansbari Bus Stop, Changunarayan, Nepal",Changunarayan,27.6887846,85.4573773,4.0,3,0,0,1,1,1,91.0,0,1,1,0,0,0,0,0,0,0,0,1,0,0,0,0,0,,0
S &S Fast Food,Restaurant,Restaurant,"MF98+FM8, Mahamanjushree Nagarkot, Nepal",Mahamanjushree Nagarkot,27.6686628,85.4666982,0.0,0,0,0,0,0,0,0.0,0,0,0,0,0,0,0,0,0,0,0,0,0,0,0,0,0,,0
RFC,Coffee shop,Coffee shop,"MFJ4+P2R, Saraswati Sthan Rd, Mahamanjushree Nagarkot, Nepal",Mahamanjushree Nagarkot,27.6818551,85.4550173,0.0,0,0,0,0,0,0,0.0,0,1,1,0,0,1,0,0,1,0,0,1,0,0,0,0,0,,0
Manju chiya pasal,Coffee shop,Coffee shop,"MFJ3+P7X, Bhaktapur, Nepal",Bhaktapur,27.6818554,85.4532209,0.0,0,0,0,0,0,0,0.0,0,0,0,0,0,0,0,0,1,0,0,1,0,0,0,0,0,,0
Hotel Simpani khabab khaja Ghar,Restaurant,Restaurant,"MC2Q+FPJ, Suryabinayak, Nepal",Suryabinayak,27.6513561,85.439276,4.3,3,0,0,0,2,1,0.0,0,1,1,0,1,1,1,0,0,1,1,1,0,0,0,0,0,,1
Grocery shop,Cafe,Cafe,"Suryabinayak, Nepal",Suryabinayak,27.6483017,85.4489812,4.0,5,0,0,1,3,1,84.0,0,1,1,0,0,0,0,0,1,0,0,1,0,0,0,1,0,,1
Pratikshya kirana pasal,Coffee store,Coffee store,"Bhaktapur 44800, Nepal",Bhaktapur,27.666451,85.4466941,0.0,0,0,0,0,0,0,15.0,0,0,0,0,0,0,0,0,0,0,0,0,0,0,0,0,0,,0
Purna Dai ko chya pasal,Cafe,Cafe,"Kamalvinayak - Dekocha Path, Bhaktapur 44800, Nepal",Bhaktapur,27.6772499,85.4391732,3.8,37,3,2,10,5,17,106.5,0,0,1,0,0,0,0,0,1,0,0,1,0,0,0,1,0,,0
Chicken Station Kamalbinayak,Restaurant,Restaurant,"Bhatkyapati, Kamalbinayak, Bhaktapur 44800, Nepal",Bhaktapur,27.6783067,85.4407137,3.0,2,0,1,1,0,0,112.0,0,1,1,1,0,0,0,0,0,0,0,0,0,0,0,0,0,,1
Ghyampe view Point Restaurant,Fast food restaurant,Fast food restaurant,"JCJH+PQ5, Ghyampe Danda Path, Anantalingeshwar, Nepal",Anantalingeshwar,27.6317596,85.4293694,5.0,1,0,0,0,0,1,100.5,0,1,1,0,0,1,1,0,1,0,0,1,0,0,0,0,0,,1
Food Zone Duwakot,Fast food restaurant,Fast food restaurant,"KMC Chowk, Bhaktapur 44800, Nepal",Bhaktapur,27.6841318,85.4113261,4.9,41,0,0,1,13,27,109.5,1,1,1,1,1,1,0,1,1,1,1,1,1,0,1,0,0,,1
"KFC, Thimi",Fast food restaurant,Fast food restaurant,"Madhyapur Thimi, Nepal",Madhyapur Thimi,27.6748653,85.3973167,4.0,583,0,8,129,317,129,80.5,0,1,1,0,0,1,1,1,0,0,0,1,1,0,0,0,1,,1
S Kitchen Fast Food,Fast food restaurant,Fast food restaurant,"M9MQ+626, Bhaktapur Road, Madhyapur Thimi 44600, Nepal",Madhyapur Thimi,27.683029,85.3875118,3.7,11,0,0,4,6,1,0.0,0,1,1,0,0,1,0,0,0,0,0,1,0,0,0,1,0,,1
Aaylaa Garden Resturant,Restaurant,Restaurant,"Madhyapur Thimi 44600, Nepal",Madhyapur Thimi,27.6768247,85.3752789,5.0,31,0,0,0,9,22,98.0,1,1,1,1,1,1,1,0,1,1,1,1,1,0,1,0,0,,1
Cafe Boh,Restaurant,Restaurant,"Radhe Radhe, Bhaktapur 44800, Nepal",Bhaktapur,27.6783498,85.3984108,4.6,227,0,0,14,97,116,101.5,1,1,1,1,1,1,1,1,1,1,1,1,1,1,1,0,1,,1
Dream Beans Cafe,Restaurant,Restaurant,"Radhe Radhe Rd, Bhaktapur, Nepal",Bhaktapur,27.6774415,85.398256,4.9,41,0,0,1,13,27,84.0,0,1,1,0,0,1,1,0,1,0,0,1,0,0,1,0,0,,1
Baleshi Food Hub,Restaurant,Restaurant,"M9GX+X4, 3 Sangameshwor Marg, Madhyapur Thimi, Nepal",Madhyapur Thimi,27.6774375,85.3978125,5.0,6,0,0,0,2,4,112.0,0,1,1,1,1,1,1,0,1,1,1,1,0,0,1,0,0,,1
Pride food cafe,Restaurant,Restaurant,"M9FP+56W, Araniko Highway, Madhyapur Thimi 44800, Nepal",Madhyapur Thimi,27.672983,85.3855632,5.0,1,0,0,0,0,1,91.0,0,1,1,0,1,1,1,0,1,0,0,1,0,0,0,0,0,,1
Sawaa Garden Cafe,Restaurant,Restaurant,"Madhyapur Thimi, Kamerotar, Nepal",Madhyapur Thimi,27.6766824,85.3933197,4.2,139,0,1,21,74,43,0.0,1,1,1,1,0,1,1,0,1,1,1,1,1,0,1,0,0,,1
United Food Cafe,Restaurant,Restaurant,"M9MP+CX2, Madhyapur Thimi 44811, Nepal",Madhyapur Thimi,27.6835224,85.3873954,4.2,38,0,0,6,20,12,84.0,0,1,1,1,1,1,1,0,1,1,1,1,0,0,1,0,1,,1
watanabe cafe,Restaurant,Restaurant,"JCRF+333, pilotbaba, Nepal",pilotbaba,27.6401489,85.4226591,0.0,0,0,0,0,0,0,168.0,0,1,1,0,1,1,1,0,1,0,0,1,0,0,1,0,0,,0
New Tapari Mo:Mo,Fast food restaurant,Fast food restaurant,"Bhaktapur, Nepal",Bhaktapur,27.6648321,85.390258,5.0,3,0,0,0,1,2,87.5,0,1,1,1,0,0,0,0,0,0,0,1,0,0,0,0,0,,1
Vintage Tea House,Cafe,Cafe,"Gaarchaa Tole Bus Stop, Madhyapur Thimi 44600, Nepal",Madhyapur Thimi,27.6815247,85.386297,4.6,14,0,0,1,6,7,98.0,0,1,1,0,1,0,0,0,1,0,0,1,0,0,0,0,0,,1
HAPPINESS COFFE & CHIYA GHAR,Tea house,Tea house,"MC7G+6F6, Suryabinayak 44800, Nepal",Suryabinayak,27.6630397,85.426098,5.0,1,0,0,0,0,1,0.0,0,0,0,0,0,0,0,0,0,0,0,0,0,0,0,0,0,,1
Ilam Organic green tea (IOCP TEA),Tea store,Tea store,"Suryabynaik bhaktapur, Kathmandu 44800, Nepal",Kathmandu,27.6592943,85.4275082,4.1,10,0,0,2,5,3,56.0,1,0,1,1,0,0,0,0,0,0,0,0,0,0,0,1,0,,1
Thulogau,Tea store,Tea store,"JCPQ+J38, Doleshwor-Aashapur Rd, Suryabinayak, Nepal",Suryabinayak,27.6365263,85.4377007,3.7,7,0,0,2,4,1,0.0,0,0,0,0,0,0,0,0,0,0,0,0,0,0,0,0,0,,1
Chiya Vibes,Tea store,Tea store,"M99J+PMP, Hanumante Rd, Madhyapur Thimi, Nepal",Madhyapur Thimi,27.6693444,85.3817081,4.4,14,0,0,1,7,6,105.0,0,0,0,0,0,0,0,0,0,0,0,0,0,0,0,0,0,,1
Ramchandra Chiya Pasal,Tea store,Tea store,"M9CJ+3WC, Unnamed Road, Anantalingeshwar, Nepal",Anantalingeshwar,27.6701851,85.3822674,4.6,11,0,0,1,5,5,98.0,0,0,0,0,0,0,0,0,0,0,0,0,0,0,0,0,0,,1
White House Tea shop,Coffee shop,Coffee shop,"JCM8+5CG, Anantalingeshwar, Nepal",Anantalingeshwar,27.6329443,85.4160753,0.0,0,0,0,0,0,0,0.0,0,0,0,0,0,0,0,0,1,0,0,0,0,0,0,0,0,,0
Orenda Square,Tea store,Tea store,"M9JP+29P, Madhyapur Thimi 44600, Nepal",Madhyapur Thimi,27.6800967,85.3859665,5.0,1,0,0,0,0,1,105.0,0,0,0,0,0,0,0,0,0,0,0,0,0,0,0,0,0,,1
Hot duck Brothers point,Tea store,Tea store,"MCM6+R9X, Rudraksha Rd, Changunarayan, Nepal",Changunarayan,27.6846042,85.4109941,5.0,2,0,0,0,1,1,0.0,0,0,1,0,0,0,0,0,0,0,0,0,0,0,0,0,0,,1
Doleshwor Bakery,Bakery,Bakery,"MC4Q+2WQ, Suryabinayak, Nepal",Suryabinayak,27.6550939,85.4398645,4.8,11,0,0,0,4,7,103.95,0,0,1,0,0,0,0,0,0,0,0,0,0,0,0,0,0,,1
Happy Cakes & Bakery,Bakery,Bakery,"Bhaktapur 44800, Nepal",Bhaktapur,27.6762376,85.4323111,4.8,187,0,0,6,67,114,91.0,0,0,1,1,0,0,0,0,0,0,0,0,0,0,0,0,0,,1
Modern Bakery,Bakery,Bakery,"JCQP+3VF, Suryebinayak - Doleswor Rd, Suryabinayak, Nepal",Suryabinayak,27.6376873,85.4371853,4.3,4,0,0,1,2,1,168.0,0,0,1,0,0,0,0,0,0,0,0,0,0,0,0,0,0,,1
Mui Bakery,Bakery,Bakery,"M9HX+7CW, Radhe Radhe Rd, Madhyapur Thimi, Nepal",Madhyapur Thimi,27.6782316,85.3985692,4.7,26,0,0,1,10,15,108.5,0,0,0,0,0,0,0,0,0,0,0,0,0,0,0,0,0,,1
Cream Cakes and Bakery,Bakery,Bakery,"F099, Suryabinayak 44800, Nepal",Suryabinayak,27.6587274,85.4236834,4.7,7,0,0,0,3,4,90.0,0,0,1,1,0,0,0,0,0,0,0,0,0,0,0,0,0,,1
Rai's bakery Darjeeling height,Bakery,Bakery,"MC5H+J9C, Suryabinayak 44800, Nepal",Suryabinayak,27.6590544,85.4283888,5.0,2,0,0,0,1,1,0.0,0,0,1,0,0,0,0,0,0,0,0,0,0,0,0,0,0,,1
Thimi Live Bakery & Reading Hub,Bakery,Bakery,"Dakshin Barahi, Madhyapur Thimi 44811, Nepal",Madhyapur Thimi,27.6699223,85.3858031,4.6,20,0,0,1,9,10,105.0,0,0,0,0,0,0,0,0,0,0,0,0,0,0,0,0,0,,1
THE BEST BAKERY,Bakery,Bakery,"Bhaktapur, Nepal",Bhaktapur,27.6659074,85.3887767,4.3,24,0,0,3,12,9,105.0,0,0,1,0,0,0,0,0,1,0,0,0,0,0,0,0,0,,1
Cookie Jar Bakery And Cafe,Bakery,Bakery,"Dakshin Bahari Mandir, Madhyapur Thimi, Nepal",Madhyapur Thimi,27.6679632,85.38619,5.0,7,0,0,0,2,5,98.0,0,0,0,0,0,0,0,0,0,0,0,0,0,0,0,0,0,,1
Chiya hood,Coffee shop,Coffee shop,"Barudkhana chwok, Bhaktapur, Nepal",Bhaktapur,27.6827936,85.4112598,5.0,4,0,0,0,1,3,91.0,1,0,0,0,0,0,0,0,1,1,0,0,1,0,0,0,0,,1
Kings Cafe,Coffee shop,Coffee shop,"Kings Cafe, Madhyapur Thimi 44600, Nepal",Madhyapur Thimi,27.6745825,85.3677414,4.2,28,0,0,4,15,9,0.0,0,1,1,0,1,0,0,0,1,1,0,1,0,0,1,0,0,,1
Kaliyuga Cafe,Cafe,Cafe,"F091, Bhaktapur 44800, Nepal",Bhaktapur,27.6746014,85.3670638,4.4,91,0,0,9,45,37,87.0,0,1,1,1,1,1,0,1,1,1,1,1,0,0,0,0,0,,1
Shrestha Cold Store,Bar,Bar,"Thimi-Biruwa Rd, Anantalingeshwar, Nepal",Anantalingeshwar,27.6665662,85.3886581,4.1,36,0,0,7,20,9,84.0,0,0,1,1,0,0,0,0,0,1,1,0,0,0,0,1,0,,1
The Red Triangle Snooker & Bar,Sports bar,Sports bar,"M9FF+9Q3, Bhaktapur 44600, Bhaktapur 44800, Nepal",Bhaktapur,27.6734257,85.3744307,5.0,3,0,0,0,1,2,0.0,0,1,0,0,0,0,0,0,0,1,1,1,0,0,0,0,0,,1
Jigri Sekuwa - Kaushaltar,Pub,Pub,"Bhaktapur 44600, Nepal",Bhaktapur,27.6748348,85.3664118,4.7,377,0,0,17,148,212,0.0,0,1,1,1,0,0,0,0,0,1,1,0,0,0,0,0,0,,1
Haadi Bistro and Cafe : Radhe Radhe,Biryani restaurant,Biryani restaurant,"Radhe Radhe Rd, Madhyapur Thimi, Nepal",Madhyapur Thimi,27.6759107,85.3977913,4.7,449,0,1,20,176,252,84.0,0,1,1,1,0,0,0,0,0,0,0,0,0,0,0,0,0,,1
The Guras Restaurant,Restaurant,Restaurant,"MC29+J9V, Anantalingeshwar, Nepal",Anantalingeshwar,27.6512599,85.4184038,5.0,2,0,0,0,1,1,0.0,0,1,0,0,0,1,0,0,0,0,0,1,0,0,0,0,0,,1
It's Bee's Knees Tavern & Lounge,Restaurant,Restaurant,"Radhe Radhe, Bhaktapur, Nepal",Bhaktapur,27.6765083,85.3942093,4.9,30,0,0,1,9,20,0.0,0,1,1,1,0,1,1,0,1,1,1,1,0,0,1,0,0,,1
90's Cafe,Coffee shop,Coffee shop,"M9FQ+MXM, Bhaktapur, Nepal",Bhaktapur,27.6742191,85.3899348,4.8,25,0,0,1,9,15,84.0,0,0,0,0,0,0,0,0,1,0,0,0,0,0,0,0,0,,1
Mount RED BEANS COFFEE and roastery,Coffee shop,Coffee shop,"JFRG+RRQ, Radhe Radhe Rd, Bhaktpure, Nepal",Bhaktpure,27.6759681,85.3981204,5.0,9,0,0,0,3,6,91.0,0,1,1,1,0,0,0,0,1,0,0,1,0,0,0,0,0,,1
Belis Bakery,Coffee shop,Coffee shop,"Hospital, Thimi-Biruwa Rd, Madhyapur Thimi 44800, Nepal",Madhyapur Thimi,27.6720391,85.3878463,4.7,3,0,0,0,1,2,101.5,0,1,1,1,0,0,0,0,1,0,0,1,0,0,0,0,0,,1
Coffee shop,Cafe,Cafe,"M9JX+382, Bhaktapur Road, Madhyapur Thimi 44811, Nepal",Madhyapur Thimi,27.6801375,85.3982656,5.0,1,0,0,0,0,1,87.5,0,1,1,0,0,0,0,0,1,0,0,1,0,0,0,0,0,,1
Urmi Coffee Shop,Coffee store,Coffee store,"M9GX+X94, Radhe radhe Road, Madhyapur Thimi, Nepal",Madhyapur Thimi,27.6773786,85.3984431,4.5,77,0,0,6,36,35,0.0,0,1,1,0,0,0,0,0,0,0,0,0,0,0,0,0,0,,1
View Vibe & Chai,Coffee shop,Coffee shop,"MC28+MQ, Anantalingeshwar, Nepal",Anantalingeshwar,27.6516475,85.4169172,5.0,1,0,0,0,0,1,0.0,0,1,0,0,0,0,0,0,1,0,0,1,0,1,0,0,0,,1
ranjit बोन्साई अर्कीड घर,Coffee shop,Coffee shop,"JFV6+327, Suryabinayak, Nepal",Suryabinayak,27.6426616,85.460042,4.5,2,0,0,0,1,1,0.0,0,1,1,0,0,0,0,0,1,0,0,1,0,0,0,0,0,,1
Samdan sekuwa corner,Coffee shop,Coffee shop,"MC4H+G59, Suryabinayak, Nepal",Suryabinayak,27.656019,85.4284413,5.0,2,0,0,0,1,1,0.0,0,1,0,0,0,0,0,0,1,1,1,1,0,0,0,0,0,,1
Goma Sweet House,Vegetarian restaurant,Vegetarian restaurant,"M9WF+VRW, Kathmandu 44600, Nepal",Kathmandu,27.697245,85.3745832,4.9,10,0,0,0,3,7,98.0,0,1,1,0,1,1,1,1,0,0,0,1,0,0,0,0,0,,1
dUmpling MoMO,Momo restaurant,Momo restaurant,"Suryabinayak, Nepal",Suryabinayak,27.6393808,85.4161377,4.6,12,0,0,1,5,6,105.0,0,1,1,1,0,0,0,0,0,0,0,1,0,0,0,0,0,,1
5I Restaurant,Family restaurant,Family restaurant,"MCM6+Q9F, Rudraksha Rd, Changunarayan, Nepal",Changunarayan,27.6844567,85.4109168,4.8,13,0,0,0,5,8,72.0,0,1,1,1,0,1,0,0,0,1,1,1,0,0,0,0,0,,1
Darjeeling Fast Food,Cafe,Cafe,"Bhaktapur, Suryabinayak 44800, Nepal",Suryabinayak,27.6604966,85.4279471,2.0,1,0,1,0,0,0,80.0,0,1,1,0,1,1,1,0,1,0,0,1,0,0,0,0,0,,1
Cafe Sayto Kalo,Coffee shop,Coffee shop,"M9MP+6G5, Bahakha Bazar Bus Stop, Bhaktapur Road, Madhyapur Thimi 44600, Nepal",Madhyapur Thimi,27.6830101,85.3863668,4.8,13,0,0,0,5,8,101.5,0,1,1,0,0,0,0,0,1,1,1,1,0,0,0,0,0,,1
Tropical Bagaicha Marga,Coffee shop,Coffee shop,"Manohara River, Kageshwori Manohara 44600, Nepal",Kageshwori Manohara,27.6934632,85.3776179,5.0,2,0,0,0,1,1,0.0,0,1,1,0,0,0,0,0,1,0,0,1,0,0,0,0,0,,1
Aroj Home,Coffee shop,Coffee shop,"M9VG+WQ9, Kathmandu 44600, Nepal",Kathmandu,27.6943257,85.3773779,5.0,1,0,0,0,0,1,0.0,0,0,0,0,0,0,0,0,1,0,0,0,0,0,0,0,0,,1
Cafe United,Coffee shop,Coffee shop,"M9JQ+MCC, Thimi, Madhyapur Thimi 44600, Nepal",Madhyapur Thimi,27.6816941,85.3885169,5.0,4,0,0,0,1,3,84.0,0,1,0,0,0,0,0,0,1,0,0,1,0,0,0,0,0,,1
1-shika café and Chat house,Coffee shop,Coffee shop,"1-shika cafe and Chat house, Bhaktapur 44600, Nepal",Bhaktapur,27.6813874,85.376168,5.0,1,0,0,0,0,1,0.0,0,1,1,0,0,0,0,0,1,0,0,1,0,0,0,0,0,,1
Cafe Silichung,Coffee shop,Coffee shop,"M9MQ+GV8, Madhyapur Thimi 44600, Nepal",Madhyapur Thimi,27.6837496,85.3897351,5.0,3,0,0,0,1,2,99.75,0,1,0,0,0,0,0,0,1,0,0,1,0,0,0,0,0,,1
Coffee Corner,Coffee shop,Coffee shop,"Bhaktapur Road, Madhyapur Thimi 44800, Nepal",Madhyapur Thimi,27.6826986,85.3871536,4.0,106,0,2,23,58,23,105.0,0,1,0,0,1,0,0,0,1,0,0,1,0,0,1,1,0,,1
Tea Time,Coffee shop,Coffee shop,"Bhaktapur Road, Madhyapur Thimi 44600, Nepal",Madhyapur Thimi,27.6820448,85.3795178,3.5,4,0,0,2,2,0,101.5,0,1,1,0,0,0,0,0,1,0,0,1,0,0,0,0,0,,1
Nescafe coffee center,Coffee shop,Coffee shop,"M9HG+889, Gatthaghar Rd, Madhyapur Thimi 44600, Nepal",Madhyapur Thimi,27.6782989,85.375865,4.3,6,0,0,1,3,2,91.0,0,0,1,0,0,0,0,0,1,0,0,1,0,0,0,0,0,,1
Chiya Pasal,Coffee shop,Coffee shop,"8 Bode Mahalaxmi Marg, Madhyapur Thimi 44600, Nepal",Madhyapur Thimi,27.6889911,85.3895483,4.6,23,0,0,1,10,12,101.5,0,0,1,1,0,0,0,0,1,0,0,1,0,0,0,0,0,,1
Chiya party,Coffee shop,Coffee shop,"M9WF+QQF, Kageshwori Manohara 44600, Nepal",Kageshwori Manohara,27.6974294,85.3747136,5.0,24,0,0,0,7,17,0.0,0,0,0,0,0,0,0,0,1,0,0,0,0,0,0,0,0,,1
Karma chiya,Coffee shop,Coffee shop,"M9QP+W9H, Bhaktapur 44600, Nepal",Bhaktapur,27.689825,85.385997,0.0,0,0,0,0,0,0,0.0,0,0,0,0,0,0,0,0,1,0,0,0,0,0,0,0,0,,0
"Riplik Store, Bahanani",Cafe,Cafe,"M9MM+RCV, Nagadesh, Madhyapur Thimi, Nepal",Madhyapur Thimi,27.6846183,85.3835456,3.8,4,0,1,1,0,2,0.0,0,1,0,0,0,0,0,0,1,1,1,1,0,0,0,0,0,,0
Poudel dunote pasal,Bakery,Bakery,"M9QH+GPW, Dhunche Rd, Madhyapur Thimi 44600, Nepal",Madhyapur Thimi,27.688868,85.379376,5.0,1,0,0,0,0,1,0.0,0,0,1,0,0,0,0,0,0,0,0,0,0,0,0,0,0,,0
Sushila Kirana and Cafe,Cafe,Cafe,"M9MM+XHP, Madhyapur Thimi 44600, Nepal",Madhyapur Thimi,27.6849654,85.3839594,3.3,7,0,1,4,1,1,0.0,0,1,1,0,1,1,0,0,1,0,0,1,0,0,0,0,0,,0
Sweet House,Vegetarian restaurant,Vegetarian restaurant,"M9PQ+23Q, Mills road, Madhyapur Thimi 44600, Nepal",Madhyapur Thimi,27.6850951,85.3877417,5.0,3,0,0,0,1,2,107.33,0,1,1,0,0,0,0,1,0,0,0,1,0,0,0,0,0,,1
Aakash sweets and chat house,Vegetarian restaurant,Vegetarian restaurant,"M9C7+PV9, Anantalingeshwar 44600, Nepal",Anantalingeshwar,27.67178,85.3647074,5.0,3,0,0,0,1,2,80.5,0,1,1,0,0,1,0,1,0,0,0,1,0,0,0,0,0,,1
Sadabahar Chowmein House,Restaurant,Restaurant,"M9PH+C5P, Dhunche Rd, Madhyapur Thimi 44600, Nepal",Madhyapur Thimi,27.6860982,85.3779677,3.6,41,2,5,14,7,13,87.5,0,1,1,0,1,1,0,0,1,0,0,1,0,0,1,1,1,,0
Madhyapur Fast Food,Fast food restaurant,Fast food restaurant,"M9MP+486, चार दोबाटो, Madhyapur Thimi 44800, Nepal",Madhyapur Thimi,27.68278,85.385764,4.4,9,0,0,1,4,4,70.0,0,1,1,0,0,0,0,0,0,0,0,1,0,0,0,1,0,,1
"Madhyapur Thimi Burger House and Crunchy Fried Chicken,",Restaurant,Restaurant,"M9MQ+62R, Madhyapur Thimi 44600, Nepal",Madhyapur Thimi,27.6828082,85.3859495,3.8,116,0,4,35,60,17,86.0,0,1,1,1,0,1,1,0,1,1,1,1,0,0,1,0,1,,1
The Burger King & Crunchy Fried Chicken,Fast food restaurant,Fast food restaurant,"Dhunche Rd, bhaktapur 44600, Nepal",bhaktapur,27.6893789,85.3895401,3.7,86,0,3,30,43,10,91.0,0,1,1,1,1,1,1,0,1,1,1,1,0,0,0,0,0,,1
Ugratara fastfood,Fast food restaurant,Fast food restaurant,"M9JG+3G9, Gaththaghar Marg, Madhyapur Thimi 44600, Nepal",Madhyapur Thimi,27.680151,85.3763537,3.7,9,0,0,3,5,1,91.0,0,1,1,0,0,1,0,0,1,1,1,1,0,0,0,0,0,,1
