[
  {
    "title": "थालाछें बचत तथा ऋण सहकारी संस्था लिमिटेड",
    "price": null,
    "categoryName": "Cooperative bank",
    "address": "MCFM+P46, थालाछें टोल सडक, Bhaktapur 44800, Nepal",
    "neighborhood": null,
    "street": "MCFM+P46, थालाछें टोल सडक",
    "city": "Bhaktapur",
    "postalCode": "44800",
    "state": null,
    "countryCode": "NP",
    "phone": "+977 1-6616580",
    "phoneUnformatted": "+97716616580",
    "claimThisBusiness": true,
    "location": {
      "lat": 27.6742856,
      "lng": 85.4327744
    },
    "totalScore": 4,
    "permanentlyClosed": false,
    "temporarilyClosed": false,
    "placeId": "ChIJbY6kIrIa6zkR9XcO88LSGjg",
    "categories": [
      "Cooperative bank",
      "Cooperative"
    ],
    "fid": "0x39eb1ab222a48e6d:0x381ad2c2f30e77f5",
    "cid": "4042775350261741557",
    "reviewsCount": 1,
    "reviewsDistribution": {
      "oneStar": 0,
      "twoStar": 0,
      "threeStar": 0,
      "fourStar": 1,
      "fiveStar": 0
    },
    "imagesCount": 7,
    "imageCategories": [],
    "scrapedAt": "2025-11-14T08:13:50.661Z",
    "googleFoodUrl": null,
    "hotelAds": [],
    "openingHours": [
      {
        "day": "Monday",
        "hours": "7 AM to 3 PM"
      },
      {
        "day": "Tuesday",
        "hours": "7 AM to 3 PM"
      },
      {
        "day": "Wednesday",
        "hours": "7 AM to 3 PM"
      },
      {
        "day": "Thursday",
        "hours": "7 AM to 3 PM"
      },
      {
        "day": "Friday",
        "hours": "7 AM to 1 PM"
      },
      {
        "day": "Saturday",
        "hours": "Closed"
      },
      {
        "day": "Sunday",
        "hours": "7 AM to 3 PM"
      }
    ],
    "peopleAlsoSearch": [],
    "placesTags": [],
    "reviewsTags": [],
    "gasPrices": [],
    "url": "https://www.google.com/maps/search/?api=1&query=%E0%A4%A5%E0%A4%BE%E0%A4%B2%E0%A4%BE%E0%A4%9B%E0%A5%87%E0%A4%82%20%E0%A4%AC%E0%A4%9A%E0%A4%A4%20%E0%A4%A4%E0%A4%A5%E0%A4%BE%20%E0%A4%8B%E0%A4%A3%20%E0%A4%B8%E0%A4%B9%E0%A4%95%E0%A4%BE%E0%A4%B0%E0%A5%80%20%E0%A4%B8%E0%A4%82%E0%A4%B8%E0%A5%8D%E0%A4%A5%E0%A4%BE%20%E0%A4%B2%E0%A4%BF%E0%A4%AE%E0%A4%BF%E0%A4%9F%E0%A5%87%E0%A4%A1&query_place_id=ChIJbY6kIrIa6zkR9XcO88LSGjg",
    "searchPageUrl": "https://www.google.com/maps/search/bank/@27.67530454090198,85.43009086349416,17z?hl=en",
    "searchString": "bank",
    "language": "en",
    "rank": 45,
    "isAdvertisement": false,
    "imageUrl": "https://lh3.googleusercontent.com/gps-proxy/ALd4DhH2KgUhJySSmx0xhqWoicza1LuQtSLei2YEwxJPF__5AOhLM5aR8IR9bWUKlINfiwGx6jDaxEDFMjpoXZMwGwCpG-eIoTcGzD8Gj9TQ0f2EoAzBuEThhIAZ_gzbfQtsFBBnn6ajeZtf4mQmP9xqJyeEiPdjuhD6VoB3gHRQkfqd_JakIOlOdh6kKw4s1eyvKjNBD04=w408-h306-k-no",
    "kgmid": "/g/11b6q90kl5"
  },
  {
    "title": "Paripurna Multipurpose Co. Ltd",
    "price": null,
    "categoryName": "Cooperative bank",
    "address": "MCFG+GVW Radhe radhe, Bhaktapur 44800, Nepal",
    "neighborhood": null,
    "street": "MCFG+GVW Radhe radhe",
    "city": "Bhaktapur",
    "postalCode": "44800",
    "state": null,
    "countryCode": "NP",
    "website": "https://www.facebook.com/Paripurna-Multipurpose-Co-Ltd-106065431820786",
    "claimThisBusiness": true,
    "location": {
      "lat": 27.6738729,
      "lng": 85.4272013
    },
    "permanentlyClosed": false,
    "temporarilyClosed": false,
    "placeId": "ChIJsSgCYasb6zkR9Tsovii8m04",
    "categories": [
      "Cooperative bank"
    ],
    "fid": "0x39eb1bab610228b1:0x4e9bbc28be283bf5",
    "cid": "5664327839523552245",
    "reviewsCount": 0,
    "imagesCount": 2,
    "imageCategories": [],
    "scrapedAt": "2025-11-14T08:13:50.661Z",
    "googleFoodUrl": null,
    "hotelAds": [],
    "openingHours": [
      {
        "day": "Monday",
        "hours": "9 AM to 6 PM"
      },
      {
        "day": "Tuesday",
        "hours": "9 AM to 6 PM"
      },
      {
        "day": "Wednesday",
        "hours": "9 AM to 6 PM"
      },
      {
        "day": "Thursday",
        "hours": "6 AM to 6 PM"
      },
      {
        "day": "Friday",
        "hours": "9 AM to 6 PM"
      },
      {
        "day": "Saturday",
        "hours": "Closed"
      },
      {
        "day": "Sunday",
        "hours": "9 AM to 6 PM"
      }
    ],
    "peopleAlsoSearch": [],
    "placesTags": [],
    "reviewsTags": [],
    "gasPrices": [],
    "url": "https://www.google.com/maps/search/?api=1&query=Paripurna%20Multipurpose%20Co.%20Ltd&query_place_id=ChIJsSgCYasb6zkR9Tsovii8m04",
    "searchPageUrl": "https://www.google.com/maps/search/bank/@27.67530454090198,85.43009086349416,17z?hl=en",
    "searchString": "bank",
    "language": "en",
    "rank": 47,
    "isAdvertisement": false,
    "imageUrl": "https://lh3.googleusercontent.com/gps-cs-s/AG0ilSyYCqvBFJghsmTrNWuYy03G5l-4xjdZG87zi6RJzBM6vjnnOrdZmrbSPhu-F3C6GRH48m9sn-6GoxnY_KjQ_5SDxdtjnHQfK8rwUs6CorJENnlwYPnqqYJ68CAexrWj9622OHSw=w408-h544-k-no",
    "kgmid": "/g/11p11c84bf"
  },
  {
    "title": "Subhakamana Saving and Credit Cooperatives Ltd. Byasi Service Counter",
    "price": null,
    "categoryName": "Cooperative bank",
    "address": "MCGH+5V8, Nagarkot Rd, Bhaktapur 44800, Nepal",
    "neighborhood": null,
    "street": "MCGH+5V8, Nagarkot Rd",
    "city": "Bhaktapur",
    "postalCode": "44800",
    "state": null,
    "countryCode": "NP",
    "claimThisBusiness": true,
    "location": {
      "lat": 27.6754579,
      "lng": 85.4297438
    },
    "permanentlyClosed": false,
    "temporarilyClosed": false,
    "placeId": "ChIJA5BCOAQb6zkRXSU8CeVV3ho",
    "categories": [
      "Cooperative bank"
    ],
    "fid": "0x39eb1b0438429003:0x1ade55e5093c255d",
    "cid": "1936079332006700381",
    "reviewsCount": 0,
    "imagesCount": 1,
    "imageCategories": [],
    "scrapedAt": "2025-11-14T08:13:50.661Z",
    "googleFoodUrl": null,
    "hotelAds": [],
    "openingHours": [],
    "peopleAlsoSearch": [],
    "placesTags": [],
    "reviewsTags": [],
    "gasPrices": [],
    "url": "https://www.google.com/maps/search/?api=1&query=Subhakamana%20Saving%20and%20Credit%20Cooperatives%20Ltd.%20Byasi%20Service%20Counter&query_place_id=ChIJA5BCOAQb6zkRXSU8CeVV3ho",
    "searchPageUrl": "https://www.google.com/maps/search/bank/@27.67530454090198,85.43009086349416,17z?hl=en",
    "searchString": "bank",
    "language": "en",
    "rank": 48,
    "isAdvertisement": false,
    "imageUrl": "https://streetviewpixels-pa.googleapis.com/v1/thumbnail?panoid=ThphHe1iX43hK4lFJCFF7Q&cb_client=search.gws-prod.gps&w=408&h=240&yaw=328.89456&pitch=0&thumbfov=100",
    "kgmid": "/g/11t7rz1hv7"
  },
  {
    "title": "Our Youth Group (N.B.G)",
    "price": null,
    "categoryName": "Cooperative bank",
    "address": "3 Bagmati Pardesh Bhaktapur, 44800, Nepal",
    "neighborhood": null,
    "street": "3 Bagmati Pardesh Bhaktapur",
    "city": "Bhaktapur",
    "postalCode": "44800",
    "state": null,
    "countryCode": "NP",
    "phone": "+977 986-1517660",
    "phoneUnformatted": "+9779861517660",
    "claimThisBusiness": true,
    "location": {
      "lat": 27.6738729,
      "lng": 85.4272013
    },
    "permanentlyClosed": false,
    "temporarilyClosed": false,
    "placeId": "ChIJn6K1_2Ib6zkREY3NlFkGkps",
    "categories": [
      "Cooperative bank"
    ],
    "fid": "0x39eb1b62ffb5a29f:0x9b92065994cd8d11",
    "cid": "11210029404296940817",
    "reviewsCount": 0,
    "imagesCount": 1,
    "imageCategories": [],
    "scrapedAt": "2025-11-14T08:13:50.661Z",
    "googleFoodUrl": null,
    "hotelAds": [],
    "openingHours": [
      {
        "day": "Monday",
        "hours": "10 AM to 5 PM"
      },
      {
        "day": "Tuesday",
        "hours": "10 AM to 5 PM"
      },
      {
        "day": "Wednesday",
        "hours": "10 AM to 5 PM"
      },
      {
        "day": "Thursday",
        "hours": "10 AM to 5 PM"
      },
      {
        "day": "Friday",
        "hours": "10 AM to 5 PM"
      },
      {
        "day": "Saturday",
        "hours": "Closed"
      },
      {
        "day": "Sunday",
        "hours": "10 AM to 5 PM"
      }
    ],
    "peopleAlsoSearch": [],
    "placesTags": [],
    "reviewsTags": [],
    "gasPrices": [],
    "url": "https://www.google.com/maps/search/?api=1&query=Our%20Youth%20Group%20(N.B.G)&query_place_id=ChIJn6K1_2Ib6zkREY3NlFkGkps",
    "searchPageUrl": "https://www.google.com/maps/search/bank/@27.67530454090198,85.43009086349416,17z?hl=en",
    "searchString": "bank",
    "language": "en",
    "rank": 49,
    "isAdvertisement": false,
    "imageUrl": "https://streetviewpixels-pa.googleapis.com/v1/thumbnail?panoid=U0T8W1nXdil8KVW6mGGq2g&cb_client=search.gws-prod.gps&w=408&h=240&yaw=101.72272&pitch=0&thumbfov=100",
    "kgmid": "/g/11q_5yz924"
  },
  {
    "title": "Kantipur Saving and Credit Co-operative Limited - Radhe Radhe",
    "price": null,
    "categoryName": "Cooperative bank",
    "address": "M9GW+8XC, Madhyapur Thimi, Nepal",
    "neighborhood": null,
    "street": "M9GW+8XC",
    "city": "Madhyapur Thimi",
    "postalCode": null,
    "state": null,
    "countryCode": "NP",
    "phone": "+977 1-6637515",
    "phoneUnformatted": "+97716637515",
    "claimThisBusiness": true,
    "location": {
      "lat": 27.6758124,
      "lng": 85.3974005
    },
    "totalScore": 4,
    "permanentlyClosed": false,
    "temporarilyClosed": false,
    "placeId": "ChIJ_wVkURMb6zkRyx4LJBv0RU0",
    "categories": [
      "Cooperative bank"
    ],
    "fid": "0x39eb1b13516405ff:0x4d45f41b240b1ecb",
    "cid": "5568124911719489227",
    "reviewsCount": 4,
    "imagesCount": 2,
    "imageCategories": [],
    "scrapedAt": "2025-11-14T10:19:52.440Z",
    "googleFoodUrl": null,
    "hotelAds": [],
    "openingHours": [
      {
        "day": "Monday",
        "hours": "10 AM to 5 PM"
      },
      {
        "day": "Tuesday",
        "hours": "10 AM to 5 PM"
      },
      {
        "day": "Wednesday",
        "hours": "10 AM to 5 PM"
      },
      {
        "day": "Thursday",
        "hours": "10 AM to 5 PM"
      },
      {
        "day": "Friday",
        "hours": "10 AM to 5 PM"
      },
      {
        "day": "Saturday",
        "hours": "Closed"
      },
      {
        "day": "Sunday",
        "hours": "10 AM to 5 PM"
      }
    ],
    "peopleAlsoSearch": [],
    "placesTags": [],
    "reviewsTags": [],
    "gasPrices": [],
    "url": "https://www.google.com/maps/search/?api=1&query=Kantipur%20Saving%20and%20Credit%20Co-operative%20Limited%20-%20Radhe%20Radhe&query_place_id=ChIJ_wVkURMb6zkRyx4LJBv0RU0",
    "searchPageUrl": "https://www.google.com/maps/search/bank/@27.680106502310814,85.39674438680153,17z?hl=en",
    "searchString": "bank",
    "language": "en",
    "rank": 4,
    "isAdvertisement": false,
    "imageUrl": "https://streetviewpixels-pa.googleapis.com/v1/thumbnail?panoid=QJfeoB9IKoMJAZtuWpUFLA&cb_client=search.gws-prod.gps&w=408&h=240&yaw=345.64786&pitch=0&thumbfov=100",
    "kgmid": "/g/11pd_8yz4r"
  },
  {
    "title": "Our Youth Group (N.B.G)",
    "price": null,
    "categoryName": "Cooperative bank",
    "address": "3 Bagmati Pardesh Bhaktapur, 44800, Nepal",
    "neighborhood": null,
    "street": "3 Bagmati Pardesh Bhaktapur",
    "city": "Bhaktapur",
    "postalCode": "44800",
    "state": null,
    "countryCode": "NP",
    "phone": "+977 986-1517660",
    "phoneUnformatted": "+9779861517660",
    "claimThisBusiness": true,
    "location": {
      "lat": 27.6738729,
      "lng": 85.4272013
    },
    "permanentlyClosed": false,
    "temporarilyClosed": false,
    "placeId": "ChIJn6K1_2Ib6zkREY3NlFkGkps",
    "categories": [
      "Cooperative bank"
    ],
    "fid": "0x39eb1b62ffb5a29f:0x9b92065994cd8d11",
    "cid": "11210029404296940817",
    "reviewsCount": 0,
    "imagesCount": 1,
    "imageCategories": [],
    "scrapedAt": "2025-11-14T10:20:32.869Z",
    "googleFoodUrl": null,
    "hotelAds": [],
    "openingHours": [
      {
        "day": "Monday",
        "hours": "10 AM to 5 PM"
      },
      {
        "day": "Tuesday",
        "hours": "10 AM to 5 PM"
      },
      {
        "day": "Wednesday",
        "hours": "10 AM to 5 PM"
      },
      {
        "day": "Thursday",
        "hours": "10 AM to 5 PM"
      },
      {
        "day": "Friday",
        "hours": "10 AM to 5 PM"
      },
      {
        "day": "Saturday",
        "hours": "Closed"
      },
      {
        "day": "Sunday",
        "hours": "10 AM to 5 PM"
      }
    ],
    "peopleAlsoSearch": [],
    "placesTags": [],
    "reviewsTags": [],
    "gasPrices": [],
    "url": "https://www.google.com/maps/search/?api=1&query=Our%20Youth%20Group%20(N.B.G)&query_place_id=ChIJn6K1_2Ib6zkREY3NlFkGkps",
    "searchPageUrl": "https://www.google.com/maps/search/bank/@27.672500000000003,85.42249999999997,17z?hl=en",
    "searchString": "bank",
    "language": "en",
    "rank": 41,
    "isAdvertisement": false,
    "imageUrl": "https://streetviewpixels-pa.googleapis.com/v1/thumbnail?panoid=U0T8W1nXdil8KVW6mGGq2g&cb_client=search.gws-prod.gps&w=408&h=240&yaw=101.72272&pitch=0&thumbfov=100",
    "kgmid": "/g/11q_5yz924"
  },
  {
    "title": "Subhakamana Saving and Credit Cooperatives Ltd. Byasi Service Counter",
    "price": null,
    "categoryName": "Cooperative bank",
    "address": "MCGH+5V8, Nagarkot Rd, Bhaktapur 44800, Nepal",
    "neighborhood": null,
    "street": "MCGH+5V8, Nagarkot Rd",
    "city": "Bhaktapur",
    "postalCode": "44800",
    "state": null,
    "countryCode": "NP",
    "claimThisBusiness": true,
    "location": {
      "lat": 27.6754579,
      "lng": 85.4297438
    },
    "permanentlyClosed": false,
    "temporarilyClosed": false,
    "placeId": "ChIJA5BCOAQb6zkRXSU8CeVV3ho",
    "categories": [
      "Cooperative bank"
    ],
    "fid": "0x39eb1b0438429003:0x1ade55e5093c255d",
    "cid": "1936079332006700381",
    "reviewsCount": 0,
    "imagesCount": 1,
    "imageCategories": [],
    "scrapedAt": "2025-11-14T10:20:32.869Z",
    "googleFoodUrl": null,
    "hotelAds": [],
    "openingHours": [],
    "peopleAlsoSearch": [],
    "placesTags": [],
    "reviewsTags": [],
    "gasPrices": [],
    "url": "https://www.google.com/maps/search/?api=1&query=Subhakamana%20Saving%20and%20Credit%20Cooperatives%20Ltd.%20Byasi%20Service%20Counter&query_place_id=ChIJA5BCOAQb6zkRXSU8CeVV3ho",
    "searchPageUrl": "https://www.google.com/maps/search/bank/@27.672500000000003,85.42249999999997,17z?hl=en",
    "searchString": "bank",
    "language": "en",
    "rank": 44,
    "isAdvertisement": false,
    "imageUrl": "https://streetviewpixels-pa.googleapis.com/v1/thumbnail?panoid=ThphHe1iX43hK4lFJCFF7Q&cb_client=search.gws-prod.gps&w=408&h=240&yaw=328.89456&pitch=0&thumbfov=100",
    "kgmid": "/g/11t7rz1hv7"
  },
  {
    "title": "Surya Sandesh Co-operative",
    "price": null,
    "categoryName": "Cooperative bank",
    "address": "Jagatjung Marg, Kageshwori Manohara 44600, Nepal",
    "neighborhood": "Thapagaon",
    "street": "Jagatjung Marg",
    "city": "Kageshwori Manohara",
    "postalCode": "44600",
    "state": null,
    "countryCode": "NP",
    "website": "https://www.facebook.com/surya.sandesh.37",
    "phone": "+977 1-4990884",
    "phoneUnformatted": "+97714990884",
    "claimThisBusiness": false,
    "location": {
      "lat": 27.701128,
      "lng": 85.3812477
    },
    "totalScore": 5,
    "permanentlyClosed": false,
    "temporarilyClosed": false,
    "placeId": "ChIJQQ9NRdfInIcRvLyR51RSnUk",
    "categories": [
      "Cooperative bank"
    ],
    "fid": "0x879cc8d7454d0f41:0x499d5254e791bcbc",
    "cid": "5304486460728130748",
    "reviewsCount": 1,
    "reviewsDistribution": {
      "oneStar": 0,
      "twoStar": 0,
      "threeStar": 0,
      "fourStar": 0,
      "fiveStar": 1
    },
    "imagesCount": 3,
    "imageCategories": [],
    "scrapedAt": "2025-11-14T10:20:38.109Z",
    "googleFoodUrl": null,
    "hotelAds": [],
    "openingHours": [
      {
        "day": "Monday",
        "hours": "10 AM to 3 PM"
      },
      {
        "day": "Tuesday",
        "hours": "10 AM to 3 PM"
      },
      {
        "day": "Wednesday",
        "hours": "10 AM to 3 PM"
      },
      {
        "day": "Thursday",
        "hours": "10 AM to 3 PM"
      },
      {
        "day": "Friday",
        "hours": "10 AM to 1 PM"
      },
      {
        "day": "Saturday",
        "hours": "Closed"
      },
      {
        "day": "Sunday",
        "hours": "10 AM to 3 PM"
      }
    ],
    "peopleAlsoSearch": [],
    "placesTags": [],
    "reviewsTags": [],
    "gasPrices": [],
    "url": "https://www.google.com/maps/search/?api=1&query=Surya%20Sandesh%20Co-operative&query_place_id=ChIJQQ9NRdfInIcRvLyR51RSnUk",
    "searchPageUrl": "https://www.google.com/maps/search/bank/@27.702926009243246,85.38815918240205,17z?hl=en",
    "searchString": "bank",
    "language": "en",
    "rank": 21,
    "isAdvertisement": false,
    "imageUrl": "https://lh3.googleusercontent.com/p/AF1QipOUHbWuS7BDYE5_0Lh-Cont9X-FJCmtOnwNBY8X=w408-h544-k-no",
    "kgmid": "/g/11k4ns3tpx"
  },
  {
    "title": "Agricultural Development SACCOS",
    "price": null,
    "categoryName": "Cooperative bank",
    "address": "M9FC+P6R, Araniko Highway, Madhyapur Thimi 44600, Nepal",
    "neighborhood": "Gatthaghar",
    "street": "M9FC+P6R, Araniko Highway",
    "city": "Madhyapur Thimi",
    "postalCode": "44600",
    "state": null,
    "countryCode": "NP",
    "phone": "+977 1-6636581",
    "phoneUnformatted": "+97716636581",
    "claimThisBusiness": true,
    "location": {
      "lat": 27.67436,
      "lng": 85.370524
    },
    "totalScore": 3.7,
    "permanentlyClosed": false,
    "temporarilyClosed": false,
    "placeId": "ChIJmbw0KBIa6zkRWtrnlgO09fE",
    "categories": [
      "Cooperative bank"
    ],
    "fid": "0x39eb1a122834bc99:0xf1f5b40396e7da5a",
    "cid": "17435039459944421978",
    "reviewsCount": 3,
    "imagesCount": 4,
    "imageCategories": [],
    "scrapedAt": "2025-11-14T10:20:56.182Z",
    "googleFoodUrl": null,
    "hotelAds": [],
    "openingHours": [
      {
        "day": "Monday",
        "hours": "10 AM to 4:30 PM"
      },
      {
        "day": "Tuesday",
        "hours": "10 AM to 4:30 PM"
      },
      {
        "day": "Wednesday",
        "hours": "10 AM to 4:30 PM"
      },
      {
        "day": "Thursday",
        "hours": "10 AM to 4:30 PM"
      },
      {
        "day": "Friday",
        "hours": "10 AM to 4:30 PM"
      },
      {
        "day": "Saturday",
        "hours": "Closed"
      },
      {
        "day": "Sunday",
        "hours": "10 AM to 4:30 PM"
      }
    ],
    "peopleAlsoSearch": [],
    "placesTags": [],
    "reviewsTags": [],
    "gasPrices": [],
    "url": "https://www.google.com/maps/search/?api=1&query=Agricultural%20Development%20SACCOS&query_place_id=ChIJmbw0KBIa6zkRWtrnlgO09fE",
    "searchPageUrl": "https://www.google.com/maps/search/bank/@27.672500000000003,85.37098877360309,17z?hl=en",
    "searchString": "bank",
    "language": "en",
    "rank": 18,
    "isAdvertisement": false,
    "imageUrl": "https://lh3.googleusercontent.com/gps-proxy/ALd4DhEYjh1KkRwPzGQ2gfdkoNxTt63y44QY4CyXC_P51C-vQHWZwOPkrZ6z4FLaJtPtUyHJk9v74q2fH2xvTzAemtcjmzfCKCEfgbKLjtVsagly_BlYG_OGzxJKC6MEOtcP0YZLnXn2I-bMCsvrMq0fVCdLkL2mhgctfZfh8upye9DP1UEXptHTpXCBfwJt5zMxqQsG7A=w408-h306-k-no",
    "kgmid": "/g/11b6s3p19v"
  },
  {
    "title": "Sakchhyam Saving & Credit Co-operative Ltd. सक्षम सहकारी",
    "price": null,
    "categoryName": "Cooperative bank",
    "address": "M9F7+GW9, Madhyapur Thimi 44600, Nepal",
    "neighborhood": "Kausaltar",
    "street": "M9F7+GW9",
    "city": "Madhyapur Thimi",
    "postalCode": "44600",
    "state": null,
    "countryCode": "NP",
    "phone": "+977 1-5639316",
    "phoneUnformatted": "+97715639316",
    "claimThisBusiness": true,
    "location": {
      "lat": 27.6737761,
      "lng": 85.3648729
    },
    "totalScore": 5,
    "permanentlyClosed": false,
    "temporarilyClosed": false,
    "placeId": "ChIJXyrkYAAb6zkRLshRyhBpjs0",
    "categories": [
      "Cooperative bank"
    ],
    "fid": "0x39eb1b0060e42a5f:0xcd8e6910ca51c82e",
    "cid": "14811891745302890542",
    "reviewsCount": 1,
    "reviewsDistribution": {
      "oneStar": 0,
      "twoStar": 0,
      "threeStar": 0,
      "fourStar": 0,
      "fiveStar": 1
    },
    "imagesCount": 2,
    "imageCategories": [],
    "scrapedAt": "2025-11-14T10:20:56.960Z",
    "googleFoodUrl": null,
    "hotelAds": [],
    "openingHours": [
      {
        "day": "Monday",
        "hours": "10 AM to 5 PM"
      },
      {
        "day": "Tuesday",
        "hours": "10 AM to 5 PM"
      },
      {
        "day": "Wednesday",
        "hours": "10 AM to 5 PM"
      },
      {
        "day": "Thursday",
        "hours": "10 AM to 5 PM"
      },
      {
        "day": "Friday",
        "hours": "10 AM to 5 PM"
      },
      {
        "day": "Saturday",
        "hours": "Closed"
      },
      {
        "day": "Sunday",
        "hours": "10 AM to 5 PM"
      }
    ],
    "peopleAlsoSearch": [],
    "placesTags": [],
    "reviewsTags": [],
    "gasPrices": [],
    "url": "https://www.google.com/maps/search/?api=1&query=Sakchhyam%20Saving%20%26%20Credit%20Co-operative%20Ltd.%20%E0%A4%B8%E0%A4%95%E0%A5%8D%E0%A4%B7%E0%A4%AE%20%E0%A4%B8%E0%A4%B9%E0%A4%95%E0%A4%BE%E0%A4%B0%E0%A5%80&query_place_id=ChIJXyrkYAAb6zkRLshRyhBpjs0",
    "searchPageUrl": "https://www.google.com/maps/search/bank/@27.672500000000003,85.37098877360309,17z?hl=en",
    "searchString": "bank",
    "language": "en",
    "rank": 38,
    "isAdvertisement": false,
    "imageUrl": "https://streetviewpixels-pa.googleapis.com/v1/thumbnail?panoid=bVxKHJ9SNSfTpbqlF7YEwQ&cb_client=search.gws-prod.gps&w=408&h=240&yaw=291.18787&pitch=0&thumbfov=100",
    "kgmid": "/g/11vrrrwt6m"
  },
  {
    "title": "हिमशिखर बहुउद्देश्यीय सहकारी",
    "price": null,
    "categoryName": "Cooperative bank",
    "address": "M9FF+MPJ, Madhyapur Thimi 44600, Nepal",
    "neighborhood": "Gatthaghar",
    "street": "M9FF+MPJ",
    "city": "Madhyapur Thimi",
    "postalCode": null,
    "state": null,
    "countryCode": "NP",
    "website": "http://www.himshikharcooperative.com.np/",
    "phone": "+977 1-6630872",
    "phoneUnformatted": "+97716630872",
    "claimThisBusiness": true,
    "location": {
      "lat": 27.6742155,
      "lng": 85.374263
    },
    "totalScore": 5,
    "permanentlyClosed": false,
    "temporarilyClosed": false,
    "placeId": "ChIJhUoQegsb6zkR-i7lYjMUqr4",
    "categories": [
      "Cooperative bank"
    ],
    "fid": "0x39eb1b0b7a104a85:0xbeaa143362e52efa",
    "cid": "13738815824182193914",
    "reviewsCount": 1,
    "reviewsDistribution": {
      "oneStar": 0,
      "twoStar": 0,
      "threeStar": 0,
      "fourStar": 0,
      "fiveStar": 1
    },
    "imagesCount": 1,
    "imageCategories": [],
    "scrapedAt": "2025-11-14T10:20:57.680Z",
    "googleFoodUrl": null,
    "hotelAds": [],
    "openingHours": [
      {
        "day": "Monday",
        "hours": "10 AM to 5:30 AM"
      },
      {
        "day": "Tuesday",
        "hours": "10:30 AM to 5:30 AM"
      },
      {
        "day": "Wednesday",
        "hours": "10 AM to 5:30 AM"
      },
      {
        "day": "Thursday",
        "hours": "10 AM to 5:30 AM"
      },
      {
        "day": "Friday",
        "hours": "10 AM to 5:30 AM"
      },
      {
        "day": "Saturday",
        "hours": "Closed"
      },
      {
        "day": "Sunday",
        "hours": "10 AM to 5:30 AM"
      }
    ],
    "peopleAlsoSearch": [],
    "placesTags": [],
    "reviewsTags": [],
    "gasPrices": [],
    "url": "https://www.google.com/maps/search/?api=1&query=%E0%A4%B9%E0%A4%BF%E0%A4%AE%E0%A4%B6%E0%A4%BF%E0%A4%96%E0%A4%B0%20%E0%A4%AC%E0%A4%B9%E0%A5%81%E0%A4%89%E0%A4%A6%E0%A5%8D%E0%A4%A6%E0%A5%87%E0%A4%B6%E0%A5%8D%E0%A4%AF%E0%A5%80%E0%A4%AF%20%E0%A4%B8%E0%A4%B9%E0%A4%95%E0%A4%BE%E0%A4%B0%E0%A5%80&query_place_id=ChIJhUoQegsb6zkR-i7lYjMUqr4",
    "searchPageUrl": "https://www.google.com/maps/search/bank/@27.672500000000003,85.37098877360309,17z?hl=en",
    "searchString": "bank",
    "language": "en",
    "rank": 45,
    "isAdvertisement": false,
    "imageUrl": "https://streetviewpixels-pa.googleapis.com/v1/thumbnail?panoid=jgjp8UjXZDKNg9uEBB5klw&cb_client=search.gws-prod.gps&w=408&h=240&yaw=139.05292&pitch=0&thumbfov=100",
    "kgmid": "/g/11n0c0dnr2"
  },
  {
    "title": "Suryadev Multipurpose",
    "price": null,
    "categoryName": "Cooperative bank",
    "address": "M9FC+P8R, Bhaktapur 44600, Nepal",
    "neighborhood": "Gatthaghar",
    "street": "M9FC+P8R",
    "city": "Bhaktapur",
    "postalCode": null,
    "state": null,
    "countryCode": "NP",
    "phone": "+977 1-5918414",
    "phoneUnformatted": "+97715918414",
    "claimThisBusiness": true,
    "location": {
      "lat": 27.6743655,
      "lng": 85.370781
    },
    "permanentlyClosed": false,
    "temporarilyClosed": false,
    "placeId": "ChIJ84yy8lMb6zkRz9RXcu4Xad4",
    "categories": [
      "Cooperative bank"
    ],
    "fid": "0x39eb1b53f2b28cf3:0xde6917ee7257d4cf",
    "cid": "16026367061862634703",
    "reviewsCount": 0,
    "imagesCount": 1,
    "imageCategories": [],
    "scrapedAt": "2025-11-14T10:20:57.680Z",
    "googleFoodUrl": null,
    "hotelAds": [],
    "openingHours": [
      {
        "day": "Monday",
        "hours": "10 AM to 3 PM"
      },
      {
        "day": "Tuesday",
        "hours": "10 AM to 3 PM"
      },
      {
        "day": "Wednesday",
        "hours": "10 AM to 3 PM"
      },
      {
        "day": "Thursday",
        "hours": "10 AM to 3 PM"
      },
      {
        "day": "Friday",
        "hours": "10 AM to 1 PM"
      },
      {
        "day": "Saturday",
        "hours": "Closed"
      },
      {
        "day": "Sunday",
        "hours": "10 AM to 3 PM"
      }
    ],
    "peopleAlsoSearch": [],
    "placesTags": [],
    "reviewsTags": [],
    "gasPrices": [],
    "url": "https://www.google.com/maps/search/?api=1&query=Suryadev%20Multipurpose&query_place_id=ChIJ84yy8lMb6zkRz9RXcu4Xad4",
    "searchPageUrl": "https://www.google.com/maps/search/bank/@27.672500000000003,85.37098877360309,17z?hl=en",
    "searchString": "bank",
    "language": "en",
    "rank": 53,
    "isAdvertisement": false,
    "imageUrl": "https://streetviewpixels-pa.googleapis.com/v1/thumbnail?panoid=U78Hf7rS0vOWdDqUYtje_g&cb_client=search.gws-prod.gps&w=408&h=240&yaw=128.72714&pitch=0&thumbfov=100",
    "kgmid": "/g/11rw7c0jdn"
  },
  {
    "title": "Pabitra Halesi Dham Saving and Credit",
    "price": null,
    "categoryName": "Cooperative bank",
    "address": "M9FF+C32, Madhyapur Thimi 44600, Nepal",
    "neighborhood": "Gatthaghar",
    "street": "M9FF+C32",
    "city": "Madhyapur Thimi",
    "postalCode": "44600",
    "state": null,
    "countryCode": "NP",
    "claimThisBusiness": true,
    "location": {
      "lat": 27.6735006,
      "lng": 85.3726426
    },
    "permanentlyClosed": false,
    "temporarilyClosed": false,
    "placeId": "ChIJp4ZdOgAb6zkRgIVlZapCopk",
    "categories": [
      "Cooperative bank"
    ],
    "fid": "0x39eb1b003a5d86a7:0x99a242aa65658580",
    "cid": "11070484133643126144",
    "reviewsCount": 0,
    "imagesCount": 2,
    "imageCategories": [],
    "scrapedAt": "2025-11-14T10:20:57.680Z",
    "googleFoodUrl": null,
    "hotelAds": [],
    "openingHours": [],
    "peopleAlsoSearch": [],
    "placesTags": [],
    "reviewsTags": [],
    "gasPrices": [],
    "url": "https://www.google.com/maps/search/?api=1&query=Pabitra%20Halesi%20Dham%20Saving%20and%20Credit&query_place_id=ChIJp4ZdOgAb6zkRgIVlZapCopk",
    "searchPageUrl": "https://www.google.com/maps/search/bank/@27.672500000000003,85.37098877360309,17z?hl=en",
    "searchString": "bank",
    "language": "en",
    "rank": 55,
    "isAdvertisement": false,
    "imageUrl": "https://streetviewpixels-pa.googleapis.com/v1/thumbnail?panoid=TAOyQh-_BZ0_uiFFge_6XA&cb_client=search.gws-prod.gps&w=408&h=240&yaw=225.11871&pitch=0&thumbfov=100",
    "kgmid": "/g/11y4vfqssd"
  },
  {
    "title": "Annapurna Multiple Co-Op",
    "price": null,
    "categoryName": "Cooperative bank",
    "address": "M9FF+QC9, Araniko Highway, Gatthaghar 44600, Nepal",
    "neighborhood": "Gatthaghar",
    "street": "M9FF+QC9, Araniko Highway",
    "city": "Gatthaghar",
    "postalCode": "44600",
    "state": null,
    "countryCode": "NP",
    "phone": "+977 1-6634386",
    "phoneUnformatted": "+97716634386",
    "claimThisBusiness": true,
    "location": {
      "lat": 27.6744163,
      "lng": 85.3736109
    },
    "totalScore": 4,
    "permanentlyClosed": false,
    "temporarilyClosed": false,
    "placeId": "ChIJndUd9xIa6zkRI2KbO5gsZ8E",
    "categories": [
      "Cooperative bank",
      "Bank"
    ],
    "fid": "0x39eb1a12f71dd59d:0xc1672c983b9b6223",
    "cid": "13936156604267979299",
    "reviewsCount": 2,
    "reviewsDistribution": {
      "oneStar": 0,
      "twoStar": 0,
      "threeStar": 1,
      "fourStar": 0,
      "fiveStar": 1
    },
    "imagesCount": 5,
    "imageCategories": [],
    "scrapedAt": "2025-11-14T10:20:57.680Z",
    "googleFoodUrl": null,
    "hotelAds": [],
    "openingHours": [
      {
        "day": "Monday",
        "hours": "10 AM to 5 PM"
      },
      {
        "day": "Tuesday",
        "hours": "10 AM to 5 PM"
      },
      {
        "day": "Wednesday",
        "hours": "10 AM to 5 PM"
      },
      {
        "day": "Thursday",
        "hours": "10 AM to 5 PM"
      },
      {
        "day": "Friday",
        "hours": "10 AM to 3 PM"
      },
      {
        "day": "Saturday",
        "hours": "10 AM to 1 PM"
      },
      {
        "day": "Sunday",
        "hours": "10 AM to 5 PM"
      }
    ],
    "peopleAlsoSearch": [],
    "placesTags": [],
    "reviewsTags": [],
    "gasPrices": [],
    "url": "https://www.google.com/maps/search/?api=1&query=Annapurna%20Multiple%20Co-Op&query_place_id=ChIJndUd9xIa6zkRI2KbO5gsZ8E",
    "searchPageUrl": "https://www.google.com/maps/search/bank/@27.672500000000003,85.37098877360309,17z?hl=en",
    "searchString": "bank",
    "language": "en",
    "rank": 58,
    "isAdvertisement": false,
    "imageUrl": "https://lh3.googleusercontent.com/gps-cs-s/AG0ilSxxotiusujpFy0Larl1uufZGN5gijUGmTOrS2CpUciHzXssGzIkgtd1lKTfwJzJYe8uM7WOk6WlLNhm73aLIPPsR2wOtLnyuaBrT9ncBniwQUB-HKJuaQO0BQVjd3bIxCfTt4zwoA=w408-h544-k-no",
    "kgmid": "/g/12cpk6jn_"
  },
  {
    "title": "Siddhikali Saving & Credit Co operative Ltd. सिद्धिकाली बचत तथा ऋण सहकारी संस्था लिमिटेड",
    "price": null,
    "categoryName": "Cooperative bank",
    "address": "Madhyapur Thimi 44600, Nepal",
    "neighborhood": null,
    "street": null,
    "city": "Madhyapur Thimi",
    "postalCode": null,
    "state": null,
    "countryCode": "NP",
    "phone": "+977 1-6639387",
    "phoneUnformatted": "+97716639387",
    "claimThisBusiness": false,
    "location": {
      "lat": 27.6806014,
      "lng": 85.3849576
    },
    "totalScore": 5,
    "permanentlyClosed": false,
    "temporarilyClosed": false,
    "placeId": "ChIJTXKZajsb6zkRblbsglawIzw",
    "categories": [
      "Cooperative bank"
    ],
    "fid": "0x39eb1b3b6a99724d:0x3c23b05682ec566e",
    "cid": "4333501152070751854",
    "reviewsCount": 2,
    "imagesCount": 38,
    "imageCategories": [],
    "scrapedAt": "2025-11-14T10:21:10.067Z",
    "googleFoodUrl": null,
    "hotelAds": [],
    "openingHours": [
      {
        "day": "Monday",
        "hours": "7:30 AM to 3 PM"
      },
      {
        "day": "Tuesday",
        "hours": "7:30 AM to 3 PM"
      },
      {
        "day": "Wednesday",
        "hours": "7:30 AM to 3 PM"
      },
      {
        "day": "Thursday",
        "hours": "7:30 AM to 3 PM"
      },
      {
        "day": "Friday",
        "hours": "7:30 AM to 3 PM"
      },
      {
        "day": "Saturday",
        "hours": "Closed"
      },
      {
        "day": "Sunday",
        "hours": "7:30 AM to 3 PM"
      }
    ],
    "peopleAlsoSearch": [],
    "placesTags": [],
    "reviewsTags": [],
    "gasPrices": [],
    "url": "https://www.google.com/maps/search/?api=1&query=Siddhikali%20Saving%20%26%20Credit%20Co%20operative%20Ltd.%20%E0%A4%B8%E0%A4%BF%E0%A4%A6%E0%A5%8D%E0%A4%A7%E0%A4%BF%E0%A4%95%E0%A4%BE%E0%A4%B2%E0%A5%80%20%E0%A4%AC%E0%A4%9A%E0%A4%A4%20%E0%A4%A4%E0%A4%A5%E0%A4%BE%20%E0%A4%8B%E0%A4%A3%20%E0%A4%B8%E0%A4%B9%E0%A4%95%E0%A4%BE%E0%A4%B0%E0%A5%80%20%E0%A4%B8%E0%A4%82%E0%A4%B8%E0%A5%8D%E0%A4%A5%E0%A4%BE%20%E0%A4%B2%E0%A4%BF%E0%A4%AE%E0%A4%BF%E0%A4%9F%E0%A5%87%E0%A4%A1&query_place_id=ChIJTXKZajsb6zkRblbsglawIzw",
    "searchPageUrl": "https://www.google.com/maps/search/bank/@27.680106502310814,85.38815918240205,17z?hl=en",
    "searchString": "bank",
    "language": "en",
    "rank": 14,
    "isAdvertisement": false,
    "imageUrl": "https://lh3.googleusercontent.com/p/AF1QipPR7_ji15WhO5MRPNX_U35WL0YDVNi6dUX_r73g=w426-h240-k-no",
    "kgmid": "/g/11s58d2n6g"
  },
  {
    "title": "Upakar SACCOS",
    "subTitle": "उपकार बचतऋण सहकारी",
    "price": null,
    "categoryName": "Cooperative bank",
    "address": "M9MP+33G Bahakha Bazar, Bhaktapur Road, Madhyapur Thimi 44800, Nepal",
    "neighborhood": null,
    "street": "M9MP+33G Bahakha Bazar, Bhaktapur Road",
    "city": "Madhyapur Thimi",
    "postalCode": "44800",
    "state": null,
    "countryCode": "NP",
    "website": "http://www.upakarsaccos.coop.np/",
    "phone": "+977 1-6633643",
    "phoneUnformatted": "+97716633643",
    "claimThisBusiness": true,
    "location": {
      "lat": 27.6826758,
      "lng": 85.3852013
    },
    "totalScore": 5,
    "permanentlyClosed": false,
    "temporarilyClosed": false,
    "placeId": "ChIJGf7XbGga6zkRvZ0e2ifH3H0",
    "categories": [
      "Cooperative bank"
    ],
    "fid": "0x39eb1a686cd7fe19:0x7ddcc727da1e9dbd",
    "cid": "9069342723594427837",
    "reviewsCount": 1,
    "reviewsDistribution": {
      "oneStar": 0,
      "twoStar": 0,
      "threeStar": 0,
      "fourStar": 0,
      "fiveStar": 1
    },
    "imagesCount": 8,
    "imageCategories": [],
    "scrapedAt": "2025-11-14T10:21:10.803Z",
    "googleFoodUrl": null,
    "hotelAds": [],
    "openingHours": [
      {
        "day": "Monday",
        "hours": "10 AM to 5 PM"
      },
      {
        "day": "Tuesday",
        "hours": "10 AM to 5 PM"
      },
      {
        "day": "Wednesday",
        "hours": "10 AM to 5 PM"
      },
      {
        "day": "Thursday",
        "hours": "10 AM to 5 PM"
      },
      {
        "day": "Friday",
        "hours": "10 AM to 5 PM"
      },
      {
        "day": "Saturday",
        "hours": "Closed"
      },
      {
        "day": "Sunday",
        "hours": "10 AM to 5 PM"
      }
    ],
    "peopleAlsoSearch": [],
    "placesTags": [],
    "reviewsTags": [],
    "gasPrices": [],
    "url": "https://www.google.com/maps/search/?api=1&query=Upakar%20SACCOS&query_place_id=ChIJGf7XbGga6zkRvZ0e2ifH3H0",
    "searchPageUrl": "https://www.google.com/maps/search/bank/@27.680106502310814,85.38815918240205,17z?hl=en",
    "searchString": "bank",
    "language": "en",
    "rank": 27,
    "isAdvertisement": false,
    "imageUrl": "https://lh3.googleusercontent.com/gps-proxy/ALd4DhEb2Yy7yeZ2W2dfShqkrsBCnBUsFdDLHhc9Rae4qqCEQK8-bLufo8Hpim4rCIT447BB0DGN7eUxGSdWmsoRwi33EEHQHaT6eYj60xaKXag4ESoycGMF-xVs-_2McDSVCnka_ZmwTBjFsTWuP8I8ItY87eZ2ptrcFKtMPsAsP_1dC_RzUPWwO75b2_etCep0iEtquQ=w408-h306-k-no",
    "kgmid": "/g/11b6rwmq43"
  },
  {
    "title": "Jyotipunja Multipurpose Co-op",
    "price": null,
    "categoryName": "Cooperative bank",
    "address": "M9XF+75R, Kageshwori Manohara 44600, Nepal",
    "neighborhood": "Thapagaon",
    "street": "M9XF+75R",
    "city": "Kageshwori Manohara",
    "postalCode": "44600",
    "state": null,
    "countryCode": "NP",
    "claimThisBusiness": true,
    "location": {
      "lat": 27.6982433,
      "lng": 85.3728828
    },
    "totalScore": 5,
    "permanentlyClosed": false,
    "temporarilyClosed": false,
    "placeId": "ChIJF1qyATca6zkRElcynBxgRig",
    "categories": [
      "Cooperative bank"
    ],
    "fid": "0x39eb1a3701b25a17:0x2846601c9c325712",
    "cid": "2902112685882758930",
    "reviewsCount": 2,
    "reviewsDistribution": {
      "oneStar": 0,
      "twoStar": 0,
      "threeStar": 0,
      "fourStar": 0,
      "fiveStar": 2
    },
    "imagesCount": 2,
    "imageCategories": [],
    "scrapedAt": "2025-11-14T10:21:55.850Z",
    "googleFoodUrl": null,
    "hotelAds": [],
    "openingHours": [],
    "peopleAlsoSearch": [],
    "placesTags": [],
    "reviewsTags": [],
    "gasPrices": [],
    "url": "https://www.google.com/maps/search/?api=1&query=Jyotipunja%20Multipurpose%20Co-op&query_place_id=ChIJF1qyATca6zkRElcynBxgRig",
    "searchPageUrl": "https://www.google.com/maps/search/bank/@27.695319506932435,85.37957397800257,17z?hl=en",
    "searchString": "bank",
    "language": "en",
    "rank": 24,
    "isAdvertisement": false,
    "imageUrl": "https://streetviewpixels-pa.googleapis.com/v1/thumbnail?panoid=gXx0baQMok27J2ypU74nqw&cb_client=search.gws-prod.gps&w=408&h=240&yaw=173.42674&pitch=0&thumbfov=100",
    "kgmid": "/g/11g8h7k61p"
  },
  {
    "title": "Bhaktapur District SACCOS",
    "price": null,
    "categoryName": "Cooperative bank",
    "address": "MC7H+WWC, Suryabinayak 44800, Nepal",
    "neighborhood": "Sipadol",
    "street": "MC7H+WWC",
    "city": "Suryabinayak",
    "postalCode": "44800",
    "state": null,
    "countryCode": "NP",
    "website": "http://www.bhaktapurdcu.coop.np/",
    "phone": "+977 1-5092556",
    "phoneUnformatted": "+97715092556",
    "claimThisBusiness": true,
    "location": {
      "lat": 27.6641754,
      "lng": 85.4295811
    },
    "totalScore": 5,
    "permanentlyClosed": false,
    "temporarilyClosed": false,
    "placeId": "ChIJr-iFs6ca6zkRZTll9m3THBs",
    "categories": [
      "Cooperative bank"
    ],
    "fid": "0x39eb1aa7b385e8af:0x1b1cd36df6653965",
    "cid": "1953668807610677605",
    "reviewsCount": 2,
    "imagesCount": 4,
    "imageCategories": [],
    "scrapedAt": "2025-11-14T10:22:11.024Z",
    "googleFoodUrl": null,
    "hotelAds": [],
    "openingHours": [
      {
        "day": "Monday",
        "hours": "10 AM to 5 PM"
      },
      {
        "day": "Tuesday",
        "hours": "10 AM to 5 PM"
      },
      {
        "day": "Wednesday",
        "hours": "10 AM to 5 PM"
      },
      {
        "day": "Thursday",
        "hours": "10 AM to 5 PM"
      },
      {
        "day": "Friday",
        "hours": "10 AM to 5 PM"
      },
      {
        "day": "Saturday",
        "hours": "Closed"
      },
      {
        "day": "Sunday",
        "hours": "10 AM to 5 PM"
      }
    ],
    "peopleAlsoSearch": [],
    "placesTags": [],
    "reviewsTags": [],
    "gasPrices": [],
    "url": "https://www.google.com/maps/search/?api=1&query=Bhaktapur%20District%20SACCOS&query_place_id=ChIJr-iFs6ca6zkRZTll9m3THBs",
    "searchPageUrl": "https://www.google.com/maps/search/bank/@27.65728699537838,85.43108520439945,17z?hl=en",
    "searchString": "bank",
    "language": "en",
    "rank": 12,
    "isAdvertisement": false,
    "imageUrl": "https://lh3.googleusercontent.com/gps-cs-s/AG0ilSxC0Q2lFfYqYt23TknH_oeSIk1udTfkU9lNPBNUzLCBsajD653ojFjuZk51nSnTTlYq2GEOVJuJVWX-xa3HrWBHgmnmqqeXj2JPLmS3Kv-7MZ0RgbXSKnYbEeYXHisGPad7FuDcQQ=w408-h544-k-no",
    "kgmid": "/g/11hbkybjw0"
  },
  {
    "title": "Kuber Saccos",
    "price": null,
    "categoryName": "Cooperative bank",
    "address": "101 Araniko Highway, Bhaktapur 44800, Nepal",
    "neighborhood": null,
    "street": "101 Araniko Highway",
    "city": "Bhaktapur",
    "postalCode": "44800",
    "state": null,
    "countryCode": "NP",
    "phone": "+977 1-6619817",
    "phoneUnformatted": "+97716619817",
    "claimThisBusiness": true,
    "location": {
      "lat": 27.6675869,
      "lng": 85.423819
    },
    "totalScore": 5,
    "permanentlyClosed": false,
    "temporarilyClosed": false,
    "placeId": "ChIJ18sSnKYa6zkR1oz3HzsTzTs",
    "categories": [
      "Cooperative bank"
    ],
    "fid": "0x39eb1aa69c12cbd7:0x3bcd133b1ff78cd6",
    "cid": "4309121563123748054",
    "reviewsCount": 2,
    "imagesCount": 3,
    "imageCategories": [],
    "scrapedAt": "2025-11-14T10:22:30.243Z",
    "googleFoodUrl": null,
    "hotelAds": [],
    "openingHours": [
      {
        "day": "Monday",
        "hours": "11 AM to 5 PM"
      },
      {
        "day": "Tuesday",
        "hours": "11 AM to 5 PM"
      },
      {
        "day": "Wednesday",
        "hours": "11 AM to 5 PM"
      },
      {
        "day": "Thursday",
        "hours": "11 AM to 5 PM"
      },
      {
        "day": "Friday",
        "hours": "11 AM to 5 PM"
      },
      {
        "day": "Saturday",
        "hours": "Closed"
      },
      {
        "day": "Sunday",
        "hours": "11 AM to 5 PM"
      }
    ],
    "peopleAlsoSearch": [],
    "placesTags": [],
    "reviewsTags": [],
    "gasPrices": [],
    "url": "https://www.google.com/maps/search/?api=1&query=Kuber%20Saccos&query_place_id=ChIJ18sSnKYa6zkR1oz3HzsTzTs",
    "searchPageUrl": "https://www.google.com/maps/search/bank/@27.664893497689192,85.42249999999997,17z?hl=en",
    "searchString": "bank",
    "language": "en",
    "rank": 19,
    "isAdvertisement": false,
    "imageUrl": "https://lh3.googleusercontent.com/gps-proxy/ALd4DhExyILz_1E9zsNGz3SwewlrAzltQsB80rUwr8bQ8WiafJhN-nv1gQIlIkzZfo5-Md-YhkxW_7xziGGiIykKlFTcli-FWrNvEqX_4LmNkgLEuqKUw_YS9tpIBL6GDxKiZjBdFSM_vIe2wby5qfdC9nZ_wESFCYlZ93h-8kMceGM9uhLpR23dyNvARVymUeeCX89GFyk=w408-h306-k-no",
    "kgmid": "/g/11g6nk7357"
  },
  {
    "title": "Shankhadhar Saccos (SHANKHADHAR SAVINGS AND CREDIT CO-OPERATIVE LTD,)",
    "price": null,
    "categoryName": "Cooperative bank",
    "address": "M9FP+69F, Madhyapur Thimi, Nepal",
    "neighborhood": null,
    "street": "M9FP+69F",
    "city": "Madhyapur Thimi",
    "postalCode": null,
    "state": null,
    "countryCode": "NP",
    "website": "https://www.shankhadharsaving.coop.np/",
    "phone": "+977 1-5093507",
    "phoneUnformatted": "+97715093507",
    "claimThisBusiness": true,
    "location": {
      "lat": 27.6730676,
      "lng": 85.3859352
    },
    "permanentlyClosed": false,
    "temporarilyClosed": false,
    "placeId": "ChIJ845xNSgb6zkRZnq4euRIte4",
    "categories": [
      "Cooperative bank"
    ],
    "fid": "0x39eb1b2835718ef3:0xeeb548e47ab87a66",
    "cid": "17200734497960131174",
    "reviewsCount": 0,
    "imagesCount": 2,
    "imageCategories": [],
    "scrapedAt": "2025-11-14T10:22:42.650Z",
    "googleFoodUrl": null,
    "hotelAds": [],
    "openingHours": [
      {
        "day": "Monday",
        "hours": "10 AM to 5 PM"
      },
      {
        "day": "Tuesday",
        "hours": "10 AM to 5 PM"
      },
      {
        "day": "Wednesday",
        "hours": "10 AM to 5 PM"
      },
      {
        "day": "Thursday",
        "hours": "10 AM to 5 PM"
      },
      {
        "day": "Friday",
        "hours": "10 AM to 5 PM"
      },
      {
        "day": "Saturday",
        "hours": "Closed"
      },
      {
        "day": "Sunday",
        "hours": "10 AM to 5 PM"
      }
    ],
    "peopleAlsoSearch": [],
    "placesTags": [],
    "reviewsTags": [],
    "gasPrices": [],
    "url": "https://www.google.com/maps/search/?api=1&query=Shankhadhar%20Saccos%20(SHANKHADHAR%20SAVINGS%20AND%20CREDIT%20CO-OPERATIVE%20LTD%2C)&query_place_id=ChIJ845xNSgb6zkRZnq4euRIte4",
    "searchPageUrl": "https://www.google.com/maps/search/bank/@27.6729549,85.3856529,17.827451335683577z?hl=en",
    "searchString": "bank",
    "language": "en",
    "rank": 14,
    "isAdvertisement": false,
    "imageUrl": "https://streetviewpixels-pa.googleapis.com/v1/thumbnail?panoid=qBJyEiDdXo_O6ssve3hIwg&cb_client=search.gws-prod.gps&w=408&h=240&yaw=179.06242&pitch=0&thumbfov=100",
    "kgmid": "/g/11sr83txvy"
  },
  {
    "title": "Takuba Chowk, Madhyapur Thimi-5 Bhaktapur",
    "price": null,
    "categoryName": "Cooperative bank",
    "address": "M9FR+CM5, Araniko Highway, Madhyapur Thimi, Nepal",
    "neighborhood": null,
    "street": "M9FR+CM5, Araniko Highway",
    "city": "Madhyapur Thimi",
    "postalCode": null,
    "state": null,
    "countryCode": "NP",
    "claimThisBusiness": true,
    "location": {
      "lat": 27.673714,
      "lng": 85.3915723
    },
    "permanentlyClosed": false,
    "temporarilyClosed": false,
    "placeId": "ChIJjwQoegAb6zkR4-mCITfktmM",
    "categories": [
      "Cooperative bank"
    ],
    "fid": "0x39eb1b007a28048f:0x63b6e4372182e9e3",
    "cid": "7185181180952766947",
    "reviewsCount": 0,
    "imagesCount": 1,
    "imageCategories": [],
    "scrapedAt": "2025-11-14T10:23:17.616Z",
    "googleFoodUrl": null,
    "hotelAds": [],
    "openingHours": [],
    "peopleAlsoSearch": [],
    "placesTags": [],
    "reviewsTags": [],
    "gasPrices": [],
    "url": "https://www.google.com/maps/search/?api=1&query=Takuba%20Chowk%2C%20Madhyapur%20Thimi-5%20Bhaktapur&query_place_id=ChIJjwQoegAb6zkR4-mCITfktmM",
    "searchPageUrl": "https://www.google.com/maps/search/bank/@27.672500000000003,85.38815918240205,17z?hl=en",
    "searchString": "bank",
    "language": "en",
    "rank": 35,
    "isAdvertisement": false,
    "imageUrl": "https://streetviewpixels-pa.googleapis.com/v1/thumbnail?panoid=VTtoSQSm5Xts-e0L2FMzPw&cb_client=search.gws-prod.gps&w=408&h=240&yaw=179.7483&pitch=0&thumbfov=100",
    "kgmid": "/g/11wfs6t3bx"
  },
  {
    "title": "chitizmultipurposesaving",
    "price": null,
    "categoryName": "Cooperative bank",
    "address": "MC7C+99X, Bhaktapur 44800, Nepal",
    "neighborhood": "Katunje",
    "street": "MC7C+99X",
    "city": "Bhaktapur",
    "postalCode": "44800",
    "state": null,
    "countryCode": "NP",
    "claimThisBusiness": true,
    "location": {
      "lat": 27.6634863,
      "lng": 85.4209781
    },
    "permanentlyClosed": false,
    "temporarilyClosed": false,
    "placeId": "ChIJN2aJ-OQb6zkRyq7_ViO-DGM",
    "categories": [
      "Cooperative bank"
    ],
    "fid": "0x39eb1be4f8896637:0x630cbe2356ffaeca",
    "cid": "7137288568468123338",
    "reviewsCount": 0,
    "imagesCount": 1,
    "imageCategories": [],
    "scrapedAt": "2025-11-14T10:23:38.133Z",
    "googleFoodUrl": null,
    "hotelAds": [],
    "openingHours": [],
    "peopleAlsoSearch": [],
    "placesTags": [],
    "reviewsTags": [],
    "gasPrices": [],
    "url": "https://www.google.com/maps/search/?api=1&query=chitizmultipurposesaving&query_place_id=ChIJN2aJ-OQb6zkRyq7_ViO-DGM",
    "searchPageUrl": "https://www.google.com/maps/search/bank/@27.665717100000002,85.4234071,17.827546892692972z?hl=en",
    "searchString": "bank",
    "language": "en",
    "rank": 20,
    "isAdvertisement": false,
    "imageUrl": "https://streetviewpixels-pa.googleapis.com/v1/thumbnail?panoid=BW744HdfpLR1P92QksXL1g&cb_client=search.gws-prod.gps&w=408&h=240&yaw=159.08418&pitch=0&thumbfov=100",
    "kgmid": "/g/11pv2_f0ns"
  },
  {
    "title": "Jimmewari Multipurpose Co-operative Ltd.",
    "price": null,
    "categoryName": "Cooperative bank",
    "address": "Bhaktapur 44600, Nepal",
    "neighborhood": "Katunje",
    "street": null,
    "city": "Bhaktapur",
    "postalCode": "44600",
    "state": null,
    "countryCode": "NP",
    "phone": "+977 1-5920445",
    "phoneUnformatted": "+97715920445",
    "claimThisBusiness": false,
    "location": {
      "lat": 27.6657895,
      "lng": 85.4212289
    },
    "totalScore": 3,
    "permanentlyClosed": false,
    "temporarilyClosed": false,
    "placeId": "ChIJ8ydlzx4b6zkRKup_2Dpbe2U",
    "categories": [
      "Cooperative bank"
    ],
    "fid": "0x39eb1b1ecf6527f3:0x657b5b3ad87fea2a",
    "cid": "7312538728264624682",
    "reviewsCount": 1,
    "reviewsDistribution": {
      "oneStar": 0,
      "twoStar": 0,
      "threeStar": 1,
      "fourStar": 0,
      "fiveStar": 0
    },
    "imagesCount": 3,
    "imageCategories": [],
    "scrapedAt": "2025-11-14T10:23:38.627Z",
    "googleFoodUrl": null,
    "hotelAds": [],
    "openingHours": [
      {
        "day": "Monday",
        "hours": "10 AM to 5 PM"
      },
      {
        "day": "Tuesday",
        "hours": "10 AM to 5 PM"
      },
      {
        "day": "Wednesday",
        "hours": "10 AM to 5 PM"
      },
      {
        "day": "Thursday",
        "hours": "10 AM to 5 PM"
      },
      {
        "day": "Friday",
        "hours": "10 AM to 3 PM"
      },
      {
        "day": "Saturday",
        "hours": "Closed"
      },
      {
        "day": "Sunday",
        "hours": "10 AM to 5 PM"
      }
    ],
    "peopleAlsoSearch": [],
    "placesTags": [],
    "reviewsTags": [],
    "gasPrices": [],
    "url": "https://www.google.com/maps/search/?api=1&query=Jimmewari%20Multipurpose%20Co-operative%20Ltd.&query_place_id=ChIJ8ydlzx4b6zkRKup_2Dpbe2U",
    "searchPageUrl": "https://www.google.com/maps/search/bank/@27.6656829,85.4212152,17.827547344148588z?hl=en",
    "searchString": "bank",
    "language": "en",
    "rank": 35,
    "isAdvertisement": false,
    "imageUrl": "https://lh3.googleusercontent.com/p/AF1QipPMsDzCt9Hx1PFiSTFSdplCctI4FM-UYmeFaR_l=w408-h306-k-no",
    "kgmid": "/g/11ldv81rqs"
  },
  {
    "title": "Sarbashree SAAKOSH",
    "price": null,
    "categoryName": "Cooperative bank",
    "address": "MC7C+MFV, Suryabinayak 44800, Nepal",
    "neighborhood": "Katunje",
    "street": "MC7C+MFV",
    "city": "Suryabinayak",
    "postalCode": "44800",
    "state": null,
    "countryCode": "NP",
    "website": "http://sarbashreecooperative.com.np/",
    "claimThisBusiness": true,
    "location": {
      "lat": 27.6642456,
      "lng": 85.4211767
    },
    "permanentlyClosed": false,
    "temporarilyClosed": false,
    "placeId": "ChIJ986xIwAb6zkRXTQ202EZLfQ",
    "categories": [
      "Cooperative bank"
    ],
    "fid": "0x39eb1b0023b1cef7:0xf42d1961d336345d",
    "cid": "17594747227152462941",
    "reviewsCount": 0,
    "imagesCount": 1,
    "imageCategories": [],
    "scrapedAt": "2025-11-14T10:23:38.627Z",
    "googleFoodUrl": null,
    "hotelAds": [],
    "openingHours": [],
    "peopleAlsoSearch": [],
    "placesTags": [],
    "reviewsTags": [],
    "gasPrices": [],
    "url": "https://www.google.com/maps/search/?api=1&query=Sarbashree%20SAAKOSH&query_place_id=ChIJ986xIwAb6zkRXTQ202EZLfQ",
    "searchPageUrl": "https://www.google.com/maps/search/bank/@27.6656829,85.4212152,17.827547344148588z?hl=en",
    "searchString": "bank",
    "language": "en",
    "rank": 37,
    "isAdvertisement": false,
    "imageUrl": "https://streetviewpixels-pa.googleapis.com/v1/thumbnail?panoid=wb-zkIUE1lrjDWwaRK3_AQ&cb_client=search.gws-prod.gps&w=408&h=240&yaw=336.42407&pitch=0&thumbfov=100",
    "kgmid": "/g/11m6p8tw0j"
  },
  {
    "title": "Samyukta Multipurpose Cooperative Ltd.",
    "price": null,
    "categoryName": "Cooperative bank",
    "address": "MC8G+3VR, Suryabinayak 44800, Nepal",
    "neighborhood": "Sipadol",
    "street": "MC8G+3VR",
    "city": "Suryabinayak",
    "postalCode": null,
    "state": null,
    "countryCode": "NP",
    "phone": "+977 1-6620750",
    "phoneUnformatted": "+97716620750",
    "claimThisBusiness": true,
    "location": {
      "lat": 27.6652346,
      "lng": 85.4271415
    },
    "permanentlyClosed": false,
    "temporarilyClosed": false,
    "placeId": "ChIJR4wBs1ob6zkReoAZcOIake0",
    "categories": [
      "Cooperative bank"
    ],
    "fid": "0x39eb1b5ab3018c47:0xed911ae27019807a",
    "cid": "17118493218457616506",
    "reviewsCount": 0,
    "imagesCount": 5,
    "imageCategories": [],
    "scrapedAt": "2025-11-14T10:23:39.307Z",
    "googleFoodUrl": null,
    "hotelAds": [],
    "openingHours": [],
    "peopleAlsoSearch": [],
    "placesTags": [],
    "reviewsTags": [],
    "gasPrices": [],
    "url": "https://www.google.com/maps/search/?api=1&query=Samyukta%20Multipurpose%20Cooperative%20Ltd.&query_place_id=ChIJR4wBs1ob6zkReoAZcOIake0",
    "searchPageUrl": "https://www.google.com/maps/search/bank/@27.6654078,85.42761195,17.827550975570364z?hl=en",
    "searchString": "bank",
    "language": "en",
    "rank": 44,
    "isAdvertisement": false,
    "imageUrl": "https://lh3.googleusercontent.com/gps-cs-s/AG0ilSxQB52zdXAURODyZfDgjX3iJ5HpBmQgEWa-vVJf5qBTBm3k0P-IIbCME-wrKA7I555xzNybhl7ykf3Rk8Tnc8tVbThDiFvB2lY6pAk53vwy8gx_8i9t7jQlqnI2AzoWcgENgjTD_A=w408-h544-k-no",
    "kgmid": "/g/11kss4t2m9"
  },
  {
    "title": "Paripurna Multipurpose Co. Ltd",
    "price": null,
    "categoryName": "Cooperative bank",
    "address": "MCFG+GVW Radhe radhe, Bhaktapur 44800, Nepal",
    "neighborhood": null,
    "street": "MCFG+GVW Radhe radhe",
    "city": "Bhaktapur",
    "postalCode": "44800",
    "state": null,
    "countryCode": "NP",
    "website": "https://www.facebook.com/Paripurna-Multipurpose-Co-Ltd-106065431820786",
    "claimThisBusiness": true,
    "location": {
      "lat": 27.6738729,
      "lng": 85.4272013
    },
    "permanentlyClosed": false,
    "temporarilyClosed": false,
    "placeId": "ChIJsSgCYasb6zkR9Tsovii8m04",
    "categories": [
      "Cooperative bank"
    ],
    "fid": "0x39eb1bab610228b1:0x4e9bbc28be283bf5",
    "cid": "5664327839523552245",
    "reviewsCount": 0,
    "imagesCount": 2,
    "imageCategories": [],
    "scrapedAt": "2025-11-14T10:23:45.919Z",
    "googleFoodUrl": null,
    "hotelAds": [],
    "openingHours": [
      {
        "day": "Monday",
        "hours": "9 AM to 6 PM"
      },
      {
        "day": "Tuesday",
        "hours": "9 AM to 6 PM"
      },
      {
        "day": "Wednesday",
        "hours": "9 AM to 6 PM"
      },
      {
        "day": "Thursday",
        "hours": "6 AM to 6 PM"
      },
      {
        "day": "Friday",
        "hours": "9 AM to 6 PM"
      },
      {
        "day": "Saturday",
        "hours": "Closed"
      },
      {
        "day": "Sunday",
        "hours": "9 AM to 6 PM"
      }
    ],
    "peopleAlsoSearch": [],
    "placesTags": [],
    "reviewsTags": [],
    "gasPrices": [],
    "url": "https://www.google.com/maps/search/?api=1&query=Paripurna%20Multipurpose%20Co.%20Ltd&query_place_id=ChIJsSgCYasb6zkR9Tsovii8m04",
    "searchPageUrl": "https://www.google.com/maps/search/bank/@27.67510283333333,85.42904786666666,17.82742297195923z?hl=en",
    "searchString": "bank",
    "language": "en",
    "rank": 20,
    "isAdvertisement": false,
    "imageUrl": "https://lh3.googleusercontent.com/gps-cs-s/AG0ilSyYCqvBFJghsmTrNWuYy03G5l-4xjdZG87zi6RJzBM6vjnnOrdZmrbSPhu-F3C6GRH48m9sn-6GoxnY_KjQ_5SDxdtjnHQfK8rwUs6CorJENnlwYPnqqYJ68CAexrWj9622OHSw=w408-h544-k-no",
    "kgmid": "/g/11p11c84bf"
  },
  {
    "title": "थालाछें बचत तथा ऋण सहकारी संस्था लिमिटेड",
    "price": null,
    "categoryName": "Cooperative bank",
    "address": "MCFM+P46, थालाछें टोल सडक, Bhaktapur 44800, Nepal",
    "neighborhood": null,
    "street": "MCFM+P46, थालाछें टोल सडक",
    "city": "Bhaktapur",
    "postalCode": "44800",
    "state": null,
    "countryCode": "NP",
    "phone": "+977 1-6616580",
    "phoneUnformatted": "+97716616580",
    "claimThisBusiness": true,
    "location": {
      "lat": 27.6742856,
      "lng": 85.4327744
    },
    "totalScore": 4,
    "permanentlyClosed": false,
    "temporarilyClosed": false,
    "placeId": "ChIJbY6kIrIa6zkR9XcO88LSGjg",
    "categories": [
      "Cooperative bank",
      "Cooperative"
    ],
    "fid": "0x39eb1ab222a48e6d:0x381ad2c2f30e77f5",
    "cid": "4042775350261741557",
    "reviewsCount": 1,
    "reviewsDistribution": {
      "oneStar": 0,
      "twoStar": 0,
      "threeStar": 0,
      "fourStar": 1,
      "fiveStar": 0
    },
    "imagesCount": 7,
    "imageCategories": [],
    "scrapedAt": "2025-11-14T08:26:33.764Z",
    "googleFoodUrl": null,
    "hotelAds": [],
    "openingHours": [
      {
        "day": "Monday",
        "hours": "7 AM to 3 PM"
      },
      {
        "day": "Tuesday",
        "hours": "7 AM to 3 PM"
      },
      {
        "day": "Wednesday",
        "hours": "7 AM to 3 PM"
      },
      {
        "day": "Thursday",
        "hours": "7 AM to 3 PM"
      },
      {
        "day": "Friday",
        "hours": "7 AM to 1 PM"
      },
      {
        "day": "Saturday",
        "hours": "Closed"
      },
      {
        "day": "Sunday",
        "hours": "7 AM to 3 PM"
      }
    ],
    "peopleAlsoSearch": [],
    "placesTags": [],
    "reviewsTags": [],
    "gasPrices": [],
    "url": "https://www.google.com/maps/search/?api=1&query=%E0%A4%A5%E0%A4%BE%E0%A4%B2%E0%A4%BE%E0%A4%9B%E0%A5%87%E0%A4%82%20%E0%A4%AC%E0%A4%9A%E0%A4%A4%20%E0%A4%A4%E0%A4%A5%E0%A4%BE%20%E0%A4%8B%E0%A4%A3%20%E0%A4%B8%E0%A4%B9%E0%A4%95%E0%A4%BE%E0%A4%B0%E0%A5%80%20%E0%A4%B8%E0%A4%82%E0%A4%B8%E0%A5%8D%E0%A4%A5%E0%A4%BE%20%E0%A4%B2%E0%A4%BF%E0%A4%AE%E0%A4%BF%E0%A4%9F%E0%A5%87%E0%A4%A1&query_place_id=ChIJbY6kIrIa6zkR9XcO88LSGjg",
    "searchPageUrl": "https://www.google.com/maps/search/bank/@27.67530454090198,85.4386817269883,17z?hl=en",
    "searchString": "bank",
    "language": "en",
    "rank": 39,
    "isAdvertisement": false,
    "imageUrl": "https://lh3.googleusercontent.com/gps-proxy/ALd4DhH2KgUhJySSmx0xhqWoicza1LuQtSLei2YEwxJPF__5AOhLM5aR8IR9bWUKlINfiwGx6jDaxEDFMjpoXZMwGwCpG-eIoTcGzD8Gj9TQ0f2EoAzBuEThhIAZ_gzbfQtsFBBnn6ajeZtf4mQmP9xqJyeEiPdjuhD6VoB3gHRQkfqd_JakIOlOdh6kKw4s1eyvKjNBD04=w408-h306-k-no",
    "kgmid": "/g/11b6q90kl5"
  },
  {
    "title": "Sukunda Saving & Credit Co-operative",
    "subTitle": "सुकुन्दा बचत तथा ऋण सहकारी",
    "price": null,
    "categoryName": "Cooperative bank",
    "address": "Araniko Highway, Bhaktapur 44800, Nepal",
    "neighborhood": null,
    "street": "Araniko Highway",
    "city": "Bhaktapur",
    "postalCode": "44800",
    "state": null,
    "countryCode": "NP",
    "website": "https://www.facebook.com/sukunda.saccos.9",
    "phone": "+977 1-6611200",
    "phoneUnformatted": "+97716611200",
    "claimThisBusiness": false,
    "location": {
      "lat": 27.6666377,
      "lng": 85.435941
    },
    "totalScore": 5,
    "permanentlyClosed": false,
    "temporarilyClosed": false,
    "placeId": "ChIJBUaJFKsa6zkR775XQuPawg4",
    "categories": [
      "Cooperative bank"
    ],
    "fid": "0x39eb1aab14894605:0xec2dae34257beef",
    "cid": "1063653131618336495",
    "reviewsCount": 1,
    "imagesCount": 13,
    "imageCategories": [],
    "scrapedAt": "2025-11-14T08:27:05.600Z",
    "googleFoodUrl": null,
    "hotelAds": [],
    "openingHours": [
      {
        "day": "Monday",
        "hours": "10 AM to 5 PM"
      },
      {
        "day": "Tuesday",
        "hours": "10 AM to 5 PM"
      },
      {
        "day": "Wednesday",
        "hours": "10 AM to 5 PM"
      },
      {
        "day": "Thursday",
        "hours": "10 AM to 5 PM"
      },
      {
        "day": "Friday",
        "hours": "10 AM to 4 PM"
      },
      {
        "day": "Saturday",
        "hours": "7 to 10 AM"
      },
      {
        "day": "Sunday",
        "hours": "10 AM to 5 PM"
      }
    ],
    "peopleAlsoSearch": [],
    "placesTags": [],
    "reviewsTags": [],
    "gasPrices": [],
    "url": "https://www.google.com/maps/search/?api=1&query=Sukunda%20Saving%20%26%20Credit%20Co-operative&query_place_id=ChIJBUaJFKsa6zkR775XQuPawg4",
    "searchPageUrl": "https://www.google.com/maps/search/bank/@27.667695459098024,85.4386817269883,17z?hl=en",
    "searchString": "bank",
    "language": "en",
    "rank": 9,
    "isAdvertisement": false,
    "imageUrl": "https://lh3.googleusercontent.com/gps-proxy/ALd4DhFG81Z2HJPIwolPkivFTnZVer1LcIf4Vi6uR8MkOFBxrmNpfLSXQHc0O5DW-IWcsO-Udj1YkSESx22aTWg0KgGSQFPYRyG9XAQbkbLQjo6nIFqXOXgLnGs-CDDR3X6aQI5qDdgZxpUtrqwkUHNhbDq9JaO9MpO1_UVne0HTe1Bxu99o7-7cXZ-Jb5ImT0YuCWCKTv0=w408-h306-k-no",
    "kgmid": "/g/11b6p0685d"
  },
  {
    "title": "Ambe Savings & Credit Co-operative Ltd",
    "price": null,
    "categoryName": "Cooperative bank",
    "address": "MC9Q+W4J, Garud Kundal Road, Bhaktapur 44800, Nepal",
    "neighborhood": null,
    "street": "MC9Q+W4J, Garud Kundal Road",
    "city": "Bhaktapur",
    "postalCode": "44800",
    "state": null,
    "countryCode": "NP",
    "claimThisBusiness": true,
    "location": {
      "lat": 27.6698038,
      "lng": 85.4378043
    },
    "totalScore": 1,
    "permanentlyClosed": false,
    "temporarilyClosed": false,
    "placeId": "ChIJX0HRDv4F6zkRaSBnFXJQexE",
    "categories": [
      "Cooperative bank"
    ],
    "fid": "0x39eb05fe0ed1415f:0x117b507215672069",
    "cid": "1259688971695759465",
    "reviewsCount": 1,
    "imagesCount": 2,
    "imageCategories": [],
    "scrapedAt": "2025-11-14T08:27:05.600Z",
    "googleFoodUrl": null,
    "hotelAds": [],
    "openingHours": [],
    "peopleAlsoSearch": [],
    "placesTags": [],
    "reviewsTags": [],
    "gasPrices": [],
    "url": "https://www.google.com/maps/search/?api=1&query=Ambe%20Savings%20%26%20Credit%20Co-operative%20Ltd&query_place_id=ChIJX0HRDv4F6zkRaSBnFXJQexE",
    "searchPageUrl": "https://www.google.com/maps/search/bank/@27.667695459098024,85.4386817269883,17z?hl=en",
    "searchString": "bank",
    "language": "en",
    "rank": 12,
    "isAdvertisement": false,
    "imageUrl": "https://streetviewpixels-pa.googleapis.com/v1/thumbnail?panoid=NEIYAZ7f_0RJ0wreuKt9ZA&cb_client=search.gws-prod.gps&w=408&h=240&yaw=282.32294&pitch=0&thumbfov=100",
    "kgmid": "/g/11ty4lc3fy"
  },
  {
    "title": "Susandesh Multipurpose Co-operative Limited",
    "price": null,
    "categoryName": "Cooperative bank",
    "address": "Jagati banepa RoadMCFR+FH7, Bhaktapur 44800, Nepal",
    "neighborhood": "Sipadol",
    "street": "Jagati banepa RoadMCFR+FH7",
    "city": "Bhaktapur",
    "postalCode": "44800",
    "state": null,
    "countryCode": "NP",
    "phone": "+977 1-6613370",
    "phoneUnformatted": "+97716613370",
    "claimThisBusiness": true,
    "location": {
      "lat": 27.6661946,
      "lng": 85.4375785
    },
    "totalScore": 5,
    "permanentlyClosed": false,
    "temporarilyClosed": false,
    "placeId": "ChIJu0UVy7cF6zkRV7Hr-Uapr7Q",
    "categories": [
      "Cooperative bank"
    ],
    "fid": "0x39eb05b7cb1545bb:0xb4afa946f9ebb157",
    "cid": "13019811170057171287",
    "reviewsCount": 2,
    "imagesCount": 1,
    "imageCategories": [],
    "scrapedAt": "2025-11-14T08:27:05.600Z",
    "googleFoodUrl": null,
    "hotelAds": [],
    "openingHours": [
      {
        "day": "Monday",
        "hours": "10:30 AM to 2:30 PM"
      },
      {
        "day": "Tuesday",
        "hours": "10:30 AM to 2:30 PM"
      },
      {
        "day": "Wednesday",
        "hours": "10:30 AM to 2:30 PM"
      },
      {
        "day": "Thursday",
        "hours": "10:30 AM to 2:30 PM"
      },
      {
        "day": "Friday",
        "hours": "10:30 AM to 1 PM"
      },
      {
        "day": "Saturday",
        "hours": "Closed"
      },
      {
        "day": "Sunday",
        "hours": "10:30 AM to 2:30 PM"
      }
    ],
    "peopleAlsoSearch": [],
    "placesTags": [],
    "reviewsTags": [],
    "additionalInfo": {
      "Service options": [
        {
          "Drive-through": true
        }
      ]
    },
    "gasPrices": [],
    "url": "https://www.google.com/maps/search/?api=1&query=Susandesh%20Multipurpose%20Co-operative%20Limited&query_place_id=ChIJu0UVy7cF6zkRV7Hr-Uapr7Q",
    "searchPageUrl": "https://www.google.com/maps/search/bank/@27.667695459098024,85.4386817269883,17z?hl=en",
    "searchString": "bank",
    "language": "en",
    "rank": 16,
    "isAdvertisement": false,
    "imageUrl": "https://streetviewpixels-pa.googleapis.com/v1/thumbnail?panoid=qlBkA_vt1Cxop93AnFvtlQ&cb_client=search.gws-prod.gps&w=408&h=240&yaw=187.3651&pitch=0&thumbfov=100",
    "kgmid": "/g/11p5jx2ppr"
  },
  {
    "title": "chitizmultipurposesaving",
    "price": null,
    "categoryName": "Cooperative bank",
    "address": "MC7C+99X, Bhaktapur 44800, Nepal",
    "neighborhood": "Katunje",
    "street": "MC7C+99X",
    "city": "Bhaktapur",
    "postalCode": "44800",
    "state": null,
    "countryCode": "NP",
    "claimThisBusiness": true,
    "location": {
      "lat": 27.6634863,
      "lng": 85.4209781
    },
    "permanentlyClosed": false,
    "temporarilyClosed": false,
    "placeId": "ChIJN2aJ-OQb6zkRyq7_ViO-DGM",
    "categories": [
      "Cooperative bank"
    ],
    "fid": "0x39eb1be4f8896637:0x630cbe2356ffaeca",
    "cid": "7137288568468123338",
    "reviewsCount": 0,
    "imagesCount": 1,
    "imageCategories": [],
    "scrapedAt": "2025-11-14T08:27:24.704Z",
    "googleFoodUrl": null,
    "hotelAds": [],
    "openingHours": [],
    "peopleAlsoSearch": [],
    "placesTags": [],
    "reviewsTags": [],
    "gasPrices": [],
    "url": "https://www.google.com/maps/search/?api=1&query=chitizmultipurposesaving&query_place_id=ChIJN2aJ-OQb6zkRyq7_ViO-DGM",
    "searchPageUrl": "https://www.google.com/maps/search/bank/@27.660086377294068,85.42150000000001,17z?hl=en",
    "searchString": "bank",
    "language": "en",
    "rank": 16,
    "isAdvertisement": false,
    "imageUrl": "https://streetviewpixels-pa.googleapis.com/v1/thumbnail?panoid=BW744HdfpLR1P92QksXL1g&cb_client=search.gws-prod.gps&w=408&h=240&yaw=159.08418&pitch=0&thumbfov=100",
    "kgmid": "/g/11pv2_f0ns"
  },
  {
    "title": "Bhaktapur District SACCOS",
    "price": null,
    "categoryName": "Cooperative bank",
    "address": "MC7H+WWC, Suryabinayak 44800, Nepal",
    "neighborhood": "Sipadol",
    "street": "MC7H+WWC",
    "city": "Suryabinayak",
    "postalCode": "44800",
    "state": null,
    "countryCode": "NP",
    "website": "http://www.bhaktapurdcu.coop.np/",
    "phone": "+977 1-5092556",
    "phoneUnformatted": "+97715092556",
    "claimThisBusiness": true,
    "location": {
      "lat": 27.6641754,
      "lng": 85.4295811
    },
    "totalScore": 5,
    "permanentlyClosed": false,
    "temporarilyClosed": false,
    "placeId": "ChIJr-iFs6ca6zkRZTll9m3THBs",
    "categories": [
      "Cooperative bank"
    ],
    "fid": "0x39eb1aa7b385e8af:0x1b1cd36df6653965",
    "cid": "1953668807610677605",
    "reviewsCount": 2,
    "imagesCount": 4,
    "imageCategories": [],
    "scrapedAt": "2025-11-14T08:27:38.450Z",
    "googleFoodUrl": null,
    "hotelAds": [],
    "openingHours": [
      {
        "day": "Monday",
        "hours": "10 AM to 5 PM"
      },
      {
        "day": "Tuesday",
        "hours": "10 AM to 5 PM"
      },
      {
        "day": "Wednesday",
        "hours": "10 AM to 5 PM"
      },
      {
        "day": "Thursday",
        "hours": "10 AM to 5 PM"
      },
      {
        "day": "Friday",
        "hours": "10 AM to 5 PM"
      },
      {
        "day": "Saturday",
        "hours": "Closed"
      },
      {
        "day": "Sunday",
        "hours": "10 AM to 5 PM"
      }
    ],
    "peopleAlsoSearch": [],
    "placesTags": [],
    "reviewsTags": [],
    "gasPrices": [],
    "url": "https://www.google.com/maps/search/?api=1&query=Bhaktapur%20District%20SACCOS&query_place_id=ChIJr-iFs6ca6zkRZTll9m3THBs",
    "searchPageUrl": "https://www.google.com/maps/search/bank/@27.660086377294068,85.43009086349416,17z?hl=en",
    "searchString": "bank",
    "language": "en",
    "rank": 8,
    "isAdvertisement": false,
    "imageUrl": "https://lh3.googleusercontent.com/gps-cs-s/AG0ilSxC0Q2lFfYqYt23TknH_oeSIk1udTfkU9lNPBNUzLCBsajD653ojFjuZk51nSnTTlYq2GEOVJuJVWX-xa3HrWBHgmnmqqeXj2JPLmS3Kv-7MZ0RgbXSKnYbEeYXHisGPad7FuDcQQ=w408-h544-k-no",
    "kgmid": "/g/11hbkybjw0"
  },
  {
    "title": "Jimmewari Multipurpose Co-operative Ltd.",
    "price": null,
    "categoryName": "Cooperative bank",
    "address": "Bhaktapur 44600, Nepal",
    "neighborhood": "Katunje",
    "street": null,
    "city": "Bhaktapur",
    "postalCode": "44600",
    "state": null,
    "countryCode": "NP",
    "phone": "+977 1-5920445",
    "phoneUnformatted": "+97715920445",
    "claimThisBusiness": false,
    "location": {
      "lat": 27.6657895,
      "lng": 85.4212289
    },
    "totalScore": 3,
    "permanentlyClosed": false,
    "temporarilyClosed": false,
    "placeId": "ChIJ8ydlzx4b6zkRKup_2Dpbe2U",
    "categories": [
      "Cooperative bank"
    ],
    "fid": "0x39eb1b1ecf6527f3:0x657b5b3ad87fea2a",
    "cid": "7312538728264624682",
    "reviewsCount": 1,
    "reviewsDistribution": {
      "oneStar": 0,
      "twoStar": 0,
      "threeStar": 1,
      "fourStar": 0,
      "fiveStar": 0
    },
    "imagesCount": 3,
    "imageCategories": [],
    "scrapedAt": "2025-11-14T08:27:40.670Z",
    "googleFoodUrl": null,
    "hotelAds": [],
    "openingHours": [
      {
        "day": "Monday",
        "hours": "10 AM to 5 PM"
      },
      {
        "day": "Tuesday",
        "hours": "10 AM to 5 PM"
      },
      {
        "day": "Wednesday",
        "hours": "10 AM to 5 PM"
      },
      {
        "day": "Thursday",
        "hours": "10 AM to 5 PM"
      },
      {
        "day": "Friday",
        "hours": "10 AM to 3 PM"
      },
      {
        "day": "Saturday",
        "hours": "Closed"
      },
      {
        "day": "Sunday",
        "hours": "10 AM to 5 PM"
      }
    ],
    "peopleAlsoSearch": [],
    "placesTags": [],
    "reviewsTags": [],
    "gasPrices": [],
    "url": "https://www.google.com/maps/search/?api=1&query=Jimmewari%20Multipurpose%20Co-operative%20Ltd.&query_place_id=ChIJ8ydlzx4b6zkRKup_2Dpbe2U",
    "searchPageUrl": "https://www.google.com/maps/search/bank/@27.667695459098024,85.42150000000001,17z?hl=en",
    "searchString": "bank",
    "language": "en",
    "rank": 39,
    "isAdvertisement": false,
    "imageUrl": "https://lh3.googleusercontent.com/p/AF1QipPMsDzCt9Hx1PFiSTFSdplCctI4FM-UYmeFaR_l=w408-h306-k-no",
    "kgmid": "/g/11ldv81rqs"
  },
  {
    "title": "Kuber Saccos",
    "price": null,
    "categoryName": "Cooperative bank",
    "address": "101 Araniko Highway, Bhaktapur 44800, Nepal",
    "neighborhood": null,
    "street": "101 Araniko Highway",
    "city": "Bhaktapur",
    "postalCode": "44800",
    "state": null,
    "countryCode": "NP",
    "phone": "+977 1-6619817",
    "phoneUnformatted": "+97716619817",
    "claimThisBusiness": true,
    "location": {
      "lat": 27.6675869,
      "lng": 85.423819
    },
    "totalScore": 5,
    "permanentlyClosed": false,
    "temporarilyClosed": false,
    "placeId": "ChIJ18sSnKYa6zkR1oz3HzsTzTs",
    "categories": [
      "Cooperative bank"
    ],
    "fid": "0x39eb1aa69c12cbd7:0x3bcd133b1ff78cd6",
    "cid": "4309121563123748054",
    "reviewsCount": 2,
    "reviewsDistribution": {
      "oneStar": 0,
      "twoStar": 0,
      "threeStar": 0,
      "fourStar": 0,
      "fiveStar": 2
    },
    "imagesCount": 3,
    "imageCategories": [],
    "scrapedAt": "2025-11-14T08:27:41.356Z",
    "googleFoodUrl": null,
    "hotelAds": [],
    "openingHours": [
      {
        "day": "Monday",
        "hours": "11 AM to 5 PM"
      },
      {
        "day": "Tuesday",
        "hours": "11 AM to 5 PM"
      },
      {
        "day": "Wednesday",
        "hours": "11 AM to 5 PM"
      },
      {
        "day": "Thursday",
        "hours": "11 AM to 5 PM"
      },
      {
        "day": "Friday",
        "hours": "11 AM to 5 PM"
      },
      {
        "day": "Saturday",
        "hours": "Closed"
      },
      {
        "day": "Sunday",
        "hours": "11 AM to 5 PM"
      }
    ],
    "peopleAlsoSearch": [],
    "placesTags": [],
    "reviewsTags": [],
    "gasPrices": [],
    "url": "https://www.google.com/maps/search/?api=1&query=Kuber%20Saccos&query_place_id=ChIJ18sSnKYa6zkR1oz3HzsTzTs",
    "searchPageUrl": "https://www.google.com/maps/search/bank/@27.667695459098024,85.42150000000001,17z?hl=en",
    "searchString": "bank",
    "language": "en",
    "rank": 41,
    "isAdvertisement": false,
    "imageUrl": "https://lh3.googleusercontent.com/gps-proxy/ALd4DhExyILz_1E9zsNGz3SwewlrAzltQsB80rUwr8bQ8WiafJhN-nv1gQIlIkzZfo5-Md-YhkxW_7xziGGiIykKlFTcli-FWrNvEqX_4LmNkgLEuqKUw_YS9tpIBL6GDxKiZjBdFSM_vIe2wby5qfdC9nZ_wESFCYlZ93h-8kMceGM9uhLpR23dyNvARVymUeeCX89GFyk=w408-h306-k-no",
    "kgmid": "/g/11g6nk7357"
  },
  {
    "title": "Samuhik SACCOS",
    "subTitle": "सामूहिक बचत तथा ऋण सहकारी",
    "price": null,
    "categoryName": "Cooperative bank",
    "address": "03 Bolachhen, Bhaktapur 44800, Nepal",
    "neighborhood": null,
    "street": "03 Bolachhen",
    "city": "Bhaktapur",
    "postalCode": "44800",
    "state": null,
    "countryCode": "NP",
    "website": "https://www.samuhik.coop.np/",
    "phone": "+977 1-6613512",
    "phoneUnformatted": "+97716613512",
    "claimThisBusiness": false,
    "location": {
      "lat": 27.6703149,
      "lng": 85.4279855
    },
    "totalScore": 4,
    "permanentlyClosed": false,
    "temporarilyClosed": false,
    "placeId": "ChIJMWqtca8a6zkRwJqrhly-Reg",
    "categories": [
      "Cooperative bank"
    ],
    "fid": "0x39eb1aaf71ad6a31:0xe845be5c86ab9ac0",
    "cid": "16736992894797978304",
    "reviewsCount": 1,
    "reviewsDistribution": {
      "oneStar": 0,
      "twoStar": 0,
      "threeStar": 0,
      "fourStar": 1,
      "fiveStar": 0
    },
    "imagesCount": 2,
    "imageCategories": [],
    "scrapedAt": "2025-11-14T08:27:41.356Z",
    "googleFoodUrl": null,
    "hotelAds": [],
    "openingHours": [
      {
        "day": "Monday",
        "hours": "9 AM to 5 PM"
      },
      {
        "day": "Tuesday",
        "hours": "9 AM to 5 PM"
      },
      {
        "day": "Wednesday",
        "hours": "9 AM to 5 PM"
      },
      {
        "day": "Thursday",
        "hours": "9 AM to 5 PM"
      },
      {
        "day": "Friday",
        "hours": "9 AM to 5 PM"
      },
      {
        "day": "Saturday",
        "hours": "7 to 10:30 AM"
      },
      {
        "day": "Sunday",
        "hours": "9 AM to 5 PM"
      }
    ],
    "peopleAlsoSearch": [],
    "placesTags": [],
    "reviewsTags": [],
    "additionalInfo": {
      "Amenities": [
        {
          "Gender-neutral restroom": true
        }
      ]
    },
    "gasPrices": [],
    "url": "https://www.google.com/maps/search/?api=1&query=Samuhik%20SACCOS&query_place_id=ChIJMWqtca8a6zkRwJqrhly-Reg",
    "searchPageUrl": "https://www.google.com/maps/search/bank/@27.667695459098024,85.42150000000001,17z?hl=en",
    "searchString": "bank",
    "language": "en",
    "rank": 46,
    "isAdvertisement": false,
    "imageUrl": "https://streetviewpixels-pa.googleapis.com/v1/thumbnail?panoid=FMgIyf3kDZUJNNpFbWjzfg&cb_client=search.gws-prod.gps&w=408&h=240&yaw=153.08319&pitch=0&thumbfov=100",
    "kgmid": "/g/11b6p_wxr3"
  },
  {
    "title": "Sarbashree SAAKOSH",
    "price": null,
    "categoryName": "Cooperative bank",
    "address": "MC7C+MFV, Suryabinayak 44800, Nepal",
    "neighborhood": "Katunje",
    "street": "MC7C+MFV",
    "city": "Suryabinayak",
    "postalCode": "44800",
    "state": null,
    "countryCode": "NP",
    "website": "http://sarbashreecooperative.com.np/",
    "claimThisBusiness": true,
    "location": {
      "lat": 27.6642456,
      "lng": 85.4211767
    },
    "permanentlyClosed": false,
    "temporarilyClosed": false,
    "placeId": "ChIJ986xIwAb6zkRXTQ202EZLfQ",
    "categories": [
      "Cooperative bank"
    ],
    "fid": "0x39eb1b0023b1cef7:0xf42d1961d336345d",
    "cid": "17594747227152462941",
    "reviewsCount": 0,
    "imagesCount": 1,
    "imageCategories": [],
    "scrapedAt": "2025-11-14T08:27:41.356Z",
    "googleFoodUrl": null,
    "hotelAds": [],
    "openingHours": [],
    "peopleAlsoSearch": [],
    "placesTags": [],
    "reviewsTags": [],
    "gasPrices": [],
    "url": "https://www.google.com/maps/search/?api=1&query=Sarbashree%20SAAKOSH&query_place_id=ChIJ986xIwAb6zkRXTQ202EZLfQ",
    "searchPageUrl": "https://www.google.com/maps/search/bank/@27.667695459098024,85.42150000000001,17z?hl=en",
    "searchString": "bank",
    "language": "en",
    "rank": 51,
    "isAdvertisement": false,
    "imageUrl": "https://streetviewpixels-pa.googleapis.com/v1/thumbnail?panoid=wb-zkIUE1lrjDWwaRK3_AQ&cb_client=search.gws-prod.gps&w=408&h=240&yaw=336.42407&pitch=0&thumbfov=100",
    "kgmid": "/g/11m6p8tw0j"
  },
  {
    "title": "Samyukta Multipurpose Cooperative Ltd.",
    "price": null,
    "categoryName": "Cooperative bank",
    "address": "MC8G+3VR, Suryabinayak 44800, Nepal",
    "neighborhood": "Sipadol",
    "street": "MC8G+3VR",
    "city": "Suryabinayak",
    "postalCode": null,
    "state": null,
    "countryCode": "NP",
    "phone": "+977 1-6620750",
    "phoneUnformatted": "+97716620750",
    "claimThisBusiness": true,
    "location": {
      "lat": 27.6652346,
      "lng": 85.4271415
    },
    "permanentlyClosed": false,
    "temporarilyClosed": false,
    "placeId": "ChIJR4wBs1ob6zkReoAZcOIake0",
    "categories": [
      "Cooperative bank"
    ],
    "fid": "0x39eb1b5ab3018c47:0xed911ae27019807a",
    "cid": "17118493218457616506",
    "reviewsCount": 0,
    "imagesCount": 5,
    "imageCategories": [],
    "scrapedAt": "2025-11-14T08:27:41.356Z",
    "googleFoodUrl": null,
    "hotelAds": [],
    "openingHours": [],
    "peopleAlsoSearch": [],
    "placesTags": [],
    "reviewsTags": [],
    "gasPrices": [],
    "url": "https://www.google.com/maps/search/?api=1&query=Samyukta%20Multipurpose%20Cooperative%20Ltd.&query_place_id=ChIJR4wBs1ob6zkReoAZcOIake0",
    "searchPageUrl": "https://www.google.com/maps/search/bank/@27.667695459098024,85.42150000000001,17z?hl=en",
    "searchString": "bank",
    "language": "en",
    "rank": 54,
    "isAdvertisement": false,
    "imageUrl": "https://lh3.googleusercontent.com/gps-cs-s/AG0ilSxQB52zdXAURODyZfDgjX3iJ5HpBmQgEWa-vVJf5qBTBm3k0P-IIbCME-wrKA7I555xzNybhl7ykf3Rk8Tnc8tVbThDiFvB2lY6pAk53vwy8gx_8i9t7jQlqnI2AzoWcgENgjTD_A=w408-h544-k-no",
    "kgmid": "/g/11kss4t2m9"
  },
  {
    "title": "Paripurna Multipurpose Co. Ltd",
    "price": null,
    "categoryName": "Cooperative bank",
    "address": "MCFG+GVW Radhe radhe, Bhaktapur 44800, Nepal",
    "neighborhood": null,
    "street": "MCFG+GVW Radhe radhe",
    "city": "Bhaktapur",
    "postalCode": "44800",
    "state": null,
    "countryCode": "NP",
    "website": "https://www.facebook.com/Paripurna-Multipurpose-Co-Ltd-106065431820786",
    "claimThisBusiness": true,
    "location": {
      "lat": 27.6738729,
      "lng": 85.4272013
    },
    "permanentlyClosed": false,
    "temporarilyClosed": false,
    "placeId": "ChIJsSgCYasb6zkR9Tsovii8m04",
    "categories": [
      "Cooperative bank"
    ],
    "fid": "0x39eb1bab610228b1:0x4e9bbc28be283bf5",
    "cid": "5664327839523552245",
    "reviewsCount": 0,
    "imagesCount": 2,
    "imageCategories": [],
    "scrapedAt": "2025-11-14T08:27:54.744Z",
    "googleFoodUrl": null,
    "hotelAds": [],
    "openingHours": [
      {
        "day": "Monday",
        "hours": "9 AM to 6 PM"
      },
      {
        "day": "Tuesday",
        "hours": "9 AM to 6 PM"
      },
      {
        "day": "Wednesday",
        "hours": "9 AM to 6 PM"
      },
      {
        "day": "Thursday",
        "hours": "6 AM to 6 PM"
      },
      {
        "day": "Friday",
        "hours": "9 AM to 6 PM"
      },
      {
        "day": "Saturday",
        "hours": "Closed"
      },
      {
        "day": "Sunday",
        "hours": "9 AM to 6 PM"
      }
    ],
    "peopleAlsoSearch": [],
    "placesTags": [],
    "reviewsTags": [],
    "gasPrices": [],
    "url": "https://www.google.com/maps/search/?api=1&query=Paripurna%20Multipurpose%20Co.%20Ltd&query_place_id=ChIJsSgCYasb6zkR9Tsovii8m04",
    "searchPageUrl": "https://www.google.com/maps/search/bank/@27.67530454090198,85.42150000000001,17z?hl=en",
    "searchString": "bank",
    "language": "en",
    "rank": 33,
    "isAdvertisement": false,
    "imageUrl": "https://lh3.googleusercontent.com/gps-cs-s/AG0ilSyYCqvBFJghsmTrNWuYy03G5l-4xjdZG87zi6RJzBM6vjnnOrdZmrbSPhu-F3C6GRH48m9sn-6GoxnY_KjQ_5SDxdtjnHQfK8rwUs6CorJENnlwYPnqqYJ68CAexrWj9622OHSw=w408-h544-k-no",
    "kgmid": "/g/11p11c84bf"
  },
  {
    "title": "Our Youth Group (N.B.G)",
    "price": null,
    "categoryName": "Cooperative bank",
    "address": "3 Bagmati Pardesh Bhaktapur, 44800, Nepal",
    "neighborhood": null,
    "street": "3 Bagmati Pardesh Bhaktapur",
    "city": "Bhaktapur",
    "postalCode": "44800",
    "state": null,
    "countryCode": "NP",
    "phone": "+977 986-1517660",
    "phoneUnformatted": "+9779861517660",
    "claimThisBusiness": true,
    "location": {
      "lat": 27.6738729,
      "lng": 85.4272013
    },
    "permanentlyClosed": false,
    "temporarilyClosed": false,
    "placeId": "ChIJn6K1_2Ib6zkREY3NlFkGkps",
    "categories": [
      "Cooperative bank"
    ],
    "fid": "0x39eb1b62ffb5a29f:0x9b92065994cd8d11",
    "cid": "11210029404296940817",
    "reviewsCount": 0,
    "imagesCount": 1,
    "imageCategories": [],
    "scrapedAt": "2025-11-14T08:27:54.744Z",
    "googleFoodUrl": null,
    "hotelAds": [],
    "openingHours": [
      {
        "day": "Monday",
        "hours": "10 AM to 5 PM"
      },
      {
        "day": "Tuesday",
        "hours": "10 AM to 5 PM"
      },
      {
        "day": "Wednesday",
        "hours": "10 AM to 5 PM"
      },
      {
        "day": "Thursday",
        "hours": "10 AM to 5 PM"
      },
      {
        "day": "Friday",
        "hours": "10 AM to 5 PM"
      },
      {
        "day": "Saturday",
        "hours": "Closed"
      },
      {
        "day": "Sunday",
        "hours": "10 AM to 5 PM"
      }
    ],
    "peopleAlsoSearch": [],
    "placesTags": [],
    "reviewsTags": [],
    "gasPrices": [],
    "url": "https://www.google.com/maps/search/?api=1&query=Our%20Youth%20Group%20(N.B.G)&query_place_id=ChIJn6K1_2Ib6zkREY3NlFkGkps",
    "searchPageUrl": "https://www.google.com/maps/search/bank/@27.67530454090198,85.42150000000001,17z?hl=en",
    "searchString": "bank",
    "language": "en",
    "rank": 35,
    "isAdvertisement": false,
    "imageUrl": "https://streetviewpixels-pa.googleapis.com/v1/thumbnail?panoid=U0T8W1nXdil8KVW6mGGq2g&cb_client=search.gws-prod.gps&w=408&h=240&yaw=101.72272&pitch=0&thumbfov=100",
    "kgmid": "/g/11q_5yz924"
  },
  {
    "title": "Subhakamana Saving and Credit Cooperatives Ltd. Byasi Service Counter",
    "price": null,
    "categoryName": "Cooperative bank",
    "address": "MCGH+5V8, Nagarkot Rd, Bhaktapur 44800, Nepal",
    "neighborhood": null,
    "street": "MCGH+5V8, Nagarkot Rd",
    "city": "Bhaktapur",
    "postalCode": "44800",
    "state": null,
    "countryCode": "NP",
    "claimThisBusiness": true,
    "location": {
      "lat": 27.6754579,
      "lng": 85.4297438
    },
    "permanentlyClosed": false,
    "temporarilyClosed": false,
    "placeId": "ChIJA5BCOAQb6zkRXSU8CeVV3ho",
    "categories": [
      "Cooperative bank"
    ],
    "fid": "0x39eb1b0438429003:0x1ade55e5093c255d",
    "cid": "1936079332006700381",
    "reviewsCount": 0,
    "imagesCount": 1,
    "imageCategories": [],
    "scrapedAt": "2025-11-14T08:28:11.866Z",
    "googleFoodUrl": null,
    "hotelAds": [],
    "openingHours": [],
    "peopleAlsoSearch": [],
    "placesTags": [],
    "reviewsTags": [],
    "gasPrices": [],
    "url": "https://www.google.com/maps/search/?api=1&query=Subhakamana%20Saving%20and%20Credit%20Cooperatives%20Ltd.%20Byasi%20Service%20Counter&query_place_id=ChIJA5BCOAQb6zkRXSU8CeVV3ho",
    "searchPageUrl": "https://www.google.com/maps/search/bank/@27.6742856,85.4327744,17.82743376393078z?hl=en",
    "searchString": "bank",
    "language": "en",
    "rank": 29,
    "isAdvertisement": false,
    "imageUrl": "https://streetviewpixels-pa.googleapis.com/v1/thumbnail?panoid=ThphHe1iX43hK4lFJCFF7Q&cb_client=search.gws-prod.gps&w=408&h=240&yaw=328.89456&pitch=0&thumbfov=100",
    "kgmid": "/g/11t7rz1hv7"
  },
  {
    "title": "Bhaktapur Jilla Bachat Sangh",
    "price": null,
    "categoryName": "Cooperative bank",
    "address": "MCCH+9WW, Bhaktapur 44800, Nepal",
    "neighborhood": null,
    "street": "MCCH+9WW",
    "city": "Bhaktapur",
    "postalCode": null,
    "state": null,
    "countryCode": "NP",
    "website": "http://www.bhaktapurdcu.coop.np/",
    "phone": "+977 6614305",
    "phoneUnformatted": null,
    "claimThisBusiness": true,
    "location": {
      "lat": 27.6709939,
      "lng": 85.4298429
    },
    "totalScore": 4,
    "permanentlyClosed": false,
    "temporarilyClosed": false,
    "placeId": "ChIJ3ZTpxJgb6zkRMa2Cc2Tc1k8",
    "categories": [
      "Cooperative bank"
    ],
    "fid": "0x39eb1b98c4e994dd:0x4fd6dc647382ad31",
    "cid": "5753027898005171505",
    "reviewsCount": 1,
    "imagesCount": 1,
    "imageCategories": [],
    "scrapedAt": "2025-11-14T08:28:12.801Z",
    "googleFoodUrl": null,
    "hotelAds": [],
    "openingHours": [
      {
        "day": "Monday",
        "hours": "10 AM to 5 PM"
      },
      {
        "day": "Tuesday",
        "hours": "10 AM to 5 PM"
      },
      {
        "day": "Wednesday",
        "hours": "10 AM to 5 PM"
      },
      {
        "day": "Thursday",
        "hours": "10 AM to 5 PM"
      },
      {
        "day": "Friday",
        "hours": "10 AM to 5 PM"
      },
      {
        "day": "Saturday",
        "hours": "Closed"
      },
      {
        "day": "Sunday",
        "hours": "10 AM to 5 PM"
      }
    ],
    "peopleAlsoSearch": [],
    "placesTags": [],
    "reviewsTags": [],
    "gasPrices": [],
    "url": "https://www.google.com/maps/search/?api=1&query=Bhaktapur%20Jilla%20Bachat%20Sangh&query_place_id=ChIJ3ZTpxJgb6zkRMa2Cc2Tc1k8",
    "searchPageUrl": "https://www.google.com/maps/search/bank/@27.672567766666663,85.43125703333334,17.827456447551988z?hl=en",
    "searchString": "bank",
    "language": "en",
    "rank": 13,
    "isAdvertisement": false,
    "imageUrl": "https://streetviewpixels-pa.googleapis.com/v1/thumbnail?panoid=Xiwkb2LIzRqxgf6gIkv8Jw&cb_client=search.gws-prod.gps&w=408&h=240&yaw=356.44382&pitch=0&thumbfov=100",
    "kgmid": "/g/11spzmj_b7"
  },
  {
    "title": "Itachhenbinayak SACOSS",
    "price": null,
    "categoryName": "Cooperative bank",
    "address": "MCCH+9WW, Bhaktapur 44800, Nepal",
    "neighborhood": null,
    "street": "MCCH+9WW",
    "city": "Bhaktapur",
    "postalCode": null,
    "state": null,
    "countryCode": "NP",
    "claimThisBusiness": true,
    "location": {
      "lat": 27.6709939,
      "lng": 85.4298429
    },
    "permanentlyClosed": false,
    "temporarilyClosed": false,
    "placeId": "ChIJYwZxRkAb6zkRN37JkbvRd2g",
    "categories": [
      "Cooperative bank"
    ],
    "fid": "0x39eb1b4046710663:0x6877d1bb91c97e37",
    "cid": "7527715905708064311",
    "reviewsCount": 0,
    "imagesCount": 1,
    "imageCategories": [],
    "scrapedAt": "2025-11-14T08:28:14.737Z",
    "googleFoodUrl": null,
    "hotelAds": [],
    "openingHours": [],
    "peopleAlsoSearch": [],
    "placesTags": [],
    "reviewsTags": [],
    "gasPrices": [],
    "url": "https://www.google.com/maps/search/?api=1&query=Itachhenbinayak%20SACOSS&query_place_id=ChIJYwZxRkAb6zkRN37JkbvRd2g",
    "searchPageUrl": "https://www.google.com/maps/search/bank/@27.672567766666663,85.43125703333334,17.827456447551988z?hl=en",
    "searchString": "bank",
    "language": "en",
    "rank": 36,
    "isAdvertisement": false,
    "imageUrl": "https://streetviewpixels-pa.googleapis.com/v1/thumbnail?panoid=Xiwkb2LIzRqxgf6gIkv8Jw&cb_client=search.gws-prod.gps&w=408&h=240&yaw=356.44382&pitch=0&thumbfov=100",
    "kgmid": "/g/11spwtb3r7"
  },
  {
    "title": "Sangam Saccos , Bhaktapur",
    "price": null,
    "categoryName": "Cooperative bank",
    "address": "Bhaktapur 44800, Nepal",
    "neighborhood": null,
    "street": null,
    "city": "Bhaktapur",
    "postalCode": "44800",
    "state": null,
    "countryCode": "NP",
    "phone": "+977 1-6614323",
    "phoneUnformatted": "+97716614323",
    "claimThisBusiness": false,
    "location": {
      "lat": 27.669264,
      "lng": 85.4291882
    },
    "permanentlyClosed": false,
    "temporarilyClosed": false,
    "placeId": "ChIJyYYyVF4b6zkRruqAqTL1w3A",
    "categories": [
      "Cooperative bank",
      "Corporate office"
    ],
    "fid": "0x39eb1b5e543286c9:0x70c3f532a980eaae",
    "cid": "8125607750647474862",
    "reviewsCount": 0,
    "imagesCount": 8,
    "imageCategories": [],
    "scrapedAt": "2025-11-14T08:28:50.260Z",
    "googleFoodUrl": null,
    "hotelAds": [],
    "openingHours": [
      {
        "day": "Monday",
        "hours": "7:30 AM to 2:30 PM"
      },
      {
        "day": "Tuesday",
        "hours": "7:30 AM to 2:30 PM"
      },
      {
        "day": "Wednesday",
        "hours": "7:30 AM to 2:30 PM"
      },
      {
        "day": "Thursday",
        "hours": "7:30 AM to 2:30 PM"
      },
      {
        "day": "Friday",
        "hours": "7:30 AM to 2:30 PM"
      },
      {
        "day": "Saturday",
        "hours": "7:30 to 9:30 AM"
      },
      {
        "day": "Sunday",
        "hours": "7:30 AM to 2:30 PM"
      }
    ],
    "peopleAlsoSearch": [],
    "placesTags": [],
    "reviewsTags": [],
    "gasPrices": [],
    "url": "https://www.google.com/maps/search/?api=1&query=Sangam%20Saccos%20%2C%20Bhaktapur&query_place_id=ChIJyYYyVF4b6zkRruqAqTL1w3A",
    "searchPageUrl": "https://www.google.com/maps/search/bank/@27.66994845,85.4280696,17.827491031884797z?hl=en",
    "searchString": "bank",
    "language": "en",
    "rank": 31,
    "isAdvertisement": false,
    "imageUrl": "https://lh3.googleusercontent.com/p/AF1QipMs-QDQ7RqcayO0-4-qrQ54Tk-Fqdhba0bY-vjM=w408-h306-k-no",
    "kgmid": "/g/11rkbny3vh"
  }
]