[
  {
    "title": "Deko Miba Itapake Land Pooling Project Office",
    "price": null,
    "categoryName": "City government office",
    "address": "MCFF+GGM, Bhaktapur 44800, Nepal",
    "neighborhood": null,
    "street": "MCFF+GGM",
    "city": "Bhaktapur",
    "postalCode": "44800",
    "state": null,
    "countryCode": "NP",
    "phone": "+977 1-6612401",
    "phoneUnformatted": "+97716612401",
    "claimThisBusiness": true,
    "location": {
      "lat": 27.673829,
      "lng": 85.4237908
    },
    "totalScore": 3,
    "permanentlyClosed": false,
    "temporarilyClosed": false,
    "placeId": "ChIJQ6Os0qQa6zkRsV8IWBoWjHw",
    "categories": [
      "City government office"
    ],
    "fid": "0x39eb1aa4d2aca343:0x7c8c161a58085fb1",
    "cid": "8974572459844460465",
    "reviewsCount": 3,
    "reviewsDistribution": {
      "oneStar": 1,
      "twoStar": 0,
      "threeStar": 1,
      "fourStar": 0,
      "fiveStar": 1
    },
    "imagesCount": 3,
    "imageCategories": [],
    "scrapedAt": "2025-11-14T08:13:50.740Z",
    "googleFoodUrl": null,
    "hotelAds": [],
    "openingHours": [
      {
        "day": "Monday",
        "hours": "10 AM to 5 PM"
      },
      {
        "day": "Tuesday",
        "hours": "10 AM to 5 PM"
      },
      {
        "day": "Wednesday",
        "hours": "10 AM to 5 PM"
      },
      {
        "day": "Thursday",
        "hours": "10 AM to 5 PM"
      },
      {
        "day": "Friday",
        "hours": "10 AM to 5 PM"
      },
      {
        "day": "Saturday",
        "hours": "Closed"
      },
      {
        "day": "Sunday",
        "hours": "10 AM to 5 PM"
      }
    ],
    "peopleAlsoSearch": [],
    "placesTags": [],
    "reviewsTags": [],
    "additionalInfo": {
      "Amenities": [
        {
          "Restroom": true
        }
      ]
    },
    "gasPrices": [],
    "url": "https://www.google.com/maps/search/?api=1&query=Deko%20Miba%20Itapake%20Land%20Pooling%20Project%20Office&query_place_id=ChIJQ6Os0qQa6zkRsV8IWBoWjHw",
    "searchPageUrl": "https://www.google.com/maps/search/government/@27.67530454090198,85.43009086349416,17z?hl=en",
    "searchString": "government",
    "language": "en",
    "rank": 38,
    "isAdvertisement": false,
    "imageUrl": "https://lh3.googleusercontent.com/gps-cs-s/AG0ilSyCU-maosA93NZb8eZryH54cAGbAcpgMMTfu0D-T0BK1b9EE02rbWBIXXzba3N8BEtnH1LFT3CvSfE44SJxQ0kHZpM3w1dgBEZs6_Y7jY3ZGsiSQ6E4QzVD01jkb67yEdoynFO0=w426-h240-k-no",
    "kgmid": "/g/11c5hj_qwn"
  },
  {
    "title": "Deko Miba Itapake Land Pooling Project Office",
    "price": null,
    "categoryName": "City government office",
    "address": "MCFF+GGM, Bhaktapur 44800, Nepal",
    "neighborhood": null,
    "street": "MCFF+GGM",
    "city": "Bhaktapur",
    "postalCode": "44800",
    "state": null,
    "countryCode": "NP",
    "phone": "+977 1-6612401",
    "phoneUnformatted": "+97716612401",
    "claimThisBusiness": true,
    "location": {
      "lat": 27.673829,
      "lng": 85.4237908
    },
    "totalScore": 3,
    "permanentlyClosed": false,
    "temporarilyClosed": false,
    "placeId": "ChIJQ6Os0qQa6zkRsV8IWBoWjHw",
    "categories": [
      "City government office"
    ],
    "fid": "0x39eb1aa4d2aca343:0x7c8c161a58085fb1",
    "cid": "8974572459844460465",
    "reviewsCount": 3,
    "reviewsDistribution": {
      "oneStar": 1,
      "twoStar": 0,
      "threeStar": 1,
      "fourStar": 0,
      "fiveStar": 1
    },
    "imagesCount": 3,
    "imageCategories": [],
    "scrapedAt": "2025-11-14T10:19:48.664Z",
    "googleFoodUrl": null,
    "hotelAds": [],
    "openingHours": [
      {
        "day": "Monday",
        "hours": "10 AM to 5 PM"
      },
      {
        "day": "Tuesday",
        "hours": "10 AM to 5 PM"
      },
      {
        "day": "Wednesday",
        "hours": "10 AM to 5 PM"
      },
      {
        "day": "Thursday",
        "hours": "10 AM to 5 PM"
      },
      {
        "day": "Friday",
        "hours": "10 AM to 5 PM"
      },
      {
        "day": "Saturday",
        "hours": "Closed"
      },
      {
        "day": "Sunday",
        "hours": "10 AM to 5 PM"
      }
    ],
    "peopleAlsoSearch": [],
    "placesTags": [],
    "reviewsTags": [],
    "additionalInfo": {
      "Amenities": [
        {
          "Restroom": true
        }
      ]
    },
    "gasPrices": [],
    "url": "https://www.google.com/maps/search/?api=1&query=Deko%20Miba%20Itapake%20Land%20Pooling%20Project%20Office&query_place_id=ChIJQ6Os0qQa6zkRsV8IWBoWjHw",
    "searchPageUrl": "https://www.google.com/maps/search/government/@27.672500000000003,85.42249999999997,17z?hl=en",
    "searchString": "government",
    "language": "en",
    "rank": 30,
    "isAdvertisement": false,
    "imageUrl": "https://lh3.googleusercontent.com/gps-cs-s/AG0ilSyCU-maosA93NZb8eZryH54cAGbAcpgMMTfu0D-T0BK1b9EE02rbWBIXXzba3N8BEtnH1LFT3CvSfE44SJxQ0kHZpM3w1dgBEZs6_Y7jY3ZGsiSQ6E4QzVD01jkb67yEdoynFO0=w426-h240-k-no",
    "kgmid": "/g/11c5hj_qwn"
  },
  {
    "title": "Village Development Committee Office",
    "subTitle": "गाउँ बिकास समितिको कार्यालय",
    "price": null,
    "categoryName": "City government office",
    "address": "PF22+G79, Chhaling Road, Changunarayan 44800, Nepal",
    "neighborhood": "Chhaling",
    "street": "PF22+G79, Chhaling Road",
    "city": "Changunarayan",
    "postalCode": "44800",
    "state": null,
    "countryCode": "NP",
    "claimThisBusiness": true,
    "location": {
      "lat": 27.7012937,
      "lng": 85.4507331
    },
    "totalScore": 3,
    "permanentlyClosed": false,
    "temporarilyClosed": false,
    "placeId": "ChIJ__8PVCQF6zkRnAIO89uVg5s",
    "categories": [
      "City government office"
    ],
    "fid": "0x39eb0524540fffff:0x9b8395dbf30e029c",
    "cid": "11205965069736084124",
    "reviewsCount": 1,
    "imagesCount": 1,
    "imageCategories": [],
    "scrapedAt": "2025-11-14T10:21:21.934Z",
    "googleFoodUrl": null,
    "hotelAds": [],
    "openingHours": [],
    "peopleAlsoSearch": [],
    "placesTags": [],
    "reviewsTags": [],
    "additionalInfo": {
      "Accessibility": [
        {
          "Wheelchair accessible parking lot": true
        }
      ],
      "Amenities": [
        {
          "Restroom": true
        }
      ]
    },
    "gasPrices": [],
    "url": "https://www.google.com/maps/search/?api=1&query=Village%20Development%20Committee%20Office&query_place_id=ChIJ__8PVCQF6zkRnAIO89uVg5s",
    "searchPageUrl": "https://www.google.com/maps/search/government/@27.702926009243246,85.46542602199737,17z?hl=en",
    "searchString": "government",
    "language": "en",
    "rank": 16,
    "isAdvertisement": false,
    "imageUrl": "https://streetviewpixels-pa.googleapis.com/v1/thumbnail?panoid=UPWYV1gdrY16hRku7chb5Q&cb_client=search.gws-prod.gps&w=408&h=240&yaw=284.04935&pitch=0&thumbfov=100",
    "kgmid": "/g/11sskr84ty"
  },
  {
    "title": "Deko Miba Itapake Land Pooling Project Office",
    "price": null,
    "categoryName": "City government office",
    "address": "MCFF+GGM, Bhaktapur 44800, Nepal",
    "neighborhood": null,
    "street": "MCFF+GGM",
    "city": "Bhaktapur",
    "postalCode": "44800",
    "state": null,
    "countryCode": "NP",
    "phone": "+977 1-6612401",
    "phoneUnformatted": "+97716612401",
    "claimThisBusiness": true,
    "location": {
      "lat": 27.673829,
      "lng": 85.4237908
    },
    "totalScore": 3,
    "permanentlyClosed": false,
    "temporarilyClosed": false,
    "placeId": "ChIJQ6Os0qQa6zkRsV8IWBoWjHw",
    "categories": [
      "City government office"
    ],
    "fid": "0x39eb1aa4d2aca343:0x7c8c161a58085fb1",
    "cid": "8974572459844460465",
    "reviewsCount": 3,
    "imagesCount": 3,
    "imageCategories": [],
    "scrapedAt": "2025-11-14T08:26:56.456Z",
    "googleFoodUrl": null,
    "hotelAds": [],
    "openingHours": [
      {
        "day": "Monday",
        "hours": "10 AM to 5 PM"
      },
      {
        "day": "Tuesday",
        "hours": "10 AM to 5 PM"
      },
      {
        "day": "Wednesday",
        "hours": "10 AM to 5 PM"
      },
      {
        "day": "Thursday",
        "hours": "10 AM to 5 PM"
      },
      {
        "day": "Friday",
        "hours": "10 AM to 5 PM"
      },
      {
        "day": "Saturday",
        "hours": "Closed"
      },
      {
        "day": "Sunday",
        "hours": "10 AM to 5 PM"
      }
    ],
    "peopleAlsoSearch": [],
    "placesTags": [],
    "reviewsTags": [],
    "additionalInfo": {
      "Amenities": [
        {
          "Restroom": true
        }
      ]
    },
    "gasPrices": [],
    "url": "https://www.google.com/maps/search/?api=1&query=Deko%20Miba%20Itapake%20Land%20Pooling%20Project%20Office&query_place_id=ChIJQ6Os0qQa6zkRsV8IWBoWjHw",
    "searchPageUrl": "https://www.google.com/maps/search/government/@27.660086377294068,85.41290913650586,17z?hl=en",
    "searchString": "government",
    "language": "en",
    "rank": 11,
    "isAdvertisement": false,
    "imageUrl": "https://lh3.googleusercontent.com/gps-cs-s/AG0ilSyCU-maosA93NZb8eZryH54cAGbAcpgMMTfu0D-T0BK1b9EE02rbWBIXXzba3N8BEtnH1LFT3CvSfE44SJxQ0kHZpM3w1dgBEZs6_Y7jY3ZGsiSQ6E4QzVD01jkb67yEdoynFO0=w426-h240-k-no",
    "kgmid": "/g/11c5hj_qwn"
  },
  {
    "title": "Khwopa",
    "price": null,
    "categoryName": "City government office",
    "address": "MCCH+9WW, Bhaktapur 44800, Nepal",
    "neighborhood": null,
    "street": "MCCH+9WW",
    "city": "Bhaktapur",
    "postalCode": null,
    "state": null,
    "countryCode": "NP",
    "claimThisBusiness": true,
    "location": {
      "lat": 27.6709939,
      "lng": 85.4298429
    },
    "permanentlyClosed": false,
    "temporarilyClosed": false,
    "placeId": "ChIJjbUa3Ekb6zkRzHqRMmFWumk",
    "categories": [
      "City government office"
    ],
    "fid": "0x39eb1b49dc1ab58d:0x69ba566132917acc",
    "cid": "7618496695110826700",
    "reviewsCount": 0,
    "imagesCount": 1,
    "imageCategories": [],
    "scrapedAt": "2025-11-14T08:27:52.905Z",
    "googleFoodUrl": null,
    "hotelAds": [],
    "openingHours": [],
    "peopleAlsoSearch": [],
    "placesTags": [],
    "reviewsTags": [],
    "gasPrices": [],
    "url": "https://www.google.com/maps/search/?api=1&query=Khwopa&query_place_id=ChIJjbUa3Ekb6zkRzHqRMmFWumk",
    "searchPageUrl": "https://www.google.com/maps/search/government/@27.667695459098024,85.43009086349416,17z?hl=en",
    "searchString": "government",
    "language": "en",
    "rank": 29,
    "isAdvertisement": false,
    "imageUrl": "https://streetviewpixels-pa.googleapis.com/v1/thumbnail?panoid=Xiwkb2LIzRqxgf6gIkv8Jw&cb_client=search.gws-prod.gps&w=408&h=240&yaw=356.44382&pitch=0&thumbfov=100",
    "kgmid": "/g/11flqq9y3k"
  }
]