[
  {
    "title": "Bhaktapur Municipality - Ward Office No. 4",
    "subTitle": "भक्तपुर न.पा. - ०४ नं. वडा कार्यालय",
    "price": null,
    "categoryName": "Federal government office",
    "address": "MC9H+W75, बोलाछें सडक, Bhaktapur 44800, Nepal",
    "neighborhood": null,
    "street": "MC9H+W75, बोलाछें सडक",
    "city": "Bhaktapur",
    "postalCode": "44800",
    "state": null,
    "countryCode": "NP",
    "claimThisBusiness": true,
    "location": {
      "lat": 27.669768,
      "lng": 85.4282269
    },
    "totalScore": 3.5,
    "permanentlyClosed": false,
    "temporarilyClosed": false,
    "placeId": "ChIJZYHea68a6zkRc1wrS6qaq9g",
    "categories": [
      "Federal government office"
    ],
    "fid": "0x39eb1aaf6bde8165:0xd8ab9aaa4b2b5c73",
    "cid": "15612742589406207091",
    "reviewsCount": 2,
    "imagesCount": 4,
    "imageCategories": [],
    "scrapedAt": "2025-11-14T08:13:49.838Z",
    "googleFoodUrl": null,
    "hotelAds": [],
    "openingHours": [
      {
        "day": "Monday",
        "hours": "10 AM to 5 PM"
      },
      {
        "day": "Tuesday",
        "hours": "10 AM to 5 PM"
      },
      {
        "day": "Wednesday",
        "hours": "10 AM to 5 PM"
      },
      {
        "day": "Thursday",
        "hours": "10 AM to 5 PM"
      },
      {
        "day": "Friday",
        "hours": "10 AM to 5 PM"
      },
      {
        "day": "Saturday",
        "hours": "Closed"
      },
      {
        "day": "Sunday",
        "hours": "10 AM to 5 PM"
      }
    ],
    "peopleAlsoSearch": [],
    "placesTags": [],
    "reviewsTags": [],
    "additionalInfo": {
      "Amenities": [
        {
          "Restroom": true
        }
      ]
    },
    "gasPrices": [],
    "url": "https://www.google.com/maps/search/?api=1&query=Bhaktapur%20Municipality%20-%20Ward%20Office%20No.%204&query_place_id=ChIJZYHea68a6zkRc1wrS6qaq9g",
    "searchPageUrl": "https://www.google.com/maps/search/government/@27.67530454090198,85.43009086349416,17z?hl=en",
    "searchString": "government",
    "language": "en",
    "rank": 4,
    "isAdvertisement": false,
    "imageUrl": "https://lh3.googleusercontent.com/gps-cs-s/AG0ilSx63hvYS0UHHr4XoRMW1iPOYiNiD7QcN5abVSzaS0WgRrXubSjNQYKstQCrWDbnyT-mJtVh-wnKbD3x4GnW-Xk3f08UT1q3F8Wdu40M3lFAx-XpEC95AYY-LXrV-m80U03G9_Q=w426-h240-k-no",
    "kgmid": "/g/11b6qnqpbf"
  },
  {
    "title": "Bhaktapur Municipality - Ward Office No. 4",
    "subTitle": "भक्तपुर न.पा. - ०४ नं. वडा कार्यालय",
    "price": null,
    "categoryName": "Federal government office",
    "address": "MC9H+W75, बोलाछें सडक, Bhaktapur 44800, Nepal",
    "neighborhood": null,
    "street": "MC9H+W75, बोलाछें सडक",
    "city": "Bhaktapur",
    "postalCode": "44800",
    "state": null,
    "countryCode": "NP",
    "claimThisBusiness": true,
    "location": {
      "lat": 27.669768,
      "lng": 85.4282269
    },
    "totalScore": 3.5,
    "permanentlyClosed": false,
    "temporarilyClosed": false,
    "placeId": "ChIJZYHea68a6zkRc1wrS6qaq9g",
    "categories": [
      "Federal government office"
    ],
    "fid": "0x39eb1aaf6bde8165:0xd8ab9aaa4b2b5c73",
    "cid": "15612742589406207091",
    "reviewsCount": 2,
    "imagesCount": 4,
    "imageCategories": [],
    "scrapedAt": "2025-11-14T08:26:31.719Z",
    "googleFoodUrl": null,
    "hotelAds": [],
    "openingHours": [
      {
        "day": "Monday",
        "hours": "10 AM to 5 PM"
      },
      {
        "day": "Tuesday",
        "hours": "10 AM to 5 PM"
      },
      {
        "day": "Wednesday",
        "hours": "10 AM to 5 PM"
      },
      {
        "day": "Thursday",
        "hours": "10 AM to 5 PM"
      },
      {
        "day": "Friday",
        "hours": "10 AM to 5 PM"
      },
      {
        "day": "Saturday",
        "hours": "Closed"
      },
      {
        "day": "Sunday",
        "hours": "10 AM to 5 PM"
      }
    ],
    "peopleAlsoSearch": [],
    "placesTags": [],
    "reviewsTags": [],
    "additionalInfo": {
      "Amenities": [
        {
          "Restroom": true
        }
      ]
    },
    "gasPrices": [],
    "url": "https://www.google.com/maps/search/?api=1&query=Bhaktapur%20Municipality%20-%20Ward%20Office%20No.%204&query_place_id=ChIJZYHea68a6zkRc1wrS6qaq9g",
    "searchPageUrl": "https://www.google.com/maps/search/government/@27.67530454090198,85.4386817269883,17z?hl=en",
    "searchString": "government",
    "language": "en",
    "rank": 15,
    "isAdvertisement": false,
    "imageUrl": "https://lh3.googleusercontent.com/gps-cs-s/AG0ilSx63hvYS0UHHr4XoRMW1iPOYiNiD7QcN5abVSzaS0WgRrXubSjNQYKstQCrWDbnyT-mJtVh-wnKbD3x4GnW-Xk3f08UT1q3F8Wdu40M3lFAx-XpEC95AYY-LXrV-m80U03G9_Q=w426-h240-k-no",
    "kgmid": "/g/11b6qnqpbf"
  },
  {
    "title": "District Treasury Comptroller Office(को.ले. नि.का)",
    "price": null,
    "categoryName": "Federal government office",
    "address": "Unnamed Road, Suryabinayak, Nepal",
    "neighborhood": "Katunje",
    "street": "Unnamed Road",
    "city": "Suryabinayak",
    "postalCode": null,
    "state": null,
    "countryCode": "NP",
    "phone": "+977 1-6615158",
    "phoneUnformatted": "+97716615158",
    "claimThisBusiness": false,
    "location": {
      "lat": 27.6676745,
      "lng": 85.4040577
    },
    "permanentlyClosed": false,
    "temporarilyClosed": false,
    "placeId": "ChIJP4y97rob6zkRCzI0qvx90rM",
    "categories": [
      "Federal government office"
    ],
    "fid": "0x39eb1bbaeebd8c3f:0xb3d27dfcaa34320b",
    "cid": "12957557602039116299",
    "reviewsCount": 0,
    "imagesCount": 2,
    "imageCategories": [],
    "scrapedAt": "2025-11-14T08:26:56.456Z",
    "googleFoodUrl": null,
    "hotelAds": [],
    "openingHours": [
      {
        "day": "Monday",
        "hours": "10 AM to 4 PM"
      },
      {
        "day": "Tuesday",
        "hours": "10 AM to 4 PM"
      },
      {
        "day": "Wednesday",
        "hours": "10 AM to 4 PM"
      },
      {
        "day": "Thursday",
        "hours": "10 AM to 4 PM"
      },
      {
        "day": "Friday",
        "hours": "10 AM to 3 PM"
      },
      {
        "day": "Saturday",
        "hours": "Closed"
      },
      {
        "day": "Sunday",
        "hours": "10 AM to 4 PM"
      }
    ],
    "peopleAlsoSearch": [],
    "placesTags": [],
    "reviewsTags": [],
    "additionalInfo": {
      "Amenities": [
        {
          "Restroom": true
        }
      ]
    },
    "gasPrices": [],
    "url": "https://www.google.com/maps/search/?api=1&query=District%20Treasury%20Comptroller%20Office(%E0%A4%95%E0%A5%8B.%E0%A4%B2%E0%A5%87.%20%E0%A4%A8%E0%A4%BF.%E0%A4%95%E0%A4%BE)&query_place_id=ChIJP4y97rob6zkRCzI0qvx90rM",
    "searchPageUrl": "https://www.google.com/maps/search/government/@27.660086377294068,85.41290913650586,17z?hl=en",
    "searchString": "government",
    "language": "en",
    "rank": 3,
    "isAdvertisement": false,
    "imageUrl": "https://streetviewpixels-pa.googleapis.com/v1/thumbnail?panoid=9mlvL-ktEJX-4m3THgTkkQ&cb_client=search.gws-prod.gps&w=408&h=240&yaw=345.551&pitch=0&thumbfov=100",
    "kgmid": "/g/11lwm5kq4c"
  },
  {
    "title": "District Election Office, Bhaktapur",
    "subTitle": "जिल्ला निर्वाचन कार्यालय, भक्तपुर",
    "price": null,
    "categoryName": "Federal government office",
    "address": "Bhaktapur 44800, Nepal",
    "neighborhood": null,
    "street": null,
    "city": "Bhaktapur",
    "postalCode": "44800",
    "state": null,
    "countryCode": "NP",
    "website": "/url?q=https://election.gov.np/np/district/bhaktpur&opi=79508299&sa=U&ved=0ahUKEwj7z7uknPGQAxUhL1kFHXWbKU0Q61gIqwIoDg&usg=AOvVaw0BmHbYDW_CQcdIhnWrQkbU",
    "phone": "+977 1-6614525",
    "phoneUnformatted": "+97716614525",
    "claimThisBusiness": false,
    "location": {
      "lat": 27.6744792,
      "lng": 85.4040151
    },
    "totalScore": 4.4,
    "permanentlyClosed": false,
    "temporarilyClosed": false,
    "placeId": "ChIJN-hrfI8a6zkRn4TEF_egQLw",
    "categories": [
      "Federal government office",
      "Government office"
    ],
    "fid": "0x39eb1a8f7c6be837:0xbc40a0f717c4849f",
    "cid": "13565019060756055199",
    "reviewsCount": 8,
    "imagesCount": 106,
    "imageCategories": [],
    "scrapedAt": "2025-11-14T08:27:27.935Z",
    "googleFoodUrl": null,
    "hotelAds": [],
    "openingHours": [
      {
        "day": "Monday",
        "hours": "8 AM to 6 PM"
      },
      {
        "day": "Tuesday",
        "hours": "8 AM to 6 PM"
      },
      {
        "day": "Wednesday",
        "hours": "8 AM to 6 PM"
      },
      {
        "day": "Thursday",
        "hours": "8 AM to 6 PM"
      },
      {
        "day": "Friday",
        "hours": "8 AM to 6 PM"
      },
      {
        "day": "Saturday",
        "hours": "Closed"
      },
      {
        "day": "Sunday",
        "hours": "8 AM to 6 PM"
      }
    ],
    "peopleAlsoSearch": [],
    "placesTags": [],
    "reviewsTags": [],
    "additionalInfo": {
      "Amenities": [
        {
          "Restroom": true
        }
      ]
    },
    "gasPrices": [],
    "url": "https://www.google.com/maps/search/?api=1&query=District%20Election%20Office%2C%20Bhaktapur&query_place_id=ChIJN-hrfI8a6zkRn4TEF_egQLw",
    "searchPageUrl": "https://www.google.com/maps/search/government/@27.67530454090198,85.40431827301171,17z?hl=en",
    "searchString": "government",
    "language": "en",
    "rank": 11,
    "isAdvertisement": false,
    "imageUrl": "https://lh3.googleusercontent.com/gps-cs-s/AG0ilSxpimEu_-555KCIckTGGEcm8WKCxh_bwlzDHXlIrZuG5JpRyOCEHaZVtK7qCi_gbGV8lTZC52J3EaK6KgknMhEDu5q3VZf-d6-cK98-g2ImQVQW8Z4jQ8mTmAqYEZepHk0KbFcZZA=w426-h240-k-no",
    "kgmid": "/g/11b5ysl9g8"
  },
  {
    "title": "Water Resource and Irrigation Division Office - Bhaktapur",
    "price": null,
    "categoryName": "Federal government office",
    "address": "MC8J+468, Suryabinayak 44800, Nepal",
    "neighborhood": "Sipadol",
    "street": "MC8J+468",
    "city": "Suryabinayak",
    "postalCode": null,
    "state": null,
    "countryCode": "NP",
    "claimThisBusiness": true,
    "location": {
      "lat": 27.6652953,
      "lng": 85.430576
    },
    "permanentlyClosed": false,
    "temporarilyClosed": false,
    "placeId": "ChIJKdFpqYQb6zkR2aG_ILsRHrE",
    "categories": [
      "Federal government office"
    ],
    "fid": "0x39eb1b84a969d129:0xb11e11bb20bfa1d9",
    "cid": "12762657889420550617",
    "reviewsCount": 0,
    "imagesCount": 2,
    "imageCategories": [],
    "scrapedAt": "2025-11-14T08:27:37.430Z",
    "googleFoodUrl": null,
    "hotelAds": [],
    "openingHours": [],
    "peopleAlsoSearch": [],
    "placesTags": [],
    "reviewsTags": [],
    "additionalInfo": {
      "Amenities": [
        {
          "Restroom": true
        }
      ]
    },
    "gasPrices": [],
    "url": "https://www.google.com/maps/search/?api=1&query=Water%20Resource%20and%20Irrigation%20Division%20Office%20-%20Bhaktapur&query_place_id=ChIJKdFpqYQb6zkR2aG_ILsRHrE",
    "searchPageUrl": "https://www.google.com/maps/search/government/@27.660086377294068,85.43009086349416,17z?hl=en",
    "searchString": "government",
    "language": "en",
    "rank": 9,
    "isAdvertisement": false,
    "imageUrl": "https://streetviewpixels-pa.googleapis.com/v1/thumbnail?panoid=Be75PZlyNRO39uTMJKQC6Q&cb_client=search.gws-prod.gps&w=408&h=240&yaw=143.54398&pitch=0&thumbfov=100",
    "kgmid": "/g/11j4y77cxr"
  }
]