[
  {
    "title": "Bhaktapur Municipality",
    "subTitle": "भक्तपुर नगरपालिका",
    "price": null,
    "categoryName": "Local government office",
    "address": "MCFG+RWW, Nagarkot Rd, Bhaktapur 44800, Nepal",
    "neighborhood": null,
    "street": "MCFG+RWW, Nagarkot Rd",
    "city": "Bhaktapur",
    "postalCode": "44800",
    "state": null,
    "countryCode": "NP",
    "website": "http://www.bhaktapurmun.gov.np/",
    "phone": "+977 1-6610310",
    "phoneUnformatted": "+97716610310",
    "claimThisBusiness": true,
    "location": {
      "lat": 27.6746071,
      "lng": 85.4273411
    },
    "totalScore": 4.6,
    "permanentlyClosed": false,
    "temporarilyClosed": false,
    "placeId": "ChIJGdfSqboa6zkRs-gWsAZBNQo",
    "categories": [
      "Local government office"
    ],
    "fid": "0x39eb1abaa9d2d719:0xa354106b016e8b3",
    "cid": "735565611124844723",
    "reviewsCount": 21,
    "reviewsDistribution": {
      "oneStar": 0,
      "twoStar": 1,
      "threeStar": 0,
      "fourStar": 6,
      "fiveStar": 14
    },
    "imagesCount": 328,
    "imageCategories": [],
    "scrapedAt": "2025-11-14T08:13:20.487Z",
    "googleFoodUrl": null,
    "hotelAds": [],
    "openingHours": [
      {
        "day": "Monday",
        "hours": "10 AM to 5 PM"
      },
      {
        "day": "Tuesday",
        "hours": "10 AM to 5 PM"
      },
      {
        "day": "Wednesday",
        "hours": "10 AM to 5 PM"
      },
      {
        "day": "Thursday",
        "hours": "10 AM to 5 PM"
      },
      {
        "day": "Friday",
        "hours": "10 AM to 5 PM"
      },
      {
        "day": "Saturday",
        "hours": "Closed"
      },
      {
        "day": "Sunday",
        "hours": "10 AM to 5 PM"
      }
    ],
    "peopleAlsoSearch": [],
    "placesTags": [],
    "reviewsTags": [],
    "additionalInfo": {
      "Accessibility": [
        {
          "Wheelchair accessible entrance": true
        },
        {
          "Wheelchair accessible parking lot": true
        }
      ],
      "Amenities": [
        {
          "Restroom": true
        }
      ],
      "Pets": [
        {
          "Dogs allowed": true
        }
      ]
    },
    "gasPrices": [],
    "url": "https://www.google.com/maps/search/?api=1&query=Bhaktapur%20Municipality&query_place_id=ChIJGdfSqboa6zkRs-gWsAZBNQo",
    "searchPageUrl": "https://www.google.com/maps/search/hospital/@27.67530454090198,85.43009086349416,17z?hl=en",
    "searchString": "hospital",
    "language": "en",
    "rank": 39,
    "isAdvertisement": false,
    "imageUrl": "https://lh3.googleusercontent.com/gps-cs-s/AG0ilSxAYk8G6gx3FLQejb4TVZZUmQzRdvv5ztzoKp2juB_lvdM5kEQrcbcUyy-HuNmSvn3ZEAibqCO-DtddNs5PFZrq40D5_S6YUJ-3Gzh_kG8opu9NmJnnC7n2fnD64tW41Gzxh4pR=w408-h264-k-no",
    "kgmid": "/g/11c0xtnz7q"
  },
  {
    "title": "Bhaktapur Municipality ward 9 office",
    "subTitle": "भक्तपुर नगरपालिका वडा ९ कार्यालय",
    "price": null,
    "categoryName": "Local government office",
    "address": "Dattatraya Temple, Bhaktapur 44800, Nepal",
    "neighborhood": null,
    "street": "Dattatraya Temple",
    "city": "Bhaktapur",
    "postalCode": "44800",
    "state": null,
    "countryCode": "NP",
    "phone": "+977 1-6612128",
    "phoneUnformatted": "+97716612128",
    "claimThisBusiness": true,
    "location": {
      "lat": 27.6740728,
      "lng": 85.4351243
    },
    "totalScore": 5,
    "permanentlyClosed": false,
    "temporarilyClosed": false,
    "placeId": "ChIJ77qoDugb6zkRccBapfH2dD8",
    "categories": [
      "Local government office"
    ],
    "fid": "0x39eb1be80ea8baef:0x3f74f6f1a55ac071",
    "cid": "4572551039409635441",
    "reviewsCount": 3,
    "imagesCount": 16,
    "imageCategories": [],
    "scrapedAt": "2025-11-14T08:13:49.631Z",
    "googleFoodUrl": null,
    "hotelAds": [],
    "openingHours": [],
    "peopleAlsoSearch": [],
    "placesTags": [],
    "reviewsTags": [],
    "additionalInfo": {
      "Accessibility": [
        {
          "Wheelchair accessible parking lot": true
        }
      ],
      "Amenities": [
        {
          "Restroom": true
        }
      ]
    },
    "gasPrices": [],
    "url": "https://www.google.com/maps/search/?api=1&query=Bhaktapur%20Municipality%20ward%209%20office&query_place_id=ChIJ77qoDugb6zkRccBapfH2dD8",
    "searchPageUrl": "https://www.google.com/maps/search/office/@27.67530454090198,85.43009086349416,17z?hl=en",
    "searchString": "office",
    "language": "en",
    "rank": 11,
    "isAdvertisement": false,
    "imageUrl": "https://lh3.googleusercontent.com/gps-cs-s/AG0ilSwGA9VhUEWNdHAC-s7GRaFPbpY9PzKe8N50ZyR_NJhU1s3PZnURbyn7NXkyAPaqcBsM2hV2df-rZQkwSeZ7_0--pYWvLqGGC6xI_Xig2ts-RR3b1AZZHUrFut2hT8hxdPXAhx9a9A=w408-h575-k-no",
    "kgmid": "/g/11fksvd3z9"
  },
  {
    "title": "Bhaktapur No.2 Ward Office",
    "subTitle": "भक्तपुर नं. २ वडा कार्यालय",
    "price": null,
    "categoryName": "Local government office",
    "address": "MCFH+Q5V, Bhaktapur 44800, Nepal",
    "neighborhood": null,
    "street": "MCFH+Q5V",
    "city": "Bhaktapur",
    "postalCode": "44800",
    "state": null,
    "countryCode": "NP",
    "claimThisBusiness": true,
    "location": {
      "lat": 27.6744762,
      "lng": 85.4279324
    },
    "totalScore": 2,
    "permanentlyClosed": false,
    "temporarilyClosed": false,
    "placeId": "ChIJs8E7BbAa6zkRdFgO8ghgF_k",
    "categories": [
      "Local government office"
    ],
    "fid": "0x39eb1ab0053bc1b3:0xf9176008f20e5874",
    "cid": "17948920431445432436",
    "reviewsCount": 4,
    "imagesCount": 9,
    "imageCategories": [],
    "scrapedAt": "2025-11-14T08:13:49.631Z",
    "googleFoodUrl": null,
    "hotelAds": [],
    "openingHours": [
      {
        "day": "Monday",
        "hours": "10 AM to 4 PM"
      },
      {
        "day": "Tuesday",
        "hours": "10 AM to 4 PM"
      },
      {
        "day": "Wednesday",
        "hours": "10 AM to 4 PM"
      },
      {
        "day": "Thursday",
        "hours": "10 AM to 4 PM"
      },
      {
        "day": "Friday",
        "hours": "10 AM to 4 PM"
      },
      {
        "day": "Saturday",
        "hours": "Closed"
      },
      {
        "day": "Sunday",
        "hours": "10 AM to 4 PM"
      }
    ],
    "peopleAlsoSearch": [],
    "placesTags": [],
    "reviewsTags": [],
    "additionalInfo": {
      "Amenities": [
        {
          "Restroom": true
        }
      ]
    },
    "gasPrices": [],
    "url": "https://www.google.com/maps/search/?api=1&query=Bhaktapur%20No.2%20Ward%20Office&query_place_id=ChIJs8E7BbAa6zkRdFgO8ghgF_k",
    "searchPageUrl": "https://www.google.com/maps/search/office/@27.67530454090198,85.43009086349416,17z?hl=en",
    "searchString": "office",
    "language": "en",
    "rank": 16,
    "isAdvertisement": false,
    "imageUrl": "https://lh3.googleusercontent.com/gps-cs-s/AG0ilSzmNIOfi0AUBgyGYUIEX0lCkp1vndnVN2Abvu7Br5psllChvy_ZI_yw7O4VPe1qfR6G6zn0U-dZhlPKr51W2PpI44FvwgdeXhC_ONXo7gU7ZS0FwV7fBjua7x05vRe9h6rg178Z=w408-h306-k-no",
    "kgmid": "/g/11g8g_c1fg"
  },
  {
    "title": "Bhaktapur Municipal - 6 No.Ward Office",
    "subTitle": "भक्तपुर न. पा. - ६ नं. वडा कार्यालय",
    "price": null,
    "categoryName": "Local government office",
    "address": "MCFJ+RMM, Bholachhen - Yachhen Rd, Bhaktapur 44800, Nepal",
    "neighborhood": null,
    "street": "MCFJ+RMM, Bholachhen - Yachhen Rd",
    "city": "Bhaktapur",
    "postalCode": "44800",
    "state": null,
    "countryCode": "NP",
    "phone": "+977 1-6612159",
    "phoneUnformatted": "+97716612159",
    "claimThisBusiness": true,
    "location": {
      "lat": 27.674586,
      "lng": 85.4316778
    },
    "totalScore": 3.7,
    "permanentlyClosed": false,
    "temporarilyClosed": false,
    "placeId": "ChIJWwcOs60a6zkRv9vkq9tulzA",
    "categories": [
      "Local government office"
    ],
    "fid": "0x39eb1aadb30e075b:0x30976edbabe4dbbf",
    "cid": "3501389125064645567",
    "reviewsCount": 6,
    "imagesCount": 10,
    "imageCategories": [],
    "scrapedAt": "2025-11-14T08:13:49.838Z",
    "googleFoodUrl": null,
    "hotelAds": [],
    "openingHours": [],
    "peopleAlsoSearch": [],
    "placesTags": [],
    "reviewsTags": [],
    "additionalInfo": {
      "Amenities": [
        {
          "Restroom": true
        }
      ]
    },
    "gasPrices": [],
    "url": "https://www.google.com/maps/search/?api=1&query=Bhaktapur%20Municipal%20-%206%20No.Ward%20Office&query_place_id=ChIJWwcOs60a6zkRv9vkq9tulzA",
    "searchPageUrl": "https://www.google.com/maps/search/government/@27.67530454090198,85.43009086349416,17z?hl=en",
    "searchString": "government",
    "language": "en",
    "rank": 6,
    "isAdvertisement": false,
    "imageUrl": "https://lh3.googleusercontent.com/gps-cs-s/AG0ilSzzGrOe2PEjsY-6sgdrKWRdyq26q1O5BDDhGWSaHH5nfeVVK3QEsbDmAyueBpLw9lXV9XVfWpdxbHXT74uPhHv4BaRnhKTeeaflBF9B41TYkS0JFQENGKr0AwhwHgn7OG2w4a7MLg=w426-h240-k-no",
    "kgmid": "/g/11b6qhf4p2"
  },
  {
    "title": "Bhaktapur No.7 Ward Office, Golmadhi",
    "subTitle": "भक्तपुर नं. ७ वडा कार्यालय, गोलमढी",
    "price": null,
    "categoryName": "Local government office",
    "address": "MC9J+XRH, Bhaktapur 44800, Nepal",
    "neighborhood": null,
    "street": "MC9J+XRH",
    "city": "Bhaktapur",
    "postalCode": "44800",
    "state": null,
    "countryCode": "NP",
    "claimThisBusiness": true,
    "location": {
      "lat": 27.6699275,
      "lng": 85.4321083
    },
    "totalScore": 4,
    "permanentlyClosed": false,
    "temporarilyClosed": false,
    "placeId": "ChIJx80GnK4a6zkR1eCivLoSIfE",
    "categories": [
      "Local government office"
    ],
    "fid": "0x39eb1aae9c06cdc7:0xf12112babca2e0d5",
    "cid": "17375189430610092245",
    "reviewsCount": 5,
    "imagesCount": 19,
    "imageCategories": [],
    "scrapedAt": "2025-11-14T08:13:49.838Z",
    "googleFoodUrl": null,
    "hotelAds": [],
    "openingHours": [],
    "peopleAlsoSearch": [],
    "placesTags": [],
    "reviewsTags": [],
    "additionalInfo": {
      "Amenities": [
        {
          "Restroom": true
        }
      ]
    },
    "gasPrices": [],
    "url": "https://www.google.com/maps/search/?api=1&query=Bhaktapur%20No.7%20Ward%20Office%2C%20Golmadhi&query_place_id=ChIJx80GnK4a6zkR1eCivLoSIfE",
    "searchPageUrl": "https://www.google.com/maps/search/government/@27.67530454090198,85.43009086349416,17z?hl=en",
    "searchString": "government",
    "language": "en",
    "rank": 9,
    "isAdvertisement": false,
    "imageUrl": "https://lh3.googleusercontent.com/gps-cs-s/AG0ilSzEZspOsvpg4_LqAOJiDIa9kY1sNVlQ5LqzW8xDLmEpB1pjFa8BZwRdEMrWu1yjB0JAshHTn6FG_1r--JmhGC_AgXDu2QAMlT7jIKMYbSOrVciMkMdHRYZrPLphc8pgSrkUQzFb=w426-h240-k-no",
    "kgmid": "/g/11dxspy0yp"
  },
  {
    "title": "Bhaktapur Municipality Ward No. 15 Committee",
    "subTitle": "भक्तपुर नगरपालिका १५ नं वडा समिति",
    "price": null,
    "categoryName": "Local government office",
    "address": "MCCG+Q2F, इताछेँ, Bhaktapur 44800, Nepal",
    "neighborhood": null,
    "street": "MCCG+Q2F, इताछेँ",
    "city": "Bhaktapur",
    "postalCode": "44800",
    "state": null,
    "countryCode": "NP",
    "phone": "+977 1-6612125",
    "phoneUnformatted": "+97716612125",
    "claimThisBusiness": true,
    "location": {
      "lat": 27.6719479,
      "lng": 85.4250618
    },
    "totalScore": 3.5,
    "permanentlyClosed": false,
    "temporarilyClosed": false,
    "placeId": "ChIJA4bRG6Ua6zkROt8lCFo9J6M",
    "categories": [
      "Local government office"
    ],
    "fid": "0x39eb1aa51bd18603:0xa3273d5a0825df3a",
    "cid": "11756432809167019834",
    "reviewsCount": 2,
    "imagesCount": 4,
    "imageCategories": [],
    "scrapedAt": "2025-11-14T08:13:49.839Z",
    "googleFoodUrl": null,
    "hotelAds": [],
    "openingHours": [
      {
        "day": "Monday",
        "hours": "10 AM to 5 PM"
      },
      {
        "day": "Tuesday",
        "hours": "10 AM to 5 PM"
      },
      {
        "day": "Wednesday",
        "hours": "10 AM to 5 PM"
      },
      {
        "day": "Thursday",
        "hours": "10 AM to 5 PM"
      },
      {
        "day": "Friday",
        "hours": "10 AM to 5 PM"
      },
      {
        "day": "Saturday",
        "hours": "Closed"
      },
      {
        "day": "Sunday",
        "hours": "10 AM to 5 PM"
      }
    ],
    "peopleAlsoSearch": [],
    "placesTags": [],
    "reviewsTags": [],
    "additionalInfo": {
      "Amenities": [
        {
          "Restroom": true
        }
      ]
    },
    "gasPrices": [],
    "url": "https://www.google.com/maps/search/?api=1&query=Bhaktapur%20Municipality%20Ward%20No.%2015%20Committee&query_place_id=ChIJA4bRG6Ua6zkROt8lCFo9J6M",
    "searchPageUrl": "https://www.google.com/maps/search/government/@27.67530454090198,85.43009086349416,17z?hl=en",
    "searchString": "government",
    "language": "en",
    "rank": 16,
    "isAdvertisement": false,
    "imageUrl": "https://lh3.googleusercontent.com/gps-proxy/ALd4DhE4-4VhnbUHOxpYS7XJ6mvHDx-ZieADiCEtdBPoUT4G64p-a3Eg9ZuARVlo4oZRYNaR5G4xKWzS3e7ymsTUQ8tUnmlb6KLDLU3jzlxsNDQp2S8Belfx7xsm8UboHz5oHHyGSLbisRUKvSiX6p7WRf8v_u3moOxe14XIZWg3-9lgkR32j6Rc9pf9yix5lIsnaJP6568=w408-h306-k-no",
    "kgmid": "/g/11b6pzmkp5"
  },
  {
    "title": "Bhaktapur Municipality Ward No. 10 Office",
    "subTitle": "भक्तपुर नगरपालिका वडा नम्बर १० कार्यालय",
    "price": null,
    "categoryName": "Local government office",
    "address": "MCGP+XQC, Garud Kundal Road, Bhaktapur 44800, Nepal",
    "neighborhood": null,
    "street": "MCGP+XQC, Garud Kundal Road",
    "city": "Bhaktapur",
    "postalCode": "44800",
    "state": null,
    "countryCode": "NP",
    "website": "http://bhaktapurmun.gov.np/",
    "phone": "+977 1-6612139",
    "phoneUnformatted": "+97716612139",
    "claimThisBusiness": true,
    "location": {
      "lat": 27.6774454,
      "lng": 85.4368835
    },
    "totalScore": 4,
    "permanentlyClosed": false,
    "temporarilyClosed": false,
    "placeId": "ChIJJa-oKLMa6zkRCRcnRDAJpDM",
    "categories": [
      "Local government office"
    ],
    "fid": "0x39eb1ab328a8af25:0x33a4093044271709",
    "cid": "3721109295021365001",
    "reviewsCount": 4,
    "reviewsDistribution": {
      "oneStar": 0,
      "twoStar": 1,
      "threeStar": 0,
      "fourStar": 1,
      "fiveStar": 2
    },
    "imagesCount": 8,
    "imageCategories": [],
    "scrapedAt": "2025-11-14T08:13:50.739Z",
    "googleFoodUrl": null,
    "hotelAds": [],
    "openingHours": [
      {
        "day": "Monday",
        "hours": "10 AM to 4 PM"
      },
      {
        "day": "Tuesday",
        "hours": "10 AM to 4 PM"
      },
      {
        "day": "Wednesday",
        "hours": "10 AM to 4 PM"
      },
      {
        "day": "Thursday",
        "hours": "10 AM to 4 PM"
      },
      {
        "day": "Friday",
        "hours": "10 AM to 4 PM"
      },
      {
        "day": "Saturday",
        "hours": "Closed"
      },
      {
        "day": "Sunday",
        "hours": "10 AM to 4 PM"
      }
    ],
    "peopleAlsoSearch": [],
    "placesTags": [],
    "reviewsTags": [],
    "additionalInfo": {
      "Accessibility": [
        {
          "Wheelchair accessible entrance": true
        },
        {
          "Wheelchair accessible parking lot": true
        }
      ],
      "Amenities": [
        {
          "Restroom": true
        }
      ]
    },
    "gasPrices": [],
    "url": "https://www.google.com/maps/search/?api=1&query=Bhaktapur%20Municipality%20Ward%20No.%2010%20Office&query_place_id=ChIJJa-oKLMa6zkRCRcnRDAJpDM",
    "searchPageUrl": "https://www.google.com/maps/search/government/@27.67530454090198,85.43009086349416,17z?hl=en",
    "searchString": "government",
    "language": "en",
    "rank": 28,
    "isAdvertisement": false,
    "imageUrl": "https://lh3.googleusercontent.com/gps-cs-s/AG0ilSz1uyoaPf_8SPvwgFu4QV4JDTE-1UreWnw210NDSmYtc7AoqeayqLfDgAmDzdGOtJ-9f0fPkngoz4J1jQNcQyIDB1jdfD4XPy7ampKX1m4iUfgoSOaV_BsLtA4zUJgVJyG_ng=w408-h306-k-no",
    "kgmid": "/g/12lkgzxwg"
  },
  {
    "title": "Madhyapur Thimi Municipality, Office of Municipal Executive",
    "subTitle": "मध्यपुर थिमि नगरपालिका कार्यालय",
    "price": null,
    "categoryName": "Local government office",
    "address": "M9MQ+FWR, Madhyapur Thimi 44600, Nepal",
    "neighborhood": null,
    "street": "M9MQ+FWR",
    "city": "Madhyapur Thimi",
    "postalCode": "44600",
    "state": null,
    "countryCode": "NP",
    "phone": "+977 1-6630046",
    "phoneUnformatted": "+97716630046",
    "claimThisBusiness": true,
    "location": {
      "lat": 27.6837418,
      "lng": 85.3897762
    },
    "totalScore": 3.7,
    "permanentlyClosed": false,
    "temporarilyClosed": false,
    "placeId": "ChIJXeaCZ2ca6zkRAbjx_oNbOeE",
    "categories": [
      "Local government office"
    ],
    "fid": "0x39eb1a676782e65d:0xe1395b83fef1b801",
    "cid": "16229103354682390529",
    "reviewsCount": 54,
    "imagesCount": 340,
    "imageCategories": [],
    "scrapedAt": "2025-11-14T10:19:31.025Z",
    "googleFoodUrl": null,
    "hotelAds": [],
    "openingHours": [
      {
        "day": "Monday",
        "hours": "10 AM to 5 PM"
      },
      {
        "day": "Tuesday",
        "hours": "10 AM to 5 PM"
      },
      {
        "day": "Wednesday",
        "hours": "10 AM to 5 PM"
      },
      {
        "day": "Thursday",
        "hours": "10 AM to 5 PM"
      },
      {
        "day": "Friday",
        "hours": "10 AM to 1 PM"
      },
      {
        "day": "Saturday",
        "hours": "Closed"
      },
      {
        "day": "Sunday",
        "hours": "10 AM to 5 PM"
      }
    ],
    "peopleAlsoSearch": [],
    "placesTags": [],
    "reviewsTags": [],
    "additionalInfo": {
      "Accessibility": [
        {
          "Wheelchair accessible entrance": true
        },
        {
          "Wheelchair accessible parking lot": true
        }
      ],
      "Amenities": [
        {
          "Restroom": true
        }
      ]
    },
    "gasPrices": [],
    "url": "https://www.google.com/maps/search/?api=1&query=Madhyapur%20Thimi%20Municipality%2C%20Office%20of%20Municipal%20Executive&query_place_id=ChIJXeaCZ2ca6zkRAbjx_oNbOeE",
    "searchPageUrl": "https://www.google.com/maps/search/government%20office/@27.695319506932435,85.38815918240205,17z?hl=en",
    "searchString": "government office",
    "language": "en",
    "rank": 7,
    "isAdvertisement": false,
    "imageUrl": "https://lh3.googleusercontent.com/gps-cs-s/AG0ilSy_ACs9XfXpOGczA7vyb63KhKKJz19K6jm449iWBr90e2E-d2bMDO5U1smDiD8F4VWhV_E4PSXrjmJRZ-ojdp1hWSyU3OSZMIYviGrXgVA74BFIdg4kZRb88bv8PBpLQzibBWmpvA=w408-h305-k-no",
    "kgmid": "/g/12mkw969z"
  },
  {
    "title": "Kageshwori Manohara Municipality Ward No.7 office",
    "subTitle": "कागेश्वरी मनोहरा नगरपालिका वडा नं ७ कार्यालय",
    "price": null,
    "categoryName": "Local government office",
    "address": "P92M+XX3, Kageshwori Manohara 44600, Nepal",
    "neighborhood": "Gothatar",
    "street": "P92M+XX3",
    "city": "Kageshwori Manohara",
    "postalCode": "44600",
    "state": null,
    "countryCode": "NP",
    "phone": "+977 1-4153590",
    "phoneUnformatted": "+97714153590",
    "claimThisBusiness": true,
    "location": {
      "lat": 27.702377,
      "lng": 85.3849268
    },
    "totalScore": 4.5,
    "permanentlyClosed": false,
    "temporarilyClosed": false,
    "placeId": "ChIJlUbNf7ob6zkR6RiPAvK6j7I",
    "categories": [
      "Local government office"
    ],
    "fid": "0x39eb1bba7fcd4695:0xb28fbaf2028f18e9",
    "cid": "12866708209008580841",
    "reviewsCount": 14,
    "imagesCount": 21,
    "imageCategories": [],
    "scrapedAt": "2025-11-14T10:19:31.026Z",
    "googleFoodUrl": null,
    "hotelAds": [],
    "openingHours": [
      {
        "day": "Monday",
        "hours": "10 AM to 5 PM"
      },
      {
        "day": "Tuesday",
        "hours": "10 AM to 5 PM"
      },
      {
        "day": "Wednesday",
        "hours": "10 AM to 5 PM"
      },
      {
        "day": "Thursday",
        "hours": "10 AM to 5 PM"
      },
      {
        "day": "Friday",
        "hours": "10 AM to 3 PM"
      },
      {
        "day": "Saturday",
        "hours": "Closed"
      },
      {
        "day": "Sunday",
        "hours": "10 AM to 5 PM"
      }
    ],
    "peopleAlsoSearch": [],
    "placesTags": [],
    "reviewsTags": [],
    "additionalInfo": {
      "Accessibility": [
        {
          "Wheelchair accessible entrance": true
        },
        {
          "Wheelchair accessible parking lot": true
        }
      ],
      "Offerings": [
        {
          "Medication disposal": true
        }
      ],
      "Amenities": [
        {
          "Restroom": true
        }
      ],
      "Pets": [
        {
          "Dogs allowed": true
        }
      ]
    },
    "gasPrices": [],
    "url": "https://www.google.com/maps/search/?api=1&query=Kageshwori%20Manohara%20Municipality%20Ward%20No.7%20office&query_place_id=ChIJlUbNf7ob6zkR6RiPAvK6j7I",
    "searchPageUrl": "https://www.google.com/maps/search/government%20office/@27.695319506932435,85.38815918240205,17z?hl=en",
    "searchString": "government office",
    "language": "en",
    "rank": 14,
    "isAdvertisement": false,
    "imageUrl": "https://lh3.googleusercontent.com/gps-cs-s/AG0ilSzghGQJJX49UvAuxDfDkDznoSQzYp3h5yj6f7uGsdzvdgGw0FP9C-uA4ZWt_WKO3UzYoO4ptqE6CrWSmwZEfFmQVWh3E0VkqY5q9eX0gIGdSrn3KTUDMf6fgJyKDtozl4AoesKD=w408-h550-k-no",
    "kgmid": "/g/11rstkjx41"
  },
  {
    "title": "Nagadesh Ward Office, Naagdesh - Madhyapur Thimi Municipality-7",
    "price": null,
    "categoryName": "Local government office",
    "address": "M9MP+99X, Madhyapur Thimi 44600, Nepal",
    "neighborhood": null,
    "street": "M9MP+99X",
    "city": "Madhyapur Thimi",
    "postalCode": null,
    "state": null,
    "countryCode": "NP",
    "claimThisBusiness": true,
    "location": {
      "lat": 27.6834758,
      "lng": 85.3859954
    },
    "totalScore": 4,
    "permanentlyClosed": false,
    "temporarilyClosed": false,
    "placeId": "ChIJ4b9g76gb6zkR2fKa5a2twNI",
    "categories": [
      "Local government office"
    ],
    "fid": "0x39eb1ba8ef60bfe1:0xd2c0adade59af2d9",
    "cid": "15186328905886397145",
    "reviewsCount": 2,
    "imagesCount": 2,
    "imageCategories": [],
    "scrapedAt": "2025-11-14T10:19:31.026Z",
    "googleFoodUrl": null,
    "hotelAds": [],
    "openingHours": [],
    "peopleAlsoSearch": [],
    "placesTags": [],
    "reviewsTags": [],
    "additionalInfo": {
      "Amenities": [
        {
          "Restroom": true
        }
      ]
    },
    "gasPrices": [],
    "url": "https://www.google.com/maps/search/?api=1&query=Nagadesh%20Ward%20Office%2C%20Naagdesh%20-%20Madhyapur%20Thimi%20Municipality-7&query_place_id=ChIJ4b9g76gb6zkR2fKa5a2twNI",
    "searchPageUrl": "https://www.google.com/maps/search/government%20office/@27.695319506932435,85.38815918240205,17z?hl=en",
    "searchString": "government office",
    "language": "en",
    "rank": 17,
    "isAdvertisement": false,
    "imageUrl": "https://streetviewpixels-pa.googleapis.com/v1/thumbnail?panoid=BmLnmYJJAvTh8inHHbbwcQ&cb_client=search.gws-prod.gps&w=408&h=240&yaw=77.0625&pitch=0&thumbfov=100",
    "kgmid": "/g/11jsf6gzk9"
  },
  {
    "title": "Madhyapur Thimi Ward 5 Office",
    "subTitle": "मध्यपुर थिमी वडा ५ कार्यालय",
    "price": null,
    "categoryName": "Local government office",
    "address": "M9JP+4R6, Madhyapur Thimi 44600, Nepal",
    "neighborhood": null,
    "street": "M9JP+4R6",
    "city": "Madhyapur Thimi",
    "postalCode": null,
    "state": null,
    "countryCode": "NP",
    "claimThisBusiness": true,
    "location": {
      "lat": 27.6802869,
      "lng": 85.3870238
    },
    "totalScore": 3.2,
    "permanentlyClosed": false,
    "temporarilyClosed": false,
    "placeId": "ChIJzVQAzggb6zkREip8085r8UM",
    "categories": [
      "Local government office"
    ],
    "fid": "0x39eb1b08ce0054cd:0x43f16bced37c2a12",
    "cid": "4895812805984004626",
    "reviewsCount": 5,
    "imagesCount": 17,
    "imageCategories": [],
    "scrapedAt": "2025-11-14T10:19:41.071Z",
    "googleFoodUrl": null,
    "hotelAds": [],
    "openingHours": [],
    "peopleAlsoSearch": [],
    "placesTags": [],
    "reviewsTags": [],
    "additionalInfo": {
      "Amenities": [
        {
          "Restroom": true
        }
      ]
    },
    "gasPrices": [],
    "url": "https://www.google.com/maps/search/?api=1&query=Madhyapur%20Thimi%20Ward%205%20Office&query_place_id=ChIJzVQAzggb6zkREip8085r8UM",
    "searchPageUrl": "https://www.google.com/maps/search/government%20office/@27.687713004621624,85.37957397800257,17z?hl=en",
    "searchString": "government office",
    "language": "en",
    "rank": 17,
    "isAdvertisement": false,
    "imageUrl": "https://lh3.googleusercontent.com/gps-cs-s/AG0ilSxGtbk3AH9svxcZFVUqQvnCTu-tFxt63movhaqQHMQrrElSqAdpoJ4kSJ6P95L_OVNAHcQThJIMoKxJ35W69bR2mM07c5NiOlPndZi7R8wXcijOZno7juyY9prQ7Qz1djCIbLttW_VVgXPX=w408-h544-k-no",
    "kgmid": "/g/11gmcb_8j2"
  },
  {
    "title": "Bhaktapur Municipality",
    "subTitle": "भक्तपुर नगरपालिका",
    "price": null,
    "categoryName": "Local government office",
    "address": "MCFG+RWW, Nagarkot Rd, Bhaktapur 44800, Nepal",
    "neighborhood": null,
    "street": "MCFG+RWW, Nagarkot Rd",
    "city": "Bhaktapur",
    "postalCode": "44800",
    "state": null,
    "countryCode": "NP",
    "website": "http://www.bhaktapurmun.gov.np/",
    "phone": "+977 1-6610310",
    "phoneUnformatted": "+97716610310",
    "claimThisBusiness": true,
    "location": {
      "lat": 27.6746071,
      "lng": 85.4273411
    },
    "totalScore": 4.6,
    "permanentlyClosed": false,
    "temporarilyClosed": false,
    "placeId": "ChIJGdfSqboa6zkRs-gWsAZBNQo",
    "categories": [
      "Local government office"
    ],
    "fid": "0x39eb1abaa9d2d719:0xa354106b016e8b3",
    "cid": "735565611124844723",
    "reviewsCount": 21,
    "imagesCount": 328,
    "imageCategories": [],
    "scrapedAt": "2025-11-14T10:19:47.536Z",
    "googleFoodUrl": null,
    "hotelAds": [],
    "openingHours": [
      {
        "day": "Monday",
        "hours": "10 AM to 5 PM"
      },
      {
        "day": "Tuesday",
        "hours": "10 AM to 5 PM"
      },
      {
        "day": "Wednesday",
        "hours": "10 AM to 5 PM"
      },
      {
        "day": "Thursday",
        "hours": "10 AM to 5 PM"
      },
      {
        "day": "Friday",
        "hours": "10 AM to 5 PM"
      },
      {
        "day": "Saturday",
        "hours": "Closed"
      },
      {
        "day": "Sunday",
        "hours": "10 AM to 5 PM"
      }
    ],
    "peopleAlsoSearch": [],
    "placesTags": [],
    "reviewsTags": [],
    "additionalInfo": {
      "Accessibility": [
        {
          "Wheelchair accessible entrance": true
        },
        {
          "Wheelchair accessible parking lot": true
        }
      ],
      "Amenities": [
        {
          "Restroom": true
        }
      ],
      "Pets": [
        {
          "Dogs allowed": true
        }
      ]
    },
    "gasPrices": [],
    "url": "https://www.google.com/maps/search/?api=1&query=Bhaktapur%20Municipality&query_place_id=ChIJGdfSqboa6zkRs-gWsAZBNQo",
    "searchPageUrl": "https://www.google.com/maps/search/government/@27.672500000000003,85.42249999999997,17z?hl=en",
    "searchString": "government",
    "language": "en",
    "rank": 11,
    "isAdvertisement": false,
    "imageUrl": "https://lh3.googleusercontent.com/gps-cs-s/AG0ilSwHVmY9lIXxH_WxiSp7uNIVjjvrK4BKOnixlBfZxeVqaIO3nWoqYIhGpAkTXcpKwsT2QQsOLgUXDldeofphxKzI-tUcFD-8lzOvxoSGYJLNSjXeML1dSiC7Mr4UBL71Xcs1nyF3=w500-h240-k-no",
    "kgmid": "/g/11c0xtnz7q"
  },
  {
    "title": "Bhaktapur No.2 Ward Office",
    "subTitle": "भक्तपुर नं. २ वडा कार्यालय",
    "price": null,
    "categoryName": "Local government office",
    "address": "MCFH+Q5V, Bhaktapur 44800, Nepal",
    "neighborhood": null,
    "street": "MCFH+Q5V",
    "city": "Bhaktapur",
    "postalCode": "44800",
    "state": null,
    "countryCode": "NP",
    "claimThisBusiness": true,
    "location": {
      "lat": 27.6744762,
      "lng": 85.4279324
    },
    "totalScore": 2,
    "permanentlyClosed": false,
    "temporarilyClosed": false,
    "placeId": "ChIJs8E7BbAa6zkRdFgO8ghgF_k",
    "categories": [
      "Local government office"
    ],
    "fid": "0x39eb1ab0053bc1b3:0xf9176008f20e5874",
    "cid": "17948920431445432436",
    "reviewsCount": 4,
    "imagesCount": 9,
    "imageCategories": [],
    "scrapedAt": "2025-11-14T10:19:48.563Z",
    "googleFoodUrl": null,
    "hotelAds": [],
    "openingHours": [
      {
        "day": "Monday",
        "hours": "10 AM to 4 PM"
      },
      {
        "day": "Tuesday",
        "hours": "10 AM to 4 PM"
      },
      {
        "day": "Wednesday",
        "hours": "10 AM to 4 PM"
      },
      {
        "day": "Thursday",
        "hours": "10 AM to 4 PM"
      },
      {
        "day": "Friday",
        "hours": "10 AM to 4 PM"
      },
      {
        "day": "Saturday",
        "hours": "Closed"
      },
      {
        "day": "Sunday",
        "hours": "10 AM to 4 PM"
      }
    ],
    "peopleAlsoSearch": [],
    "placesTags": [],
    "reviewsTags": [],
    "additionalInfo": {
      "Amenities": [
        {
          "Restroom": true
        }
      ]
    },
    "gasPrices": [],
    "url": "https://www.google.com/maps/search/?api=1&query=Bhaktapur%20No.2%20Ward%20Office&query_place_id=ChIJs8E7BbAa6zkRdFgO8ghgF_k",
    "searchPageUrl": "https://www.google.com/maps/search/government%20office/@27.672500000000003,85.42249999999997,17z?hl=en",
    "searchString": "government office",
    "language": "en",
    "rank": 13,
    "isAdvertisement": false,
    "imageUrl": "https://lh3.googleusercontent.com/gps-cs-s/AG0ilSzmNIOfi0AUBgyGYUIEX0lCkp1vndnVN2Abvu7Br5psllChvy_ZI_yw7O4VPe1qfR6G6zn0U-dZhlPKr51W2PpI44FvwgdeXhC_ONXo7gU7ZS0FwV7fBjua7x05vRe9h6rg178Z=w408-h306-k-no",
    "kgmid": "/g/11g8g_c1fg"
  },
  {
    "title": "Police station",
    "price": null,
    "categoryName": "Local government office",
    "address": "MCW9+6JG Duwakot VDC, 2 Sallaghari- Duwakot Rd, Changunarayan 44600, Nepal",
    "neighborhood": "Duwakot",
    "street": "MCW9+6JG Duwakot VDC, 2 Sallaghari- Duwakot Rd",
    "city": "Changunarayan",
    "postalCode": "44600",
    "state": null,
    "countryCode": "NP",
    "claimThisBusiness": true,
    "location": {
      "lat": 27.6926156,
      "lng": 85.415234
    },
    "totalScore": 5,
    "permanentlyClosed": false,
    "temporarilyClosed": false,
    "placeId": "ChIJtY0wwz8b6zkR2fXy1Apyip8",
    "categories": [
      "Local government office"
    ],
    "fid": "0x39eb1b3fc3308db5:0x9f8a720ad4f2f5d9",
    "cid": "11496126389664544217",
    "reviewsCount": 1,
    "imagesCount": 5,
    "imageCategories": [],
    "scrapedAt": "2025-11-14T10:19:55.218Z",
    "googleFoodUrl": null,
    "hotelAds": [],
    "openingHours": [],
    "peopleAlsoSearch": [],
    "placesTags": [],
    "reviewsTags": [],
    "additionalInfo": {
      "Amenities": [
        {
          "Restroom": true
        }
      ]
    },
    "gasPrices": [],
    "url": "https://www.google.com/maps/search/?api=1&query=Police%20station&query_place_id=ChIJtY0wwz8b6zkR2fXy1Apyip8",
    "searchPageUrl": "https://www.google.com/maps/search/government/@27.680106502310814,85.39674438680153,17z?hl=en",
    "searchString": "government",
    "language": "en",
    "rank": 20,
    "isAdvertisement": false,
    "imageUrl": "https://lh3.googleusercontent.com/gps-cs-s/AG0ilSzvw77kXsxzajpRn87dUvX21_f3sUrJXtZ7CS-UPazojLp17YBclRBiIyjo2OQudgZICHMxKDMfaHxKfJv0I-oMLCfmYqyxROeVQ45v_0L28t76o0pYTxaFsKwuEZlRgy2Hy-J5=w408-h725-k-no",
    "kgmid": "/g/11m8qpzt33"
  },
  {
    "title": "Madhyapurthimi Municipality Ward No 4",
    "subTitle": "मध्यपुरथिमि नगरपालिका वडा नं. ४",
    "price": null,
    "categoryName": "Local government office",
    "address": "M9GP+JGP, 44800 Thimi-Biruwa Rd, Madhyapur Thimi 44600, Nepal",
    "neighborhood": null,
    "street": "M9GP+JGP, 44800 Thimi-Biruwa Rd",
    "city": "Madhyapur Thimi",
    "postalCode": "44600",
    "state": null,
    "countryCode": "NP",
    "claimThisBusiness": true,
    "location": {
      "lat": 27.6758435,
      "lng": 85.3851815
    },
    "totalScore": 3.6,
    "permanentlyClosed": false,
    "temporarilyClosed": false,
    "placeId": "ChIJnQydcG8a6zkRJMVl7AZuW9Y",
    "categories": [
      "Local government office"
    ],
    "fid": "0x39eb1a6f709d0c9d:0xd65b6e06ec65c524",
    "cid": "15446060323012199716",
    "reviewsCount": 5,
    "imagesCount": 4,
    "imageCategories": [],
    "scrapedAt": "2025-11-14T10:19:55.806Z",
    "googleFoodUrl": null,
    "hotelAds": [],
    "openingHours": [
      {
        "day": "Monday",
        "hours": "10 AM to 5 PM"
      },
      {
        "day": "Tuesday",
        "hours": "10 AM to 5 PM"
      },
      {
        "day": "Wednesday",
        "hours": "10 AM to 5 PM"
      },
      {
        "day": "Thursday",
        "hours": "10 AM to 5 PM"
      },
      {
        "day": "Friday",
        "hours": "10 AM to 5 PM"
      },
      {
        "day": "Saturday",
        "hours": "Closed"
      },
      {
        "day": "Sunday",
        "hours": "10 AM to 5 PM"
      }
    ],
    "peopleAlsoSearch": [],
    "placesTags": [],
    "reviewsTags": [],
    "additionalInfo": {
      "Amenities": [
        {
          "Restroom": true
        }
      ]
    },
    "gasPrices": [],
    "url": "https://www.google.com/maps/search/?api=1&query=Madhyapurthimi%20Municipality%20Ward%20No%204&query_place_id=ChIJnQydcG8a6zkRJMVl7AZuW9Y",
    "searchPageUrl": "https://www.google.com/maps/search/government%20office/@27.680106502310814,85.39674438680153,17z?hl=en",
    "searchString": "government office",
    "language": "en",
    "rank": 17,
    "isAdvertisement": false,
    "imageUrl": "https://lh3.googleusercontent.com/gps-cs-s/AG0ilSxyIn3P77oVobxKTGHWj1sKWhT32dkO25fUDwntiMr6_1FCE8zIuVN5t0_ySXD6hyqVMztZoyK6P5_H484W-rgsZJPSaIIA4ZaeI5Do1IHfpvfx-t2h-JXQRh7M81bgH_-Y=w408-h725-k-no",
    "kgmid": "/g/11f_b_8fdc"
  },
  {
    "title": "Ward Office Suryabinayak-9",
    "subTitle": "वडा कार्यालय सूर्यविनायक-९",
    "price": null,
    "categoryName": "Local government office",
    "address": "JFV6+M8G, Suryabinayak-9, Dhungadol, Suryabinayak, Nepal",
    "neighborhood": "PalanSe",
    "street": "JFV6+M8G, Suryabinayak-9, Dhungadol",
    "city": "Suryabinayak",
    "postalCode": null,
    "state": null,
    "countryCode": "NP",
    "phone": "+977 1-6540372",
    "phoneUnformatted": "+97716540372",
    "claimThisBusiness": true,
    "location": {
      "lat": 27.6462505,
      "lng": 85.459342
    },
    "totalScore": 5,
    "permanentlyClosed": false,
    "temporarilyClosed": false,
    "placeId": "ChIJrwUbXZMP6zkRYjbMC84SnSs",
    "categories": [
      "Local government office"
    ],
    "fid": "0x39eb0f935d1b05af:0x2b9d12ce0bcc3662",
    "cid": "3142688791144969826",
    "reviewsCount": 1,
    "imagesCount": 3,
    "imageCategories": [],
    "scrapedAt": "2025-11-14T10:20:01.377Z",
    "googleFoodUrl": null,
    "hotelAds": [],
    "openingHours": [
      {
        "day": "Monday",
        "hours": "Open 24 hours"
      },
      {
        "day": "Tuesday",
        "hours": "Open 24 hours"
      },
      {
        "day": "Wednesday",
        "hours": "Open 24 hours"
      },
      {
        "day": "Thursday",
        "hours": "Open 24 hours"
      },
      {
        "day": "Friday",
        "hours": "Open 24 hours"
      },
      {
        "day": "Saturday",
        "hours": "Open 24 hours"
      },
      {
        "day": "Sunday",
        "hours": "Open 24 hours"
      }
    ],
    "peopleAlsoSearch": [],
    "placesTags": [],
    "reviewsTags": [],
    "additionalInfo": {
      "Amenities": [
        {
          "Restroom": true
        }
      ]
    },
    "gasPrices": [],
    "url": "https://www.google.com/maps/search/?api=1&query=Ward%20Office%20Suryabinayak-9&query_place_id=ChIJrwUbXZMP6zkRYjbMC84SnSs",
    "searchPageUrl": "https://www.google.com/maps/search/government/@27.64207399075676,85.4568408175979,17z?hl=en",
    "searchString": "government",
    "language": "en",
    "rank": 3,
    "isAdvertisement": false,
    "imageUrl": "https://lh3.googleusercontent.com/gps-cs-s/AG0ilSyljz0QOyOgaYzMeC630a1ra3zd7lNkSX-yTSOgZDeKzOAQ9y3lROsN5_J9S3rhCUQeO50CvOVJN__Gwt53_GuHYWRziJludXc0QqaTkT8qJrR2dD4H0HHF_z6B_Vp61DXR6j6Yog=w408-h302-k-no",
    "kgmid": "/g/11f4prcg6q"
  },
  {
    "title": "Suryabinayak nagarpalika",
    "price": null,
    "categoryName": "Local government office",
    "address": "JCWV+23W, Suryabinayak, Nepal",
    "neighborhood": "Sipadol",
    "street": "JCWV+23W",
    "city": "Suryabinayak",
    "postalCode": null,
    "state": null,
    "countryCode": "NP",
    "claimThisBusiness": true,
    "location": {
      "lat": 27.6451028,
      "lng": 85.4427153
    },
    "totalScore": 4.3,
    "permanentlyClosed": false,
    "temporarilyClosed": false,
    "placeId": "ChIJLdpeC3oP6zkR38nSbMROsbw",
    "categories": [
      "Local government office"
    ],
    "fid": "0x39eb0f7a0b5eda2d:0xbcb14ec46cd2c9df",
    "cid": "13596735355554548191",
    "reviewsCount": 3,
    "imagesCount": 1,
    "imageCategories": [],
    "scrapedAt": "2025-11-14T10:20:01.377Z",
    "googleFoodUrl": null,
    "hotelAds": [],
    "openingHours": [],
    "peopleAlsoSearch": [],
    "placesTags": [],
    "reviewsTags": [],
    "additionalInfo": {
      "Amenities": [
        {
          "Restroom": true
        }
      ]
    },
    "gasPrices": [],
    "url": "https://www.google.com/maps/search/?api=1&query=Suryabinayak%20nagarpalika&query_place_id=ChIJLdpeC3oP6zkR38nSbMROsbw",
    "searchPageUrl": "https://www.google.com/maps/search/government/@27.64207399075676,85.4568408175979,17z?hl=en",
    "searchString": "government",
    "language": "en",
    "rank": 9,
    "isAdvertisement": false,
    "imageUrl": "https://streetviewpixels-pa.googleapis.com/v1/thumbnail?panoid=gSqp8N6vBh3aDuTOhf5EmQ&cb_client=search.gws-prod.gps&w=408&h=240&yaw=33.612236&pitch=0&thumbfov=100",
    "kgmid": "/g/11q837brn9"
  },
  {
    "title": "Changunarayan Municipality, Office of the Municipal Executive",
    "subTitle": "चाँगुनारायण नगरपालिका कार्यालय",
    "price": null,
    "categoryName": "Local government office",
    "address": "Kharipati,Bhaktapur, Changunarayan 44802, Nepal",
    "neighborhood": "Kharipati",
    "street": "Kharipati,Bhaktapur",
    "city": "Changunarayan",
    "postalCode": "44802",
    "state": null,
    "countryCode": "NP",
    "phone": "+977 1-6614809",
    "phoneUnformatted": "+97716614809",
    "claimThisBusiness": true,
    "location": {
      "lat": 27.695865,
      "lng": 85.4611913
    },
    "totalScore": 3.4,
    "permanentlyClosed": false,
    "temporarilyClosed": false,
    "placeId": "ChIJ9QVGRCYb6zkRHSBJtb3Bf_w",
    "categories": [
      "Local government office"
    ],
    "fid": "0x39eb1b26444605f5:0xfc7fc1bdb549201d",
    "cid": "18194474040134541341",
    "reviewsCount": 25,
    "imagesCount": 96,
    "imageCategories": [],
    "scrapedAt": "2025-11-14T10:20:12.643Z",
    "googleFoodUrl": null,
    "hotelAds": [],
    "openingHours": [
      {
        "day": "Monday",
        "hours": "10 AM to 5 PM"
      },
      {
        "day": "Tuesday",
        "hours": "10 AM to 5 PM"
      },
      {
        "day": "Wednesday",
        "hours": "10 AM to 5 PM"
      },
      {
        "day": "Thursday",
        "hours": "10 AM to 5 PM"
      },
      {
        "day": "Friday",
        "hours": "10 AM to 5 PM"
      },
      {
        "day": "Saturday",
        "hours": "Closed"
      },
      {
        "day": "Sunday",
        "hours": "10 AM to 5 PM"
      }
    ],
    "peopleAlsoSearch": [],
    "placesTags": [],
    "reviewsTags": [],
    "additionalInfo": {
      "Amenities": [
        {
          "Restroom": true
        }
      ],
      "Pets": [
        {
          "Dogs allowed": true
        }
      ]
    },
    "gasPrices": [],
    "url": "https://www.google.com/maps/search/?api=1&query=Changunarayan%20Municipality%2C%20Office%20of%20the%20Municipal%20Executive&query_place_id=ChIJ9QVGRCYb6zkRHSBJtb3Bf_w",
    "searchPageUrl": "https://www.google.com/maps/search/government%20office/@27.664893497689192,85.4568408175979,17z?hl=en",
    "searchString": "government office",
    "language": "en",
    "rank": 10,
    "isAdvertisement": false,
    "imageUrl": "https://lh3.googleusercontent.com/gps-cs-s/AG0ilSyuaQS4d3DPIjuJRNwVYAKQ3LZnvvsi8dQAuFOLuWWFSCjyRuazXfvw7lnBiS-vuvpoUoBsPTnn0_4CGfrE1f3iC5oQrkN6aUmmwc06UHHloi-yWtvQHmGZtcz42Dk2xt2YoBWN=w408-h306-k-no",
    "kgmid": "/g/11c1rs9ps5"
  },
  {
    "title": "Madhyapur Thimi Municipality Ward No. 3 Office",
    "subTitle": "मध्यपुर थिमी नगरपालिका वडा नं. ३ कार्यालय",
    "price": null,
    "categoryName": "Local government office",
    "address": "M9F8+V96, Araniko Highway, Madhyapur Thimi 44600, Nepal",
    "neighborhood": "Kausaltar",
    "street": "M9F8+V96, Araniko Highway",
    "city": "Madhyapur Thimi",
    "postalCode": "44600",
    "state": null,
    "countryCode": "NP",
    "website": "https://www.madhyapurthimimun.gov.np/ne/content/%E0%A4%AE%E0%A4%A7%E0%A5%8D%E0%A4%AF%E0%A4%AA%E0%A5%81%E0%A4%B0-%E0%A4%A5%E0%A4%BF%E0%A4%AE%E0%A4%BF-%E0%A4%A8%E0%A4%97%E0%A4%B0%E0%A4%AA%E0%A4%BE%E0%A4%B2%E0%A4%BF%E0%A4%95%E0%A4%BE-%E0%A4%B5%E0%A4%A1%E0%A4%BE-%E0%A4%A8%E0%A4%82-%E0%A5%A9-%E0%A4%95%E0%A5%8C%E0%A4%B6%E0%A4%B2%E0%A4%9F%E0%A4%BE%E0%A4%B0",
    "phone": "+977 1-6633150",
    "phoneUnformatted": "+97716633150",
    "claimThisBusiness": true,
    "location": {
      "lat": 27.6746577,
      "lng": 85.3658908
    },
    "totalScore": 4,
    "permanentlyClosed": false,
    "temporarilyClosed": false,
    "placeId": "ChIJlfg4fRAa6zkRxA0dHih1FcM",
    "categories": [
      "Local government office"
    ],
    "fid": "0x39eb1a107d38f895:0xc31575281e1d0dc4",
    "cid": "14057270627071233476",
    "reviewsCount": 9,
    "imagesCount": 45,
    "imageCategories": [],
    "scrapedAt": "2025-11-14T10:20:20.594Z",
    "googleFoodUrl": null,
    "hotelAds": [],
    "openingHours": [],
    "peopleAlsoSearch": [],
    "placesTags": [],
    "reviewsTags": [],
    "additionalInfo": {
      "Amenities": [
        {
          "Restroom": true
        }
      ]
    },
    "gasPrices": [],
    "url": "https://www.google.com/maps/search/?api=1&query=Madhyapur%20Thimi%20Municipality%20Ward%20No.%203%20Office&query_place_id=ChIJlfg4fRAa6zkRxA0dHih1FcM",
    "searchPageUrl": "https://www.google.com/maps/search/government%20office/@27.664893497689192,85.37957397800257,17z?hl=en",
    "searchString": "government office",
    "language": "en",
    "rank": 12,
    "isAdvertisement": false,
    "imageUrl": "https://lh3.googleusercontent.com/gps-cs-s/AG0ilSzR8n638jH-b_c4E2aV0D8nGkDA95TN0z3_gDuVscCtYPkFYwijJ9JXT3sZyWF-42daQIy2HMJt-qxxQokwf7w8yen6CEWno05AjWCV5WeO2rUg0Hp9YmqmXvch7fFH2WX6X5o2=w426-h240-k-no",
    "kgmid": "/g/11f12yp113"
  },
  {
    "title": "Suryabinayak Municipality 2 No. Ward Office",
    "subTitle": "सूर्यविनायक नगरपालिका २ नं. वडा कार्यालय",
    "price": null,
    "categoryName": "Local government office",
    "address": "M978+R4J, बलकोट 44600, Nepal",
    "neighborhood": "Balkot",
    "street": "M978+R4J",
    "city": "बलकोट",
    "postalCode": "44600",
    "state": null,
    "countryCode": "NP",
    "website": "http://www.suryabinayakmun.gov.np/en/content/%E0%A4%B8%E0%A5%82%E0%A4%B0%E0%A5%8D%E0%A4%AF%E0%A4%B5%E0%A4%BF%E0%A4%A8%E0%A4%BE%E0%A4%AF%E0%A4%95-%E0%A4%A8%E0%A4%97%E0%A4%B0%E0%A4%AA%E0%A4%BE%E0%A4%B2%E0%A4%BF%E0%A4%95%E0%A4%BE-%E0%A4%B5%E0%A4%A1%E0%A4%BE-%E0%A4%A8%E0%A4%82-%E0%A5%A8",
    "phone": "+977 984-1880529",
    "phoneUnformatted": "+9779841880529",
    "claimThisBusiness": true,
    "location": {
      "lat": 27.6645815,
      "lng": 85.3652692
    },
    "totalScore": 4,
    "permanentlyClosed": false,
    "temporarilyClosed": false,
    "placeId": "ChIJWbMAHwYa6zkRdSJGBlODqEI",
    "categories": [
      "Local government office"
    ],
    "fid": "0x39eb1a061f00b359:0x42a8835306462275",
    "cid": "4803233395201417845",
    "reviewsCount": 8,
    "imagesCount": 39,
    "imageCategories": [],
    "scrapedAt": "2025-11-14T10:20:20.595Z",
    "googleFoodUrl": null,
    "hotelAds": [],
    "openingHours": [],
    "peopleAlsoSearch": [],
    "placesTags": [],
    "reviewsTags": [],
    "additionalInfo": {
      "Accessibility": [
        {
          "Wheelchair accessible entrance": true
        }
      ],
      "Amenities": [
        {
          "Restroom": true
        }
      ]
    },
    "gasPrices": [],
    "url": "https://www.google.com/maps/search/?api=1&query=Suryabinayak%20Municipality%202%20No.%20Ward%20Office&query_place_id=ChIJWbMAHwYa6zkRdSJGBlODqEI",
    "searchPageUrl": "https://www.google.com/maps/search/government%20office/@27.664893497689192,85.37957397800257,17z?hl=en",
    "searchString": "government office",
    "language": "en",
    "rank": 19,
    "isAdvertisement": false,
    "imageUrl": "https://lh3.googleusercontent.com/gps-cs-s/AG0ilSyaW7PEnOoSVA5avvTCSfatez4a_d7Pelswzz7fxkxGIZn95jZC_FjSjJhfRrNCWLt4PQ7XLjBGacLD7H1jiLH85iyilGzefJMIjd7Nm7nj_-T_4kBsHlUi3MoIQ_-_judU3H4O=w408-h306-k-no",
    "kgmid": "/g/11f03tw99l"
  },
  {
    "title": "Ward No 5 - Changunarayan Municipality",
    "subTitle": "वडा नं. ५ कार्यालय, चाँगुनारायण नगरपालिका",
    "price": null,
    "categoryName": "Local government office",
    "address": "PF22+G7W, Changunarayan, Nepal",
    "neighborhood": "Chhaling",
    "street": "PF22+G7W",
    "city": "Changunarayan",
    "postalCode": null,
    "state": null,
    "countryCode": "NP",
    "claimThisBusiness": true,
    "location": {
      "lat": 27.7013631,
      "lng": 85.4506942
    },
    "totalScore": 4.5,
    "permanentlyClosed": false,
    "temporarilyClosed": false,
    "placeId": "ChIJ68EaHYgF6zkRHCG8ocgDeaw",
    "categories": [
      "Local government office"
    ],
    "fid": "0x39eb05881d1ac1eb:0xac7903c8a1bc211c",
    "cid": "12427968806947397916",
    "reviewsCount": 2,
    "imagesCount": 19,
    "imageCategories": [],
    "scrapedAt": "2025-11-14T10:21:21.934Z",
    "googleFoodUrl": null,
    "hotelAds": [],
    "openingHours": [],
    "peopleAlsoSearch": [],
    "placesTags": [],
    "reviewsTags": [],
    "additionalInfo": {
      "Amenities": [
        {
          "Restroom": true
        }
      ]
    },
    "gasPrices": [],
    "url": "https://www.google.com/maps/search/?api=1&query=Ward%20No%205%20-%20Changunarayan%20Municipality&query_place_id=ChIJ68EaHYgF6zkRHCG8ocgDeaw",
    "searchPageUrl": "https://www.google.com/maps/search/government/@27.702926009243246,85.46542602199737,17z?hl=en",
    "searchString": "government",
    "language": "en",
    "rank": 17,
    "isAdvertisement": false,
    "imageUrl": "https://lh3.googleusercontent.com/gps-cs-s/AG0ilSzoXqX55O7fFAnNO4k7rWgpnhSINB8N8xfS41yPxcid4wJvIZA-J2aA9vMgiqROlFXUqFwzMRIFl_RJvHrplsSx8jI4R0COKLgROFKwCfe3dH21XaC7NQ9liCsGVwRQ2Hd_KO3k=w426-h240-k-no",
    "kgmid": "/g/11ftsc5htf"
  },
  {
    "title": "Changunarayan municipality Ward-1 office,duwakot",
    "subTitle": "चाँगुनारायण नगरपालिका वडा नं १ कार्यालय, दुवाकोट",
    "price": null,
    "categoryName": "Local government office",
    "address": "MCX6+QHH, Changunarayan 44600, Nepal",
    "neighborhood": "Duwakot",
    "street": "MCX6+QHH",
    "city": "Changunarayan",
    "postalCode": null,
    "state": null,
    "countryCode": "NP",
    "website": "https://changunarayanmun.gov.np/ne/node/15",
    "phone": "+977 980-1037866",
    "phoneUnformatted": "+9779801037866",
    "claimThisBusiness": true,
    "location": {
      "lat": 27.6994394,
      "lng": 85.4114736
    },
    "totalScore": 3.3,
    "permanentlyClosed": false,
    "temporarilyClosed": false,
    "placeId": "ChIJx60daTAb6zkR4eGn-7inp8c",
    "categories": [
      "Local government office"
    ],
    "fid": "0x39eb1b30691dadc7:0xc7a7a7b8fba7e1e1",
    "cid": "14386651947596243425",
    "reviewsCount": 7,
    "imagesCount": 6,
    "imageCategories": [],
    "scrapedAt": "2025-11-14T10:21:23.940Z",
    "googleFoodUrl": null,
    "hotelAds": [],
    "openingHours": [
      {
        "day": "Monday",
        "hours": "10 AM to 4 PM"
      },
      {
        "day": "Tuesday",
        "hours": "10 AM to 4 PM"
      },
      {
        "day": "Wednesday",
        "hours": "10 AM to 4 PM"
      },
      {
        "day": "Thursday",
        "hours": "10 AM to 4 PM"
      },
      {
        "day": "Friday",
        "hours": "10 AM to 3 PM"
      },
      {
        "day": "Saturday",
        "hours": "Closed"
      },
      {
        "day": "Sunday",
        "hours": "10 AM to 4 PM"
      }
    ],
    "peopleAlsoSearch": [],
    "placesTags": [],
    "reviewsTags": [],
    "additionalInfo": {
      "Accessibility": [
        {
          "Wheelchair accessible entrance": true
        }
      ],
      "Amenities": [
        {
          "Restroom": true
        }
      ]
    },
    "gasPrices": [],
    "url": "https://www.google.com/maps/search/?api=1&query=Changunarayan%20municipality%20Ward-1%20office%2Cduwakot&query_place_id=ChIJx60daTAb6zkR4eGn-7inp8c",
    "searchPageUrl": "https://www.google.com/maps/search/government/@27.702926009243246,85.40532959120101,17z?hl=en",
    "searchString": "government",
    "language": "en",
    "rank": 7,
    "isAdvertisement": false,
    "imageUrl": "https://lh3.googleusercontent.com/gps-cs-s/AG0ilSzgi7uwfUR0Ar668Ck9PcRb8HADLqwCO0cN-6TMJhn4USeW1tiapfMYEtw6CXYgaFLDH1qiOHZzSX2b15XgOLP2ikIVpx0954uUGqFRhfh1CzCF4CDEY3bDS7dy0nUHrwVtADcp=w408-h544-k-no",
    "kgmid": "/g/11mvgn9tf3"
  },
  {
    "title": "Suryavinayak Municipality Ward No. 6",
    "subTitle": "सूर्यविनायक नगरपालिका वडा नं. ६",
    "price": null,
    "categoryName": "Local government office",
    "address": "MC7C+PFR, Bhaktapur 44800, Nepal",
    "neighborhood": "Katunje",
    "street": "MC7C+PFR",
    "city": "Bhaktapur",
    "postalCode": "44800",
    "state": null,
    "countryCode": "NP",
    "website": "http://www.suryabinayakmun.gov.np/en/content/%E0%A4%B8%E0%A5%82%E0%A4%B0%E0%A5%8D%E0%A4%AF%E0%A4%B5%E0%A4%BF%E0%A4%A8%E0%A4%BE%E0%A4%AF%E0%A4%95-%E0%A4%A8%E0%A4%97%E0%A4%B0%E0%A4%AA%E0%A4%BE%E0%A4%B2%E0%A4%BF%E0%A4%95%E0%A4%BE-%E0%A4%B5%E0%A4%A1%E0%A4%BE-%E0%A4%A8%E2%80%8C-%E0%A5%AC",
    "claimThisBusiness": true,
    "location": {
      "lat": 27.6643701,
      "lng": 85.4211484
    },
    "totalScore": 4.3,
    "permanentlyClosed": false,
    "temporarilyClosed": false,
    "placeId": "ChIJl_yJ26Aa6zkRjqv4rFVmULs",
    "categories": [
      "Local government office"
    ],
    "fid": "0x39eb1aa0db89fc97:0xbb506655acf8ab8e",
    "cid": "13497400601389607822",
    "reviewsCount": 8,
    "imagesCount": 17,
    "imageCategories": [],
    "scrapedAt": "2025-11-14T10:22:14.138Z",
    "googleFoodUrl": null,
    "hotelAds": [],
    "openingHours": [
      {
        "day": "Monday",
        "hours": "10 AM to 5 PM"
      },
      {
        "day": "Tuesday",
        "hours": "10 AM to 5 PM"
      },
      {
        "day": "Wednesday",
        "hours": "10 AM to 5 PM"
      },
      {
        "day": "Thursday",
        "hours": "10 AM to 5 PM"
      },
      {
        "day": "Friday",
        "hours": "10 AM to 5 PM"
      },
      {
        "day": "Saturday",
        "hours": "Closed"
      },
      {
        "day": "Sunday",
        "hours": "10 AM to 5 PM"
      }
    ],
    "peopleAlsoSearch": [],
    "placesTags": [],
    "reviewsTags": [],
    "additionalInfo": {
      "Amenities": [
        {
          "Restroom": true
        }
      ]
    },
    "gasPrices": [],
    "url": "https://www.google.com/maps/search/?api=1&query=Suryavinayak%20Municipality%20Ward%20No.%206&query_place_id=ChIJl_yJ26Aa6zkRjqv4rFVmULs",
    "searchPageUrl": "https://www.google.com/maps/search/government%20office/@27.65728699537838,85.43108520439945,17z?hl=en",
    "searchString": "government office",
    "language": "en",
    "rank": 13,
    "isAdvertisement": false,
    "imageUrl": "https://lh3.googleusercontent.com/gps-cs-s/AG0ilSyhBJyijgE0D81bjembVSEeyOehmfrZ7noWpXgbGedTg-IsKsqANNHWKpnsq44YDfnBIDzYaOHq-nCkftY4KW_Fot5ETfngJd1oEtC63xQKFITbRyMo7TjAXONl72bpWY0FxE44kw=w408-h541-k-no",
    "kgmid": "/g/11fz9wmpzp"
  },
  {
    "title": "Bhaktapur Municipality ward 9 office",
    "subTitle": "भक्तपुर नगरपालिका वडा ९ कार्यालय",
    "price": null,
    "categoryName": "Local government office",
    "address": "Dattatraya Temple, Bhaktapur 44800, Nepal",
    "neighborhood": null,
    "street": "Dattatraya Temple",
    "city": "Bhaktapur",
    "postalCode": "44800",
    "state": null,
    "countryCode": "NP",
    "phone": "+977 1-6612128",
    "phoneUnformatted": "+97716612128",
    "claimThisBusiness": true,
    "location": {
      "lat": 27.6740728,
      "lng": 85.4351243
    },
    "totalScore": 5,
    "permanentlyClosed": false,
    "temporarilyClosed": false,
    "placeId": "ChIJ77qoDugb6zkRccBapfH2dD8",
    "categories": [
      "Local government office"
    ],
    "fid": "0x39eb1be80ea8baef:0x3f74f6f1a55ac071",
    "cid": "4572551039409635441",
    "reviewsCount": 3,
    "imagesCount": 16,
    "imageCategories": [],
    "scrapedAt": "2025-11-14T08:26:31.718Z",
    "googleFoodUrl": null,
    "hotelAds": [],
    "openingHours": [],
    "peopleAlsoSearch": [],
    "placesTags": [],
    "reviewsTags": [],
    "additionalInfo": {
      "Accessibility": [
        {
          "Wheelchair accessible parking lot": true
        }
      ],
      "Amenities": [
        {
          "Restroom": true
        }
      ]
    },
    "gasPrices": [],
    "url": "https://www.google.com/maps/search/?api=1&query=Bhaktapur%20Municipality%20ward%209%20office&query_place_id=ChIJ77qoDugb6zkRccBapfH2dD8",
    "searchPageUrl": "https://www.google.com/maps/search/government/@27.67530454090198,85.4386817269883,17z?hl=en",
    "searchString": "government",
    "language": "en",
    "rank": 6,
    "isAdvertisement": false,
    "imageUrl": "https://lh3.googleusercontent.com/gps-cs-s/AG0ilSwGA9VhUEWNdHAC-s7GRaFPbpY9PzKe8N50ZyR_NJhU1s3PZnURbyn7NXkyAPaqcBsM2hV2df-rZQkwSeZ7_0--pYWvLqGGC6xI_Xig2ts-RR3b1AZZHUrFut2hT8hxdPXAhx9a9A=w408-h575-k-no",
    "kgmid": "/g/11fksvd3z9"
  },
  {
    "title": "Bhaktapur Municipality Ward No. 10 Office",
    "subTitle": "भक्तपुर नगरपालिका वडा नम्बर १० कार्यालय",
    "price": null,
    "categoryName": "Local government office",
    "address": "MCGP+XQC, Garud Kundal Road, Bhaktapur 44800, Nepal",
    "neighborhood": null,
    "street": "MCGP+XQC, Garud Kundal Road",
    "city": "Bhaktapur",
    "postalCode": "44800",
    "state": null,
    "countryCode": "NP",
    "website": "http://bhaktapurmun.gov.np/",
    "phone": "+977 1-6612139",
    "phoneUnformatted": "+97716612139",
    "claimThisBusiness": true,
    "location": {
      "lat": 27.6774454,
      "lng": 85.4368835
    },
    "totalScore": 4,
    "permanentlyClosed": false,
    "temporarilyClosed": false,
    "placeId": "ChIJJa-oKLMa6zkRCRcnRDAJpDM",
    "categories": [
      "Local government office"
    ],
    "fid": "0x39eb1ab328a8af25:0x33a4093044271709",
    "cid": "3721109295021365001",
    "reviewsCount": 4,
    "imagesCount": 8,
    "imageCategories": [],
    "scrapedAt": "2025-11-14T08:26:31.718Z",
    "googleFoodUrl": null,
    "hotelAds": [],
    "openingHours": [
      {
        "day": "Monday",
        "hours": "10 AM to 4 PM"
      },
      {
        "day": "Tuesday",
        "hours": "10 AM to 4 PM"
      },
      {
        "day": "Wednesday",
        "hours": "10 AM to 4 PM"
      },
      {
        "day": "Thursday",
        "hours": "10 AM to 4 PM"
      },
      {
        "day": "Friday",
        "hours": "10 AM to 4 PM"
      },
      {
        "day": "Saturday",
        "hours": "Closed"
      },
      {
        "day": "Sunday",
        "hours": "10 AM to 4 PM"
      }
    ],
    "peopleAlsoSearch": [],
    "placesTags": [],
    "reviewsTags": [],
    "additionalInfo": {
      "Accessibility": [
        {
          "Wheelchair accessible entrance": true
        },
        {
          "Wheelchair accessible parking lot": true
        }
      ],
      "Amenities": [
        {
          "Restroom": true
        }
      ]
    },
    "gasPrices": [],
    "url": "https://www.google.com/maps/search/?api=1&query=Bhaktapur%20Municipality%20Ward%20No.%2010%20Office&query_place_id=ChIJJa-oKLMa6zkRCRcnRDAJpDM",
    "searchPageUrl": "https://www.google.com/maps/search/government/@27.67530454090198,85.4386817269883,17z?hl=en",
    "searchString": "government",
    "language": "en",
    "rank": 8,
    "isAdvertisement": false,
    "imageUrl": "https://lh3.googleusercontent.com/gps-cs-s/AG0ilSz1uyoaPf_8SPvwgFu4QV4JDTE-1UreWnw210NDSmYtc7AoqeayqLfDgAmDzdGOtJ-9f0fPkngoz4J1jQNcQyIDB1jdfD4XPy7ampKX1m4iUfgoSOaV_BsLtA4zUJgVJyG_ng=w408-h306-k-no",
    "kgmid": "/g/12lkgzxwg"
  },
  {
    "title": "Bhaktapur No.7 Ward Office, Golmadhi",
    "subTitle": "भक्तपुर नं. ७ वडा कार्यालय, गोलमढी",
    "price": null,
    "categoryName": "Local government office",
    "address": "MC9J+XRH, Bhaktapur 44800, Nepal",
    "neighborhood": null,
    "street": "MC9J+XRH",
    "city": "Bhaktapur",
    "postalCode": "44800",
    "state": null,
    "countryCode": "NP",
    "claimThisBusiness": true,
    "location": {
      "lat": 27.6699275,
      "lng": 85.4321083
    },
    "totalScore": 4,
    "permanentlyClosed": false,
    "temporarilyClosed": false,
    "placeId": "ChIJx80GnK4a6zkR1eCivLoSIfE",
    "categories": [
      "Local government office"
    ],
    "fid": "0x39eb1aae9c06cdc7:0xf12112babca2e0d5",
    "cid": "17375189430610092245",
    "reviewsCount": 5,
    "imagesCount": 19,
    "imageCategories": [],
    "scrapedAt": "2025-11-14T08:26:31.718Z",
    "googleFoodUrl": null,
    "hotelAds": [],
    "openingHours": [],
    "peopleAlsoSearch": [],
    "placesTags": [],
    "reviewsTags": [],
    "additionalInfo": {
      "Amenities": [
        {
          "Restroom": true
        }
      ]
    },
    "gasPrices": [],
    "url": "https://www.google.com/maps/search/?api=1&query=Bhaktapur%20No.7%20Ward%20Office%2C%20Golmadhi&query_place_id=ChIJx80GnK4a6zkR1eCivLoSIfE",
    "searchPageUrl": "https://www.google.com/maps/search/government/@27.67530454090198,85.4386817269883,17z?hl=en",
    "searchString": "government",
    "language": "en",
    "rank": 9,
    "isAdvertisement": false,
    "imageUrl": "https://lh3.googleusercontent.com/gps-cs-s/AG0ilSzEZspOsvpg4_LqAOJiDIa9kY1sNVlQ5LqzW8xDLmEpB1pjFa8BZwRdEMrWu1yjB0JAshHTn6FG_1r--JmhGC_AgXDu2QAMlT7jIKMYbSOrVciMkMdHRYZrPLphc8pgSrkUQzFb=w426-h240-k-no",
    "kgmid": "/g/11dxspy0yp"
  },
  {
    "title": "Bhaktapur Municipality Ward no.8 Office",
    "subTitle": "भक्तपुर नगरपालिका वडा नं ८ कार्यालय",
    "price": null,
    "categoryName": "Local government office",
    "address": "MC9R+Q3H, Unnamed Road, 44800, Nepal",
    "neighborhood": null,
    "street": "MC9R+Q3H, Unnamed Road",
    "city": "Bhaktapur",
    "postalCode": "44800",
    "state": null,
    "countryCode": "NP",
    "phone": "+977 1-5122281",
    "phoneUnformatted": "+97715122281",
    "claimThisBusiness": true,
    "location": {
      "lat": 27.6694323,
      "lng": 85.4402421
    },
    "totalScore": 5,
    "permanentlyClosed": false,
    "temporarilyClosed": false,
    "placeId": "ChIJtbns4N8F6zkRclwzRFSrD-o",
    "categories": [
      "Local government office"
    ],
    "fid": "0x39eb05dfe0ecb9b5:0xea0fab5444335c72",
    "cid": "16865887507935616114",
    "reviewsCount": 2,
    "imagesCount": 2,
    "imageCategories": [],
    "scrapedAt": "2025-11-14T08:26:31.718Z",
    "googleFoodUrl": null,
    "hotelAds": [],
    "openingHours": [
      {
        "day": "Monday",
        "hours": "10 AM to 5 PM"
      },
      {
        "day": "Tuesday",
        "hours": "10 AM to 5 PM"
      },
      {
        "day": "Wednesday",
        "hours": "10 AM to 5 PM"
      },
      {
        "day": "Thursday",
        "hours": "10 AM to 5 PM"
      },
      {
        "day": "Friday",
        "hours": "10 AM to 5 PM"
      },
      {
        "day": "Saturday",
        "hours": "Closed"
      },
      {
        "day": "Sunday",
        "hours": "10 AM to 5 PM"
      }
    ],
    "peopleAlsoSearch": [],
    "placesTags": [],
    "reviewsTags": [],
    "additionalInfo": {
      "Amenities": [
        {
          "Restroom": true
        }
      ]
    },
    "gasPrices": [],
    "url": "https://www.google.com/maps/search/?api=1&query=Bhaktapur%20Municipality%20Ward%20no.8%20Office&query_place_id=ChIJtbns4N8F6zkRclwzRFSrD-o",
    "searchPageUrl": "https://www.google.com/maps/search/government/@27.67530454090198,85.4386817269883,17z?hl=en",
    "searchString": "government",
    "language": "en",
    "rank": 10,
    "isAdvertisement": false,
    "imageUrl": "https://streetviewpixels-pa.googleapis.com/v1/thumbnail?panoid=vg5sSOy4ymH6Y9gox8cDUA&cb_client=search.gws-prod.gps&w=408&h=240&yaw=167.8872&pitch=0&thumbfov=100",
    "kgmid": "/g/11hw9rwk3r"
  },
  {
    "title": "Bhaktapur Municipal - 6 No.Ward Office",
    "subTitle": "भक्तपुर न. पा. - ६ नं. वडा कार्यालय",
    "price": null,
    "categoryName": "Local government office",
    "address": "MCFJ+RMM, Bholachhen - Yachhen Rd, Bhaktapur 44800, Nepal",
    "neighborhood": null,
    "street": "MCFJ+RMM, Bholachhen - Yachhen Rd",
    "city": "Bhaktapur",
    "postalCode": "44800",
    "state": null,
    "countryCode": "NP",
    "phone": "+977 1-6612159",
    "phoneUnformatted": "+97716612159",
    "claimThisBusiness": true,
    "location": {
      "lat": 27.674586,
      "lng": 85.4316778
    },
    "totalScore": 3.7,
    "permanentlyClosed": false,
    "temporarilyClosed": false,
    "placeId": "ChIJWwcOs60a6zkRv9vkq9tulzA",
    "categories": [
      "Local government office"
    ],
    "fid": "0x39eb1aadb30e075b:0x30976edbabe4dbbf",
    "cid": "3501389125064645567",
    "reviewsCount": 6,
    "imagesCount": 10,
    "imageCategories": [],
    "scrapedAt": "2025-11-14T08:26:31.719Z",
    "googleFoodUrl": null,
    "hotelAds": [],
    "openingHours": [],
    "peopleAlsoSearch": [],
    "placesTags": [],
    "reviewsTags": [],
    "additionalInfo": {
      "Amenities": [
        {
          "Restroom": true
        }
      ]
    },
    "gasPrices": [],
    "url": "https://www.google.com/maps/search/?api=1&query=Bhaktapur%20Municipal%20-%206%20No.Ward%20Office&query_place_id=ChIJWwcOs60a6zkRv9vkq9tulzA",
    "searchPageUrl": "https://www.google.com/maps/search/government/@27.67530454090198,85.4386817269883,17z?hl=en",
    "searchString": "government",
    "language": "en",
    "rank": 13,
    "isAdvertisement": false,
    "imageUrl": "https://lh3.googleusercontent.com/gps-cs-s/AG0ilSzzGrOe2PEjsY-6sgdrKWRdyq26q1O5BDDhGWSaHH5nfeVVK3QEsbDmAyueBpLw9lXV9XVfWpdxbHXT74uPhHv4BaRnhKTeeaflBF9B41TYkS0JFQENGKr0AwhwHgn7OG2w4a7MLg=w426-h240-k-no",
    "kgmid": "/g/11b6qhf4p2"
  },
  {
    "title": "Bhaktapur No.2 Ward Office",
    "subTitle": "भक्तपुर नं. २ वडा कार्यालय",
    "price": null,
    "categoryName": "Local government office",
    "address": "MCFH+Q5V, Bhaktapur 44800, Nepal",
    "neighborhood": null,
    "street": "MCFH+Q5V",
    "city": "Bhaktapur",
    "postalCode": "44800",
    "state": null,
    "countryCode": "NP",
    "claimThisBusiness": true,
    "location": {
      "lat": 27.6744762,
      "lng": 85.4279324
    },
    "totalScore": 2,
    "permanentlyClosed": false,
    "temporarilyClosed": false,
    "placeId": "ChIJs8E7BbAa6zkRdFgO8ghgF_k",
    "categories": [
      "Local government office"
    ],
    "fid": "0x39eb1ab0053bc1b3:0xf9176008f20e5874",
    "cid": "17948920431445432436",
    "reviewsCount": 4,
    "imagesCount": 9,
    "imageCategories": [],
    "scrapedAt": "2025-11-14T08:26:51.620Z",
    "googleFoodUrl": null,
    "hotelAds": [],
    "openingHours": [
      {
        "day": "Monday",
        "hours": "10 AM to 4 PM"
      },
      {
        "day": "Tuesday",
        "hours": "10 AM to 4 PM"
      },
      {
        "day": "Wednesday",
        "hours": "10 AM to 4 PM"
      },
      {
        "day": "Thursday",
        "hours": "10 AM to 4 PM"
      },
      {
        "day": "Friday",
        "hours": "10 AM to 4 PM"
      },
      {
        "day": "Saturday",
        "hours": "Closed"
      },
      {
        "day": "Sunday",
        "hours": "10 AM to 4 PM"
      }
    ],
    "peopleAlsoSearch": [],
    "placesTags": [],
    "reviewsTags": [],
    "additionalInfo": {
      "Amenities": [
        {
          "Restroom": true
        }
      ]
    },
    "gasPrices": [],
    "url": "https://www.google.com/maps/search/?api=1&query=Bhaktapur%20No.2%20Ward%20Office&query_place_id=ChIJs8E7BbAa6zkRdFgO8ghgF_k",
    "searchPageUrl": "https://www.google.com/maps/search/government/@27.682913622705936,85.43009086349416,17z?hl=en",
    "searchString": "government",
    "language": "en",
    "rank": 14,
    "isAdvertisement": false,
    "imageUrl": "https://lh3.googleusercontent.com/gps-cs-s/AG0ilSzmNIOfi0AUBgyGYUIEX0lCkp1vndnVN2Abvu7Br5psllChvy_ZI_yw7O4VPe1qfR6G6zn0U-dZhlPKr51W2PpI44FvwgdeXhC_ONXo7gU7ZS0FwV7fBjua7x05vRe9h6rg178Z=w408-h306-k-no",
    "kgmid": "/g/11g8g_c1fg"
  },
  {
    "title": "Bhaktapur Municipality Ward No. 15 Committee",
    "subTitle": "भक्तपुर नगरपालिका १५ नं वडा समिति",
    "price": null,
    "categoryName": "Local government office",
    "address": "MCCG+Q2F, इताछेँ, Bhaktapur 44800, Nepal",
    "neighborhood": null,
    "street": "MCCG+Q2F, इताछेँ",
    "city": "Bhaktapur",
    "postalCode": "44800",
    "state": null,
    "countryCode": "NP",
    "phone": "+977 1-6612125",
    "phoneUnformatted": "+97716612125",
    "claimThisBusiness": true,
    "location": {
      "lat": 27.6719479,
      "lng": 85.4250618
    },
    "totalScore": 3.5,
    "permanentlyClosed": false,
    "temporarilyClosed": false,
    "placeId": "ChIJA4bRG6Ua6zkROt8lCFo9J6M",
    "categories": [
      "Local government office"
    ],
    "fid": "0x39eb1aa51bd18603:0xa3273d5a0825df3a",
    "cid": "11756432809167019834",
    "reviewsCount": 2,
    "imagesCount": 4,
    "imageCategories": [],
    "scrapedAt": "2025-11-14T08:27:32.411Z",
    "googleFoodUrl": null,
    "hotelAds": [],
    "openingHours": [
      {
        "day": "Monday",
        "hours": "10 AM to 5 PM"
      },
      {
        "day": "Tuesday",
        "hours": "10 AM to 5 PM"
      },
      {
        "day": "Wednesday",
        "hours": "10 AM to 5 PM"
      },
      {
        "day": "Thursday",
        "hours": "10 AM to 5 PM"
      },
      {
        "day": "Friday",
        "hours": "10 AM to 5 PM"
      },
      {
        "day": "Saturday",
        "hours": "Closed"
      },
      {
        "day": "Sunday",
        "hours": "10 AM to 5 PM"
      }
    ],
    "peopleAlsoSearch": [],
    "placesTags": [],
    "reviewsTags": [],
    "additionalInfo": {
      "Amenities": [
        {
          "Restroom": true
        }
      ]
    },
    "gasPrices": [],
    "url": "https://www.google.com/maps/search/?api=1&query=Bhaktapur%20Municipality%20Ward%20No.%2015%20Committee&query_place_id=ChIJA4bRG6Ua6zkROt8lCFo9J6M",
    "searchPageUrl": "https://www.google.com/maps/search/government/@27.67530454090198,85.43009086349416,17z?hl=en",
    "searchString": "government",
    "language": "en",
    "rank": 17,
    "isAdvertisement": false,
    "imageUrl": "https://lh3.googleusercontent.com/gps-proxy/ALd4DhEjxuXZ8cUkyRS3dpPZttx7k7lIbjXUvpB0DfD9m4O7hujULwCa-k60MBe0HGufixTtuaqGAd6tCYjFo-OBCphAB8R8u2Q7JCGIbcec-YZ6cJoX_TTxuITYnWuV3ovXftlqYMQDUE6mBzmuRD9kpzmapaE-gjNms4opJmVutSf_ZXcqAZDWCoDUFM8ARWwUXJOYdzg=w408-h306-k-no",
    "kgmid": "/g/11b6pzmkp5"
  },
  {
    "title": "Bhaktapur Municipality",
    "subTitle": "भक्तपुर नगरपालिका",
    "price": null,
    "categoryName": "Local government office",
    "address": "MCFG+RWW, Nagarkot Rd, Bhaktapur 44800, Nepal",
    "neighborhood": null,
    "street": "MCFG+RWW, Nagarkot Rd",
    "city": "Bhaktapur",
    "postalCode": "44800",
    "state": null,
    "countryCode": "NP",
    "website": "http://www.bhaktapurmun.gov.np/",
    "phone": "+977 1-6610310",
    "phoneUnformatted": "+97716610310",
    "claimThisBusiness": true,
    "location": {
      "lat": 27.6746071,
      "lng": 85.4273411
    },
    "totalScore": 4.6,
    "permanentlyClosed": false,
    "temporarilyClosed": false,
    "placeId": "ChIJGdfSqboa6zkRs-gWsAZBNQo",
    "categories": [
      "Local government office"
    ],
    "fid": "0x39eb1abaa9d2d719:0xa354106b016e8b3",
    "cid": "735565611124844723",
    "reviewsCount": 21,
    "imagesCount": 328,
    "imageCategories": [],
    "scrapedAt": "2025-11-14T08:27:32.411Z",
    "googleFoodUrl": null,
    "hotelAds": [],
    "openingHours": [
      {
        "day": "Monday",
        "hours": "10 AM to 5 PM"
      },
      {
        "day": "Tuesday",
        "hours": "10 AM to 5 PM"
      },
      {
        "day": "Wednesday",
        "hours": "10 AM to 5 PM"
      },
      {
        "day": "Thursday",
        "hours": "10 AM to 5 PM"
      },
      {
        "day": "Friday",
        "hours": "10 AM to 5 PM"
      },
      {
        "day": "Saturday",
        "hours": "Closed"
      },
      {
        "day": "Sunday",
        "hours": "10 AM to 5 PM"
      }
    ],
    "peopleAlsoSearch": [],
    "placesTags": [],
    "reviewsTags": [],
    "additionalInfo": {
      "Accessibility": [
        {
          "Wheelchair accessible entrance": true
        },
        {
          "Wheelchair accessible parking lot": true
        }
      ],
      "Amenities": [
        {
          "Restroom": true
        }
      ],
      "Pets": [
        {
          "Dogs allowed": true
        }
      ]
    },
    "gasPrices": [],
    "url": "https://www.google.com/maps/search/?api=1&query=Bhaktapur%20Municipality&query_place_id=ChIJGdfSqboa6zkRs-gWsAZBNQo",
    "searchPageUrl": "https://www.google.com/maps/search/government/@27.67530454090198,85.43009086349416,17z?hl=en",
    "searchString": "government",
    "language": "en",
    "rank": 20,
    "isAdvertisement": false,
    "imageUrl": "https://lh3.googleusercontent.com/gps-cs-s/AG0ilSwHVmY9lIXxH_WxiSp7uNIVjjvrK4BKOnixlBfZxeVqaIO3nWoqYIhGpAkTXcpKwsT2QQsOLgUXDldeofphxKzI-tUcFD-8lzOvxoSGYJLNSjXeML1dSiC7Mr4UBL71Xcs1nyF3=w500-h240-k-no",
    "kgmid": "/g/11c0xtnz7q"
  },
  {
    "title": "Bhaktapur Municipality Ward No. 1",
    "subTitle": "भक्तपुर नगरपालिका वडा नं. १",
    "price": null,
    "categoryName": "Local government office",
    "address": "MCCF+446 Bhaktapur Mini Bus Park, Old Route, Bhaktapur 44800, Nepal",
    "neighborhood": null,
    "street": "MCCF+446 Bhaktapur Mini Bus Park, Old Route",
    "city": "Bhaktapur",
    "postalCode": "44800",
    "state": null,
    "countryCode": "NP",
    "phone": "+977 1-6612125",
    "phoneUnformatted": "+97716612125",
    "claimThisBusiness": true,
    "location": {
      "lat": 27.670281,
      "lng": 85.4227574
    },
    "totalScore": 5,
    "permanentlyClosed": false,
    "temporarilyClosed": false,
    "placeId": "ChIJpd-NtkQb6zkR_7LOsmpTKUM",
    "categories": [
      "Local government office"
    ],
    "fid": "0x39eb1b44b68ddfa5:0x4329536ab2ceb2ff",
    "cid": "4839490992317838079",
    "reviewsCount": 2,
    "imagesCount": 16,
    "imageCategories": [],
    "scrapedAt": "2025-11-14T08:27:39.224Z",
    "googleFoodUrl": null,
    "hotelAds": [],
    "openingHours": [
      {
        "day": "Monday",
        "hours": "10 AM to 5 PM"
      },
      {
        "day": "Tuesday",
        "hours": "10 AM to 5 PM"
      },
      {
        "day": "Wednesday",
        "hours": "10 AM to 5 PM"
      },
      {
        "day": "Thursday",
        "hours": "10 AM to 5 PM"
      },
      {
        "day": "Friday",
        "hours": "10 AM to 5 PM"
      },
      {
        "day": "Saturday",
        "hours": "Closed"
      },
      {
        "day": "Sunday",
        "hours": "10 AM to 5 PM"
      }
    ],
    "peopleAlsoSearch": [],
    "placesTags": [],
    "reviewsTags": [],
    "additionalInfo": {
      "Accessibility": [
        {
          "Wheelchair accessible entrance": true
        },
        {
          "Wheelchair accessible parking lot": true
        }
      ],
      "Amenities": [
        {
          "Restroom": true
        }
      ]
    },
    "gasPrices": [],
    "url": "https://www.google.com/maps/search/?api=1&query=Bhaktapur%20Municipality%20Ward%20No.%201&query_place_id=ChIJpd-NtkQb6zkR_7LOsmpTKUM",
    "searchPageUrl": "https://www.google.com/maps/search/government/@27.667695459098024,85.42150000000001,17z?hl=en",
    "searchString": "government",
    "language": "en",
    "rank": 18,
    "isAdvertisement": false,
    "imageUrl": "https://lh3.googleusercontent.com/gps-proxy/ALd4DhGgrtSZ3zVRn07PDeXoga--2mngxJ4B1MbqA--ygrI_t7_uP2qtVQvMizw0JRMcipgVUSmhQR15kiIly_KRzGEoWA62Hc2ohtOhyGLFZFLlL6wuYMcBYxUp_T0i8ei5tg50lk4-8135AUQu7epBHdDeJu9m3Utj5ePeLo1wEhfPCWkxrUs4E6zW7TEKyHHfwxnYJw=w408-h306-k-no",
    "kgmid": "/g/11h09z2z15"
  },
  {
    "title": "Suryavinayak Municipality Ward No. 6",
    "subTitle": "सूर्यविनायक नगरपालिका वडा नं. ६",
    "price": null,
    "categoryName": "Local government office",
    "address": "MC7C+PFR, Bhaktapur 44800, Nepal",
    "neighborhood": "Katunje",
    "street": "MC7C+PFR",
    "city": "Bhaktapur",
    "postalCode": "44800",
    "state": null,
    "countryCode": "NP",
    "website": "http://www.suryabinayakmun.gov.np/en/content/%E0%A4%B8%E0%A5%82%E0%A4%B0%E0%A5%8D%E0%A4%AF%E0%A4%B5%E0%A4%BF%E0%A4%A8%E0%A4%BE%E0%A4%AF%E0%A4%95-%E0%A4%A8%E0%A4%97%E0%A4%B0%E0%A4%AA%E0%A4%BE%E0%A4%B2%E0%A4%BF%E0%A4%95%E0%A4%BE-%E0%A4%B5%E0%A4%A1%E0%A4%BE-%E0%A4%A8%E2%80%8C-%E0%A5%AC",
    "claimThisBusiness": true,
    "location": {
      "lat": 27.6643701,
      "lng": 85.4211484
    },
    "totalScore": 4.3,
    "permanentlyClosed": false,
    "temporarilyClosed": false,
    "placeId": "ChIJl_yJ26Aa6zkRjqv4rFVmULs",
    "categories": [
      "Local government office"
    ],
    "fid": "0x39eb1aa0db89fc97:0xbb506655acf8ab8e",
    "cid": "13497400601389607822",
    "reviewsCount": 8,
    "reviewsDistribution": {
      "oneStar": 0,
      "twoStar": 0,
      "threeStar": 3,
      "fourStar": 0,
      "fiveStar": 5
    },
    "imagesCount": 17,
    "imageCategories": [],
    "scrapedAt": "2025-11-14T08:27:39.981Z",
    "googleFoodUrl": null,
    "hotelAds": [],
    "openingHours": [
      {
        "day": "Monday",
        "hours": "10 AM to 5 PM"
      },
      {
        "day": "Tuesday",
        "hours": "10 AM to 5 PM"
      },
      {
        "day": "Wednesday",
        "hours": "10 AM to 5 PM"
      },
      {
        "day": "Thursday",
        "hours": "10 AM to 5 PM"
      },
      {
        "day": "Friday",
        "hours": "10 AM to 5 PM"
      },
      {
        "day": "Saturday",
        "hours": "Closed"
      },
      {
        "day": "Sunday",
        "hours": "10 AM to 5 PM"
      }
    ],
    "peopleAlsoSearch": [],
    "placesTags": [],
    "reviewsTags": [],
    "additionalInfo": {
      "Amenities": [
        {
          "Restroom": true
        }
      ]
    },
    "gasPrices": [],
    "url": "https://www.google.com/maps/search/?api=1&query=Suryavinayak%20Municipality%20Ward%20No.%206&query_place_id=ChIJl_yJ26Aa6zkRjqv4rFVmULs",
    "searchPageUrl": "https://www.google.com/maps/search/government/@27.667695459098024,85.42150000000001,17z?hl=en",
    "searchString": "government",
    "language": "en",
    "rank": 29,
    "isAdvertisement": false,
    "imageUrl": "https://lh3.googleusercontent.com/gps-cs-s/AG0ilSyhBJyijgE0D81bjembVSEeyOehmfrZ7noWpXgbGedTg-IsKsqANNHWKpnsq44YDfnBIDzYaOHq-nCkftY4KW_Fot5ETfngJd1oEtC63xQKFITbRyMo7TjAXONl72bpWY0FxE44kw=w408-h541-k-no",
    "kgmid": "/g/11fz9wmpzp"
  }
]