[
  {
    "title": "Nepal Scout Office",
    "subTitle": "नेपाल स्काउट कार्यालय",
    "price": null,
    "categoryName": "Office",
    "address": "MCFH+38P, Bhaktapur 44800, Nepal",
    "neighborhood": null,
    "street": "MCFH+38P",
    "city": "Bhaktapur",
    "postalCode": "44800",
    "state": null,
    "countryCode": "NP",
    "phone": "+977 1-6610367",
    "phoneUnformatted": "+97716610367",
    "claimThisBusiness": true,
    "location": {
      "lat": 27.6727239,
      "lng": 85.428321
    },
    "totalScore": 3.7,
    "permanentlyClosed": false,
    "temporarilyClosed": false,
    "placeId": "ChIJ2Q_a668a6zkRar6iVg05hWU",
    "categories": [
      "Office"
    ],
    "fid": "0x39eb1aafebda0fd9:0x6585390d56a2be6a",
    "cid": "7315315899184103018",
    "reviewsCount": 3,
    "reviewsDistribution": {
      "oneStar": 1,
      "twoStar": 0,
      "threeStar": 0,
      "fourStar": 0,
      "fiveStar": 2
    },
    "imagesCount": 22,
    "imageCategories": [],
    "scrapedAt": "2025-11-14T08:13:50.874Z",
    "googleFoodUrl": null,
    "hotelAds": [],
    "openingHours": [
      {
        "day": "Monday",
        "hours": "10 AM to 4 PM"
      },
      {
        "day": "Tuesday",
        "hours": "10 AM to 4 PM"
      },
      {
        "day": "Wednesday",
        "hours": "10 AM to 4 PM"
      },
      {
        "day": "Thursday",
        "hours": "10 AM to 4 PM"
      },
      {
        "day": "Friday",
        "hours": "10 AM to 4 PM"
      },
      {
        "day": "Saturday",
        "hours": "Closed"
      },
      {
        "day": "Sunday",
        "hours": "10 AM to 4 PM"
      }
    ],
    "peopleAlsoSearch": [],
    "placesTags": [],
    "reviewsTags": [],
    "gasPrices": [],
    "url": "https://www.google.com/maps/search/?api=1&query=Nepal%20Scout%20Office&query_place_id=ChIJ2Q_a668a6zkRar6iVg05hWU",
    "searchPageUrl": "https://www.google.com/maps/search/office/@27.67530454090198,85.43009086349416,17z?hl=en",
    "searchString": "office",
    "language": "en",
    "rank": 25,
    "isAdvertisement": false,
    "imageUrl": "https://lh3.googleusercontent.com/gps-cs-s/AG0ilSw1q_v0Inq8-SRhgtWm8gnt8gaKCCq-kHIEuncudtBbFivkcoe3hLcWTMKTBi3fbuLXvJZohtsZEHez5wBFVudV_d3wy4iA8fk7whkdRpHS2TsiL1ibYkW6aSIf_PgcWwuCf-Qg=w426-h240-k-no",
    "kgmid": "/g/11b6pc707c"
  },
  {
    "title": "Idea Inc Pvt. Ltd.",
    "subTitle": "विचार इंक प्रा। लिमिटेड",
    "price": null,
    "categoryName": "Office",
    "address": "Top 1st floor, Dattatraya Square, 3 Dattatraya Roof, Bhaktapur 44800, Nepal",
    "neighborhood": "Tachapal",
    "street": "Top 1st floor, Dattatraya Square, 3 Dattatraya Roof",
    "city": "Bhaktapur",
    "postalCode": "44800",
    "state": null,
    "countryCode": "NP",
    "website": "http://ideainc.com.np/",
    "phone": "+977 980-8224838",
    "phoneUnformatted": "+9779808224838",
    "claimThisBusiness": true,
    "location": {
      "lat": 27.6733617,
      "lng": 85.4345422
    },
    "totalScore": 5,
    "permanentlyClosed": false,
    "temporarilyClosed": false,
    "placeId": "ChIJXcj9ca0a6zkRjgMM1Ch-JJw",
    "categories": [
      "Office"
    ],
    "fid": "0x39eb1aad71fdc85d:0x9c247e28d40c038e",
    "cid": "11251256482899690382",
    "reviewsCount": 1,
    "reviewsDistribution": {
      "oneStar": 0,
      "twoStar": 0,
      "threeStar": 0,
      "fourStar": 0,
      "fiveStar": 1
    },
    "imagesCount": 1,
    "imageCategories": [],
    "scrapedAt": "2025-11-14T08:13:50.874Z",
    "googleFoodUrl": null,
    "hotelAds": [],
    "openingHours": [
      {
        "day": "Monday",
        "hours": "9 AM to 5 PM"
      },
      {
        "day": "Tuesday",
        "hours": "9 AM to 5 PM"
      },
      {
        "day": "Wednesday",
        "hours": "9 AM to 5 PM"
      },
      {
        "day": "Thursday",
        "hours": "9 AM to 5 PM"
      },
      {
        "day": "Friday",
        "hours": "9 AM to 5 PM"
      },
      {
        "day": "Saturday",
        "hours": "Closed"
      },
      {
        "day": "Sunday",
        "hours": "9 AM to 5 PM"
      }
    ],
    "peopleAlsoSearch": [],
    "placesTags": [],
    "reviewsTags": [],
    "gasPrices": [],
    "url": "https://www.google.com/maps/search/?api=1&query=Idea%20Inc%20Pvt.%20Ltd.&query_place_id=ChIJXcj9ca0a6zkRjgMM1Ch-JJw",
    "searchPageUrl": "https://www.google.com/maps/search/office/@27.67530454090198,85.43009086349416,17z?hl=en",
    "searchString": "office",
    "language": "en",
    "rank": 31,
    "isAdvertisement": false,
    "imageUrl": "https://streetviewpixels-pa.googleapis.com/v1/thumbnail?panoid=00QOsLaCTkwdgI03fgCQgg&cb_client=search.gws-prod.gps&w=408&h=240&yaw=188.8228&pitch=0&thumbfov=100",
    "kgmid": "/g/1pp2wy7_4"
  },
  {
    "title": "Nepal Revolutionary Students' Union",
    "subTitle": "नेपाल क्रान्तिकारी विद्यार्थी संघ",
    "price": null,
    "categoryName": "Office",
    "address": "MCGP+PH5, Nagaancha, Nagarkot Rd, Bhaktapur 44800, Nepal",
    "neighborhood": null,
    "street": "MCGP+PH5, Nagaancha, Nagarkot Rd",
    "city": "Bhaktapur",
    "postalCode": "44800",
    "state": null,
    "countryCode": "NP",
    "phone": "+977 1-6611589",
    "phoneUnformatted": "+97716611589",
    "claimThisBusiness": true,
    "location": {
      "lat": 27.6767646,
      "lng": 85.4364842
    },
    "totalScore": 5,
    "permanentlyClosed": false,
    "temporarilyClosed": false,
    "placeId": "ChIJAf2a3rIa6zkRkxpNN5BLprY",
    "categories": [
      "Office"
    ],
    "fid": "0x39eb1ab2de9afd01:0xb6a64b90374d1a93",
    "cid": "13161290043812027027",
    "reviewsCount": 2,
    "reviewsDistribution": {
      "oneStar": 0,
      "twoStar": 0,
      "threeStar": 0,
      "fourStar": 0,
      "fiveStar": 2
    },
    "imagesCount": 1,
    "imageCategories": [],
    "scrapedAt": "2025-11-14T08:13:51.983Z",
    "googleFoodUrl": null,
    "hotelAds": [],
    "openingHours": [],
    "peopleAlsoSearch": [],
    "placesTags": [],
    "reviewsTags": [],
    "gasPrices": [],
    "url": "https://www.google.com/maps/search/?api=1&query=Nepal%20Revolutionary%20Students'%20Union&query_place_id=ChIJAf2a3rIa6zkRkxpNN5BLprY",
    "searchPageUrl": "https://www.google.com/maps/search/office/@27.67530454090198,85.43009086349416,17z?hl=en",
    "searchString": "office",
    "language": "en",
    "rank": 50,
    "isAdvertisement": false,
    "imageUrl": "https://streetviewpixels-pa.googleapis.com/v1/thumbnail?panoid=3veGaD-LY8b448mLh8fUiw&cb_client=search.gws-prod.gps&w=408&h=240&yaw=350.26706&pitch=0&thumbfov=100",
    "kgmid": "/g/11bw677jxf"
  },
  {
    "title": "Nepal Bar Association",
    "subTitle": "नेपाल बार एसोसिएशन",
    "price": null,
    "categoryName": "Office",
    "address": "MCFH+576, Nagarkot Rd, Bhaktapur 44800, Nepal",
    "neighborhood": null,
    "street": "MCFH+576, Nagarkot Rd",
    "city": "Bhaktapur",
    "postalCode": "44800",
    "state": null,
    "countryCode": "NP",
    "phone": "+977 1-6611126",
    "phoneUnformatted": "+97716611126",
    "claimThisBusiness": true,
    "location": {
      "lat": 27.6729018,
      "lng": 85.4281289
    },
    "permanentlyClosed": false,
    "temporarilyClosed": false,
    "placeId": "ChIJEQin7q8a6zkRf2rSJIVkEQI",
    "categories": [
      "Office"
    ],
    "fid": "0x39eb1aafeea70811:0x211648524d26a7f",
    "cid": "149010785691134591",
    "reviewsCount": 0,
    "imagesCount": 2,
    "imageCategories": [],
    "scrapedAt": "2025-11-14T08:13:51.983Z",
    "googleFoodUrl": null,
    "hotelAds": [],
    "openingHours": [
      {
        "day": "Monday",
        "hours": "10 AM to 5 PM"
      },
      {
        "day": "Tuesday",
        "hours": "10 AM to 5 PM"
      },
      {
        "day": "Wednesday",
        "hours": "10 AM to 5 PM"
      },
      {
        "day": "Thursday",
        "hours": "10 AM to 5 PM"
      },
      {
        "day": "Friday",
        "hours": "10 AM to 5 PM"
      },
      {
        "day": "Saturday",
        "hours": "Closed"
      },
      {
        "day": "Sunday",
        "hours": "10 AM to 5 PM"
      }
    ],
    "peopleAlsoSearch": [],
    "placesTags": [],
    "reviewsTags": [],
    "gasPrices": [],
    "url": "https://www.google.com/maps/search/?api=1&query=Nepal%20Bar%20Association&query_place_id=ChIJEQin7q8a6zkRf2rSJIVkEQI",
    "searchPageUrl": "https://www.google.com/maps/search/office/@27.67530454090198,85.43009086349416,17z?hl=en",
    "searchString": "office",
    "language": "en",
    "rank": 59,
    "isAdvertisement": false,
    "imageUrl": "https://streetviewpixels-pa.googleapis.com/v1/thumbnail?panoid=jFT_8piYMhi3TmUZkrVbnw&cb_client=search.gws-prod.gps&w=408&h=240&yaw=251.25984&pitch=0&thumbfov=100",
    "kgmid": "/g/11b6q2n4fg"
  },
  {
    "title": "ऊॅ त्रिशक्ति ल च्यामवर",
    "price": null,
    "categoryName": "Office",
    "address": "MCFH+494, Bhaktapur 44800, Nepal",
    "neighborhood": null,
    "street": "MCFH+494",
    "city": "Bhaktapur",
    "postalCode": "44800",
    "state": null,
    "countryCode": "NP",
    "phone": "+977 1-6212592",
    "phoneUnformatted": "+97716212592",
    "claimThisBusiness": true,
    "location": {
      "lat": 27.6727606,
      "lng": 85.4284483
    },
    "permanentlyClosed": false,
    "temporarilyClosed": false,
    "placeId": "ChIJt6UY6q8a6zkRHU-1zowfJfY",
    "categories": [
      "Office"
    ],
    "fid": "0x39eb1aafea18a5b7:0xf6251f8cceb54f1d",
    "cid": "17736617397092437789",
    "reviewsCount": 0,
    "imagesCount": 4,
    "imageCategories": [],
    "scrapedAt": "2025-11-14T08:13:51.984Z",
    "googleFoodUrl": null,
    "hotelAds": [],
    "openingHours": [
      {
        "day": "Monday",
        "hours": "9 AM to 5 PM"
      },
      {
        "day": "Tuesday",
        "hours": "9 AM to 5 PM"
      },
      {
        "day": "Wednesday",
        "hours": "9 AM to 5 PM"
      },
      {
        "day": "Thursday",
        "hours": "9 AM to 5 PM"
      },
      {
        "day": "Friday",
        "hours": "9 AM to 5 PM"
      },
      {
        "day": "Saturday",
        "hours": "9 AM to 5 PM"
      },
      {
        "day": "Sunday",
        "hours": "9 AM to 5 PM"
      }
    ],
    "peopleAlsoSearch": [],
    "placesTags": [],
    "reviewsTags": [],
    "gasPrices": [],
    "url": "https://www.google.com/maps/search/?api=1&query=%E0%A4%8A%E0%A5%85%20%E0%A4%A4%E0%A5%8D%E0%A4%B0%E0%A4%BF%E0%A4%B6%E0%A4%95%E0%A5%8D%E0%A4%A4%E0%A4%BF%20%E0%A4%B2%20%E0%A4%9A%E0%A5%8D%E0%A4%AF%E0%A4%BE%E0%A4%AE%E0%A4%B5%E0%A4%B0&query_place_id=ChIJt6UY6q8a6zkRHU-1zowfJfY",
    "searchPageUrl": "https://www.google.com/maps/search/office/@27.67530454090198,85.43009086349416,17z?hl=en",
    "searchString": "office",
    "language": "en",
    "rank": 60,
    "isAdvertisement": false,
    "imageUrl": "https://lh3.googleusercontent.com/gps-proxy/ALd4DhHmtOS8bTT2TMFfmsfXlc-xlOY5KXtvjHIcjMG4GAkEFu5RztC9zkf_PQa6_qCrKp1JjAtPgBEnB35fqotP09-25SYCjM4qG_L9zEn1Uxh1YBqQEf131h1AT7tU8F-aijiADx-uuox4j820SB6SHXCgFkcmouDVQIdSbv9OksVCYxVak4KzMPO7D9x0CDwoL6DpGMU=w408-h306-k-no",
    "kgmid": "/g/11b6pbd1fy"
  },
  {
    "title": "Bhaktapur Legal Advice Center",
    "subTitle": "भक्तपुर कानुनी परामर्श केन्द्र्‍",
    "price": null,
    "categoryName": "Office",
    "address": "MCFH+47C, Nagarkot Rd, Bhaktapur 44800, Nepal",
    "neighborhood": null,
    "street": "MCFH+47C, Nagarkot Rd",
    "city": "Bhaktapur",
    "postalCode": "44800",
    "state": null,
    "countryCode": "NP",
    "phone": "+977 984-1257752",
    "phoneUnformatted": "+9779841257752",
    "claimThisBusiness": true,
    "location": {
      "lat": 27.672804,
      "lng": 85.42815
    },
    "permanentlyClosed": false,
    "temporarilyClosed": false,
    "placeId": "ChIJQzqn7q8a6zkRaWfNUaHtogc",
    "categories": [
      "Office"
    ],
    "fid": "0x39eb1aafeea73a43:0x7a2eda151cd6769",
    "cid": "550263381610555241",
    "reviewsCount": 0,
    "imagesCount": 3,
    "imageCategories": [],
    "scrapedAt": "2025-11-14T08:13:52.955Z",
    "googleFoodUrl": null,
    "hotelAds": [],
    "openingHours": [
      {
        "day": "Monday",
        "hours": "10 AM to 5 PM"
      },
      {
        "day": "Tuesday",
        "hours": "10 AM to 5 PM"
      },
      {
        "day": "Wednesday",
        "hours": "10 AM to 5 PM"
      },
      {
        "day": "Thursday",
        "hours": "10 AM to 5 PM"
      },
      {
        "day": "Friday",
        "hours": "10 AM to 5 PM"
      },
      {
        "day": "Saturday",
        "hours": "Closed"
      },
      {
        "day": "Sunday",
        "hours": "10 AM to 5 PM"
      }
    ],
    "peopleAlsoSearch": [],
    "placesTags": [],
    "reviewsTags": [],
    "gasPrices": [],
    "url": "https://www.google.com/maps/search/?api=1&query=Bhaktapur%20Legal%20Advice%20Center&query_place_id=ChIJQzqn7q8a6zkRaWfNUaHtogc",
    "searchPageUrl": "https://www.google.com/maps/search/office/@27.67530454090198,85.43009086349416,17z?hl=en",
    "searchString": "office",
    "language": "en",
    "rank": 62,
    "isAdvertisement": false,
    "imageUrl": "https://lh3.googleusercontent.com/gps-proxy/ALd4DhF7ClwdEULFhDmTVto92rvmShuiSqinGG-_Orxla3bLTql5aDJI3UopdlwNka4Z8iPmdw1b_opzf5Z8EkygaU892CHrUtdr8k08QlHbES4y9sul40lyyIBYB0zKXS8DRFHAQKwl0NT8LYs3Wh3G6Xg169J-DaE2IRPeri3JWEWyO6ks2quEIHZTTO3sVcMguOXHvw=w408-h306-k-no",
    "kgmid": "/g/11b6pw_0mj"
  },
  {
    "title": "Pathibhara welfare Legal Service",
    "subTitle": "पाथीभरा कल्याणकारी कानूनी सेवा",
    "price": null,
    "categoryName": "Office",
    "address": "MCFH+5HJ, Nagarkot Rd, Bhaktapur 44800, Nepal",
    "neighborhood": null,
    "street": "MCFH+5HJ, Nagarkot Rd",
    "city": "Bhaktapur",
    "postalCode": "44800",
    "state": null,
    "countryCode": "NP",
    "phone": "+977 984-1863262",
    "phoneUnformatted": "+9779841863262",
    "claimThisBusiness": true,
    "location": {
      "lat": 27.672955,
      "lng": 85.428905
    },
    "permanentlyClosed": false,
    "temporarilyClosed": false,
    "placeId": "ChIJSXBvxK8a6zkR6xULXAH7_wk",
    "categories": [
      "Office"
    ],
    "fid": "0x39eb1aafc46f7049:0x9fffb015c0b15eb",
    "cid": "720570448660338155",
    "reviewsCount": 0,
    "imagesCount": 2,
    "imageCategories": [],
    "scrapedAt": "2025-11-14T08:13:52.955Z",
    "googleFoodUrl": null,
    "hotelAds": [],
    "openingHours": [],
    "peopleAlsoSearch": [],
    "placesTags": [],
    "reviewsTags": [],
    "gasPrices": [],
    "url": "https://www.google.com/maps/search/?api=1&query=Pathibhara%20welfare%20Legal%20Service&query_place_id=ChIJSXBvxK8a6zkR6xULXAH7_wk",
    "searchPageUrl": "https://www.google.com/maps/search/office/@27.67530454090198,85.43009086349416,17z?hl=en",
    "searchString": "office",
    "language": "en",
    "rank": 72,
    "isAdvertisement": false,
    "imageUrl": "https://streetviewpixels-pa.googleapis.com/v1/thumbnail?panoid=UBTIrKFb6EFfjOm4XrhEjA&cb_client=search.gws-prod.gps&w=408&h=240&yaw=65.40202&pitch=0&thumbfov=100",
    "kgmid": "/g/11b6p_g4vg"
  },
  {
    "title": "सहारा कानेनी सेवा",
    "price": null,
    "categoryName": "Office",
    "address": "MCFH+5HJ, Bhaktapur 44800, Nepal",
    "neighborhood": null,
    "street": "MCFH+5HJ",
    "city": "Bhaktapur",
    "postalCode": "44800",
    "state": null,
    "countryCode": "NP",
    "claimThisBusiness": true,
    "location": {
      "lat": 27.672955,
      "lng": 85.428905
    },
    "permanentlyClosed": false,
    "temporarilyClosed": false,
    "placeId": "ChIJSXBvxK8a6zkRN_IlAZ15dB4",
    "categories": [
      "Office"
    ],
    "fid": "0x39eb1aafc46f7049:0x1e74799d0125f237",
    "cid": "2194512633672364599",
    "reviewsCount": 0,
    "imagesCount": 2,
    "imageCategories": [],
    "scrapedAt": "2025-11-14T08:13:52.955Z",
    "googleFoodUrl": null,
    "hotelAds": [],
    "openingHours": [],
    "peopleAlsoSearch": [],
    "placesTags": [],
    "reviewsTags": [],
    "gasPrices": [],
    "url": "https://www.google.com/maps/search/?api=1&query=%E0%A4%B8%E0%A4%B9%E0%A4%BE%E0%A4%B0%E0%A4%BE%20%E0%A4%95%E0%A4%BE%E0%A4%A8%E0%A5%87%E0%A4%A8%E0%A5%80%20%E0%A4%B8%E0%A5%87%E0%A4%B5%E0%A4%BE&query_place_id=ChIJSXBvxK8a6zkRN_IlAZ15dB4",
    "searchPageUrl": "https://www.google.com/maps/search/office/@27.67530454090198,85.43009086349416,17z?hl=en",
    "searchString": "office",
    "language": "en",
    "rank": 77,
    "isAdvertisement": false,
    "imageUrl": "https://streetviewpixels-pa.googleapis.com/v1/thumbnail?panoid=UBTIrKFb6EFfjOm4XrhEjA&cb_client=search.gws-prod.gps&w=408&h=240&yaw=65.40202&pitch=0&thumbfov=100",
    "kgmid": "/g/11b6pbd0k_"
  }
]