name,lat,lng,category,banks_count_1km,banks_weight_1km,education_count_1km,education_weight_1km,health_count_1km,health_weight_1km,temples_count_1km,temples_weight_1km,other_count_1km,other_weight_1km,cafe_weight,poi_composite_score
Alphabet Pizzeria,27.6722963,85.4241239,Restaurant,63,31.020315348743225,177,56.40978655223312,169,70.64543114896001,248,103.16617145500541,122,47.17576210355532,1.0,3.8681108354474123
Aalucha,27.6715487,85.4283565,Fast food restaurant,65,31.445596253098525,179,57.04556722428763,175,73.4429654247424,249,103.23970031127408,123,47.89547161012417,0.9649445039221469,3.8547604082584366
Namaste Restaurant,27.6713046,85.4294878,Family restaurant,65,31.445596253098525,176,55.916468521948126,177,74.82108390705869,250,103.75217991884816,126,49.061864093765735,0.8898721520618155,3.8108524043691014
Himalayan Java Coffee - Bhaktapur,27.6708631,85.4292379,Coffee shop,65,31.445596253098525,177,56.32142235657132,176,74.15441724039204,250,103.61803735084452,127,49.451563149264345,0.8840938648478681,3.8085902014473083
Aamako Bara Pasal,27.6719045,85.4294079,Restaurant,65,31.445596253098525,174,55.450820701005426,178,75.06284846567736,251,104.18911503337115,126,49.061864093765735,0.8821900303266748,3.8015397315730666
Balakhu Food Point,27.6728194,85.4293616,Restaurant,64,31.102161909654388,173,55.02496591829111,176,73.68472998336107,247,102.57252485498859,125,48.826011192184296,0.9079256220675673,3.795801439908419
Muglan Hotel & Thakali Restaurant,27.6728125,85.4289375,Restaurant,65,31.445596253098525,176,56.319712441479474,175,73.29783957121167,248,102.92177986126039,124,48.409344525455126,0.8884699411620285,3.7895705449946546
The Pottery Cafe and bar,27.6697144,85.4276931,Restaurant,64,30.82748492990018,181,58.02287426195254,171,71.41646268493588,253,105.16291245741832,123,47.74772225332261,0.9087342741966774,3.7893680607186466
Sha-Jhya Cafe & Funkey Delights,27.6719183,85.4296154,Cafe,65,31.445596253098525,174,55.450820701005426,178,75.06284846567736,249,103.44902555071742,126,49.061864093765735,0.8695875907791243,3.787960993266111
Vajra Boutique Hotel,27.6726197,85.4295217,Restaurant,64,31.102161909654388,173,55.02496591829111,176,73.68472998336107,247,102.57252485498859,125,48.826011192184296,0.8898721520618155,3.7803079248925866
Everest MoMo,27.671336,85.4300794,Fast food restaurant,64,31.102161909654388,176,56.00535741079294,178,75.06284846567736,250,103.68587715157099,126,49.061864093765735,0.8514598381892222,3.7694331532075838
Hotel Empire & Rooftop Restaurant,27.6716687,85.4293462,Restaurant,65,31.445596253098525,176,56.06410786899841,176,74.23151360900944,250,103.72717991883128,126,49.061864093765735,0.8472230527975119,3.763756981314243
Coffee in Style,27.6713463,85.4300451,Cafe,64,31.102161909654388,176,56.00535741079294,178,75.06284846567736,250,103.68587715157099,126,49.061864093765735,0.8400240270437798,3.7553476412513453
The Garuda Bar,27.6707963,85.4288518,Bar,65,31.445596253098525,180,57.25371537253624,176,74.15441724039204,249,103.26248179526823,124,48.131324511705614,0.8386351713449827,3.744035829026972
Matina Cafe,27.6715049,85.4298364,Cafe,64,31.102161909654388,176,56.00535741079294,178,75.06284846567736,249,103.4585594777584,126,49.061864093765735,0.8256215064178021,3.7401167654267518
The Golden Eyes Restaurant & Cafe,27.6715495,85.429344,Restaurant,65,31.445596253098525,175,55.697441202301746,176,74.23151360900944,250,103.75217991884816,126,49.061864093765735,0.8247785754157193,3.73568572431307
बर्गर हाउस,27.6727151,85.4258303,Cafe,64,30.82748492990018,174,56.19623499396395,171,71.37211427524545,250,103.96874268060793,122,47.38489393036072,0.8681987350803272,3.715159397200953
khwapa chhen Guest House and Restaurant,27.6721267,85.4273216,Restaurant,65,31.445596253098525,179,57.20368613601872,173,72.1029376864972,248,102.86548384452337,125,48.7888743693594,0.8185883260766627,3.7091389449407877
The 1990 Yummy Laphing & Momo Center,27.6692533,85.4250107,Asian restaurant,58,28.188504179569478,176,56.17968747385036,159,66.9861814375861,252,105.31532619361712,123,47.37706302521121,0.9019990842073822,3.7003365324642
JUJU CAFE,27.6726179,85.4292028,Cafe,65,31.445596253098525,175,55.911286842907074,176,73.68472998336107,248,102.92808041056486,125,48.826011192184296,0.7960579426824574,3.6987490162502503
Coffee Klatch,27.6700445,85.4282604,Coffee shop,64,30.82748492990018,178,56.82593759467967,173,72.62180091377863,251,104.39504519696617,126,48.865666424305374,0.8108035826221174,3.696086412173841
Mayur Restaurant,27.6733621,85.434938,Restaurant,60,29.837278414541203,160,51.721810309495865,169,71.86792026170944,242,100.70543667939283,119,46.91489620433231,0.918737981098487,3.6937344494085202
Madhikarmi JuJu Dhau Center,27.6727945,85.431531,Dessert restaurant,64,31.102161909654388,172,55.54452295536807,178,74.97902209452222,244,101.49817116362298,123,48.22972123653432,0.798529797013814,3.6874737112757616
Newa Lahana Bhaktapur & Hotel,27.6722545,85.4308109,Restaurant,64,31.102161909654388,173,55.1727695359009,179,75.6456887611889,247,102.55046603144118,124,48.471387903237435,0.7775541147309986,3.683192590918625
The Nanee,27.6727318,85.4257091,Cafe,64,30.82748492990018,172,55.48313975582756,170,71.19503094190202,250,103.96874268060793,122,47.38489393036072,0.8312639785228243,3.6797308828670143
Restaurant Tusa,27.6736992,85.4334327,Restaurant,62,30.609819567287445,164,53.33646733052646,174,73.58849527436638,244,101.46201361124173,119,46.728390731796246,0.8427248068994612,3.663935660033509
D'Ja Cafe & Sports Bar with Rooftop Restaurant,27.6719349,85.4300687,Sports bar,64,31.102161909654388,173,55.02496591829111,178,75.06284846567736,247,102.55046603144118,126,49.061864093765735,0.7571165361421976,3.661851342684556
FreshPresso Coffee Bar,27.6726397,85.4295795,Cafe,64,31.102161909654388,173,55.02496591829111,176,73.68472998336107,247,102.57252485498859,125,48.826011192184296,0.7689662332784695,3.659848705398911
De Temple Cafe,27.6735231,85.4349476,Restaurant,60,29.837278414541203,160,51.721810309495865,169,71.86792026170944,242,100.70543667939283,119,46.91489620433231,0.8855819311824803,3.65848015191261
Ja foodland and Bar,27.6712421,85.4298469,Bar,65,31.445596253098525,176,56.00535741079294,179,75.65241876372662,250,103.85855947781172,126,49.061864093765735,0.7253763116754715,3.6562696225377014
CULTURE CAFE & BAR,27.6699487,85.4277691,Nepalese restaurant,64,30.82748492990018,181,58.02287426195254,171,71.41646268493588,251,104.39504519696617,123,47.85203574485819,0.7759155576936313,3.6544412976457354
Community at The Nanee,27.6727094,85.4258379,Restaurant,64,30.82748492990018,174,56.19623499396395,171,71.37211427524545,250,103.96874268060793,122,47.38489393036072,0.8032354761089594,3.650436151637772
ELEGANT CAKES,27.6722189,85.4240953,Bakery,63,31.020315348743225,177,56.40978655223312,170,71.31209781562669,249,103.60098997610186,122,47.17576210355532,0.7725236568378258,3.646919134882497
HADA STORE (BHAKTAPUR JUJU DHAU 巴德岗老酸奶店）,27.6722935,85.4269415,Coffee shop,65,31.445596253098525,176,56.612019469269384,174,72.62995292795583,249,103.27252458782121,124,48.43139806941057,0.7632818452656526,3.6431122305699786
Sakotha Woh-Chatamari Fast Food,27.6719049,85.4294072,Fast food restaurant,65,31.445596253098525,174,55.450820701005426,178,75.06284846567736,251,104.18911503337115,126,49.061864093765735,0.7219844108196658,3.641926008121727
Cafe Zone,27.6718091,85.4306621,Cafe,64,31.102161909654388,174,55.37116929470883,179,75.6456887611889,247,102.55046603144118,124,48.471387903237435,0.7253763116754715,3.6376365182760937
Peaceful Korean Restaurant,27.6733352,85.4350754,Korean restaurant,60,29.837278414541203,160,51.721810309495865,168,71.52176641554328,242,100.70543667939283,119,46.91489620433231,0.8643603373019724,3.6357591771126954
Chandrayan Espresso Bar,27.6721252,85.4235942,Espresso bar,60,29.656187687233714,173,55.169929742137654,161,67.1715961160308,247,102.90037269211973,121,46.617550481389465,0.8256215064178021,3.628056333937681
Divya's Cakes & Snacks,27.6721332,85.4238289,Bakery,60,29.656187687233714,174,55.420806935136724,163,68.17727504931946,247,102.90037269211973,122,47.07315081792175,0.8076557821603576,3.625973478291837
Hungry Musician Terrace & Bhaktapur Workshop Residency,27.6721859,85.43032,Musical club,64,31.102161909654388,173,55.02496591829111,179,75.6456887611889,247,102.55046603144118,125,48.69519742706907,0.7146870536692356,3.621682068087918
Chiya & Cheers,27.6703872,85.4281081,Bar,64,30.82748492990018,179,57.31555977439824,173,72.62180091377863,251,104.39504519696617,125,48.629813522723936,0.7286174105755541,3.615075654492281
Taleju Grand Hotel - Bhaktapur,27.6726564,85.4289499,Cafe,65,31.445596253098525,176,56.319712441479474,175,73.29783957121167,248,102.92177986126039,124,48.409344525455126,0.7107448655251688,3.6149953474344723
Na:Pukhu Fast Food,27.6714316,85.4231449,Restaurant,60,29.64361306623217,171,54.42023982475367,151,63.07333588195277,248,103.29815417615033,122,47.43573094652971,0.8420589326861545,3.6148943227488655
Shiva Guest House,27.6718108,85.428603,Cafe,65,31.445596253098525,179,57.04556722428763,174,72.85339512669316,249,103.23970031127408,124,48.3608724383357,0.7107448655251688,3.6066064866602843
Tas-ka Bar,27.6702897,85.4285822,Bar,65,31.445596253098525,179,57.05927092806633,174,73.1110305072801,249,103.39999546796861,125,48.48846736887058,0.7021569840726396,3.604544263025528
Durbar Coffee & Eatery,27.672341,85.4266082,Coffee shop,64,30.82748492990018,176,56.612019469269384,171,71.64593818548863,249,103.27252458782121,124,48.37187425984637,0.7346969904479794,3.59555964092781
Happy Cakes & Bakery,27.6762376,85.4323111,Bakery,58,28.73164345903254,161,52.85425841674568,164,70.13590056796843,243,101.11997657419542,116,45.750077512687305,0.8818032245409843,3.5949262783978533
GK Coffee Cold Store,27.6676471,85.4352535,Coffee store,65,31.557511125113034,171,54.45860087385851,172,73.2180463015827,247,102.9067477303797,121,47.80546263005449,0.7065772901240378,3.5935069644542184
Baiga Vutoo,27.6724496,85.429542,Restaurant,64,31.102161909654388,173,55.02496591829111,177,74.35139665002774,247,102.57252485498859,126,49.061864093765735,0.6924208470843213,3.5934698498684794
North Rooftop Restaurant,27.6721412,85.423476,Family restaurant,60,29.656187687233714,175,55.836434821534496,160,66.7847057038814,247,102.90037269211973,120,46.26755048137364,0.7921855608813013,3.5901280570603475
Manju Baha Hotel,27.6747238,85.433787,Restaurant,60,29.837278414541203,162,52.92821922085174,167,70.979997857815,243,101.09164324083844,118,46.378390731780414,0.8296959026118738,3.5853307516036943
Daily Grind Coffee,27.6721663,85.429265,Restaurant,65,31.445596253098525,175,55.855774535628626,176,73.96450623787834,250,103.80458110629371,125,48.826011192184296,0.6678877412421497,3.582578066904215
Ravi Dai Newa Chhen (Dattatraya Khaja Ghar / दत्तात्रय खाजा घर),27.6733346,85.4352088,Restaurant,60,29.837278414541203,160,51.721810309495865,167,71.2269812664978,242,100.70543667939283,119,46.91489620433231,0.8204112390140179,3.582443189556772
तारा दाईको डुनट पसल,27.6676619,85.4330136,Breakfast restaurant,64,31.102161909654388,171,54.29929616862857,174,73.31408790604127,255,105.73781071546553,124,48.79773931415471,0.6678877412421497,3.582062545284122
Cin Cin Garden,27.6706505,85.4218284,Restaurant,52,25.869260963116403,168,54.456386034252624,142,58.968095564415535,236,98.89041412050594,119,46.46111609196113,0.9373987794434053,3.5807271785412325
Swastik Newari Khaja Ghar (Authentic Newari Restaurant),27.6722911,85.426915,Nepalese restaurant,65,31.445596253098525,176,56.612019469269384,174,72.62995292795583,249,103.27252458782121,125,48.78854092657554,0.6974513049774942,3.5804754857758603
Yomari Pasa:,27.6715439,85.4301936,Cafe,64,31.102161909654388,175,55.797024077423146,178,75.06284846567736,248,102.90134322444024,126,49.061864093765735,0.6678877412421497,3.579604777836691
Namaste Coffee Shop,27.6713833,85.4295005,Coffee shop,65,31.445596253098525,175,55.638690744096266,177,74.61840402115884,250,103.75217991884816,126,49.061864093765735,0.660205619507009,3.577257849730503
Hada Ice Cream,27.6667617,85.4256602,Ice cream shop,53,25.217761071358616,167,53.65409676616579,141,58.89422350317403,255,106.42947257392036,116,45.286670640930446,0.9436373996159704,3.575475857076622
Coffee Square,27.6729764,85.4263687,Cafe,64,30.82748492990018,175,56.55393998839828,170,70.97927151882197,249,103.25150295928484,123,48.01473140268141,0.7286174105755541,3.572012817696521
Center Momo & Burger House,27.6659531,85.4345625,Restaurant,64,30.939399801914686,169,53.85318088031856,171,72.01559856359762,252,104.81834411852122,121,47.69093899484204,0.7021569840726396,3.5704633567689594
Jhegu newa kitchen restro,27.6698837,85.4293982,Family restaurant,65,31.445596253098525,177,56.18683889235142,173,72.45047742750364,250,103.77421193471932,125,48.54799117843478,0.6748370656573115,3.569220902315799
Bhajya Pukhu Coffee,27.6712812,85.4211715,Coffee shop,51,25.72924483799106,170,55.56296516773801,146,60.592098552875214,231,96.74376995475565,118,45.986187070386876,0.9239240691886355,3.562876311381992
Sekuwalaya,27.6723152,85.4328948,Bar,63,30.852161909638554,170,55.124951169303124,177,74.62981574530076,243,101.1370600524864,123,48.44479813766567,0.6811813017898243,3.5563622028660586
Newari khaja and bara ghar,27.6714791,85.4299259,Restaurant,64,31.102161909654388,176,56.00535741079294,178,75.06284846567736,248,102.93293597502863,126,49.061864093765735,0.6418816010661614,3.5550172713146564
Sanereetaz Balakhu Café,27.6726124,85.4292056,Coffee shop,65,31.445596253098525,175,55.911286842907074,176,73.68472998336107,248,102.92808041056486,125,48.826011192184296,0.6516177380544796,3.5548424607393416
D&R Fast Food,27.6674076,85.4358847,Fast food restaurant,64,31.3075111250972,166,52.58123392539284,171,72.50659448593308,246,102.4059908735567,120,47.48312569981596,0.7065772901240378,3.553981210526285
Gwakhancha,27.6711897,85.4284526,Restaurant,65,31.445596253098525,179,57.04556722428763,176,74.15441724039204,248,102.86548384452337,123,47.89547161012417,0.6516177380544796,3.549031701514802
Matina Laphing House,27.6711545,85.4300711,Cafe,64,31.102161909654388,176,56.00535741079294,179,75.65241876372662,250,103.68587715157099,126,49.061864093765735,0.6173484952239897,3.5452387273022126
Samsara thakali restaurant,27.672294,85.433751,Thai restaurant,62,30.609819567287445,167,54.37250916678643,177,74.62981574530076,244,101.46201361124173,122,48.012812833730514,0.6748370656573115,3.5430185706196196
Coffee Break,27.6718026,85.4305635,Cafe,64,31.102161909654388,174,55.37116929470883,179,75.6456887611889,247,102.55046603144118,125,48.69519742706907,0.6306420557716643,3.542633716939104
Bhaktapur King Curd,27.6722945,85.4270212,Cafe,65,31.445596253098525,176,56.612019469269384,174,72.62995292795583,249,103.27252458782121,124,48.43139806941057,0.660205619507009,3.5422641316423
Baiga Cafe and Rooftop,27.6726941,85.4249557,Restaurant,65,31.616700259106207,172,55.73420375046034,168,70.13124886629085,248,103.13459546133426,121,46.9817217911955,0.6748370656573115,3.5375559809322876
Sunil tea shop,27.6701657,85.4254489,Coffee shop,61,29.501797978527993,177,57.0238824352616,164,68.85382750374224,249,103.66237575502848,124,48.075695907144365,0.7065772901240378,3.5368127369400466
Nasajwolan Newa kitchen & Continental Food,27.6723271,85.424125,Family restaurant,65,32.0064822275265,177,56.40978655223312,169,70.64543114896001,248,103.16617145500541,122,47.17576210355532,0.6516177380544796,3.536591985743412
The zeroth cafe and fast food,27.6691349,85.4280808,Cafe,64,30.82748492990018,179,57.25333755224356,171,71.41646268493588,256,106.35832743647686,125,48.33651633139309,0.6418816010661614,3.5342976461781768
De Arena Restaurant Paryatak Pasal,27.6735504,85.4346362,Restaurant,60,29.837278414541203,161,52.117923232026044,169,71.86792026170944,243,101.08009406325155,119,46.91489620433231,0.7503813461529023,3.53195520879319
Delhi Alkarim Biryani and Fast Food,27.6687485,85.4279453,Asian restaurant,64,30.82748492990018,179,57.42555977447051,169,70.46734893568086,260,108.35972558750049,125,48.24394291027295,0.6418816010661614,3.5317588437568985
Lotus restaurant and rooftop bar,27.6712409,85.4295755,Indian restaurant,65,31.445596253098525,175,55.638690744096266,178,75.20797431920809,250,103.75217991884816,126,49.061864093765735,0.6010784920363198,3.5274011422287845
Amity Tea & Coffee Corner,27.67029,85.42765,Coffee shop,64,30.82748492990018,180,57.67667088553482,172,72.07701576471234,251,104.39504519696617,124,48.37506813369013,0.6418816010661614,3.5269529195730236
New Watshala Garden Restaurant,27.6718001,85.4285972,Restaurant,65,31.445596253098525,179,57.04556722428763,174,72.85339512669316,249,103.23970031127408,124,48.3608724383357,0.6306420557716643,3.5247656013515942
Zoom Eat Street,27.6727115,85.4266876,Cafe,65,31.445596253098525,175,56.261777779168625,171,71.20024714400466,249,103.25150295928484,124,48.43139806941057,0.660205619507009,3.5242341943669127
Enjoycoffeeshop,27.671456,85.4278273,Coffee shop,65,31.445596253098525,180,57.47296718185152,173,72.29923798706419,248,102.86548384452337,124,48.418503998956105,0.6306420557716643,3.520577730491577
LUNIVA RESTAURANT AND GUEST HOUSE,27.6747818,85.4312311,Cafe,62,30.609819567287445,170,55.68616377485348,175,73.47791643868612,245,101.87317116365944,118,46.447299734938674,0.6811813017898243,3.5171620785631297
Cafe De Bonjour,27.6727303,85.4267056,Fast food restaurant,65,31.445596253098525,175,56.261777779168625,172,71.55739000116964,249,103.25150295928484,124,48.43139806941057,0.6418816010661614,3.507991050834145
Tryst Fast Food Restaurant,27.6715225,85.4216812,Restaurant,50,25.132636606326194,172,55.92981152887462,144,59.623576442839386,235,98.49263263647532,117,45.588154681601814,0.8786326067673185,3.502950877688213
BUBBLE TEA (ORIGINAL) BHAKTAPUR,27.6712877,85.429486,Bubble tea store,65,31.445596253098525,176,55.916468521948126,177,74.82108390705869,250,103.75217991884816,126,49.061864093765735,0.5801028097535045,3.5022275365957283
Underground Gamers Cafe,27.6677098,85.4329235,Cafe,64,31.102161909654388,171,54.29929616862857,174,73.31408790604127,255,105.73781071546553,124,48.79773931415471,0.5801028097535045,3.4946019442082004
Relish MoMo Center,27.6722161,85.4241035,Momo restaurant,63,31.020315348743225,177,56.40978655223312,170,71.31209781562669,249,103.60098997610186,122,47.17576210355532,0.6173484952239897,3.4923172837828607
Cosy Cafe,27.6700737,85.4283216,Coffee shop,64,30.82748492990018,178,56.82593759467967,173,72.62180091377863,251,104.39504519696617,126,48.865666424305374,0.6010784920363198,3.4871361723971144
Kopu burger cafe,27.6709997,85.4298171,Coffee shop,65,31.445596253098525,175,55.638690744096266,178,75.20797431920809,250,103.75217991884816,126,49.061864093765735,0.55053924601816,3.483995339794549
Moody Cafe,27.6756057,85.4317077,Restaurant,60,29.837278414541203,167,54.60272185836699,169,71.5662992670081,244,101.481087685332,116,45.750077512687305,0.7021569840726396,3.4805756387419384
Taboche Restaurant and coffee shop,27.6713645,85.4213097,Restaurant,51,25.72924483799106,169,55.01138254334285,145,60.04731340380893,232,97.35751785191316,118,45.986187070386876,0.844038585138801,3.4790446289815327
Aaditya Paanipuri ChanaChatpat & Cold Drinks,27.6703549,85.4310597,Restaurant,64,31.102161909654388,176,55.818320373738814,178,75.26352987479143,250,103.68587715157099,126,49.374560042486,0.55053924601816,3.4778809758970572
Siddhapokhari Kirana Pasal,27.6711801,85.4200541,Coffee shop,51,25.72924483799106,171,56.361139819634815,153,63.40823629151396,213,89.25341671837646,115,45.20421324813604,0.8413869212968332,3.476007439578096
The Morrison Cafe,27.6725878,85.4252582,Coffee shop,64,30.900456929881543,174,56.14125181628865,170,71.231879582943,250,104.02588553779486,121,46.9817217911955,0.6173484952239897,3.470954127280962
Lovely Milk Bar Bhaktapur,27.6733785,85.4348665,Cafe,60,29.837278414541203,160,51.721810309495865,169,71.86792026170944,243,101.08009406325155,119,46.91489620433231,0.6924208470843213,3.4697064360832184
Mi:loco Cafe' n Restaurant,27.6711367,85.4216744,Restaurant,51,25.458356192134797,172,55.92981152887462,144,59.84973163843192,236,98.89041412050594,118,45.986187070386876,0.8247785754157193,3.4689008773422247
Aesamari Sattal,27.6708855,85.4290938,Coffee shop,65,31.445596253098525,179,56.98334500213295,176,74.15441724039204,249,103.26248179526823,125,48.54799117843478,0.55053924601816,3.468125777148712
Himalayan Takeaway Bhaktapur,27.6713509,85.4301202,Restaurant,64,31.102161909654388,176,56.00535741079294,178,75.06284846567736,249,103.28587715151767,126,49.061864093765735,0.55053924601816,3.4680730921996297
Bal Bhai Newari Khaja Ghar,27.6748129,85.4278108,Fast food restaurant,65,31.445596253098525,171,55.26733050479187,175,73.20187997519247,247,102.44566753677594,123,48.166659512722454,0.6010784920363198,3.4680304860864024
Hostel Swastik,27.6755045,85.434147,Restaurant,57,28.085227062667695,155,50.33551338075228,161,69.21065971219247,240,99.9505323819121,118,46.378390731780414,0.7921855608813013,3.464965261177466
Kissing Fish Spa,27.6716587,85.4301434,Coffee shop,64,31.102161909654388,175,55.797024077423146,178,75.06284846567736,248,102.90134322444024,126,49.061864093765735,0.55053924601816,3.4645371398037366
Temple Terrace Restaurant,27.6714191,85.4293764,Restaurant,65,31.445596253098525,175,55.570265145530406,176,74.23151360900944,250,103.75217991884816,126,49.061864093765735,0.55053924601816,3.4617270474080364
Ajima cafe,27.670873,85.4255394,Restaurant,63,30.48796485731127,177,56.97019721016251,166,69.86438058353451,251,104.58419656755821,123,47.76209298579552,0.6010784920363198,3.459735890606248
Beans - The Coffee shop,27.6672465,85.4260279,Coffee shop,55,26.397393275456235,170,54.376702546881354,148,62.258200494355044,253,105.56223633651933,122,47.172818483308866,0.7612841115433286,3.451187409806929
Ichu galli,27.6713256,85.4279672,Coffee shop,65,31.445596253098525,180,57.47296718185152,173,72.29923798706419,248,102.86548384452337,124,48.418503998956105,0.55053924601816,3.4446521935156764
DAAMI Cafe,27.6691297,85.4280708,Coffee shop,64,30.82748492990018,179,57.25333755224356,171,71.41646268493588,256,106.35832743647686,125,48.33651633139309,0.55053924601816,3.4432927648082825
Jhee Newa Cafe,27.6726029,85.4312104,Coffee shop,64,31.102161909654388,172,55.4272771352117,178,74.97902209452222,244,101.43319391240158,123,48.22972123653432,0.55053924601816,3.4416152927656567
bhaktapur juju dhu pasal.,27.6729218,85.4315966,Restaurant,64,31.102161909654388,172,55.97165043646939,178,74.97902209452222,244,101.49817116362298,123,48.22972123653432,0.55053924601816,3.440825680217228
Bijay Coffee Shop,27.6666304,85.4359586,Cafe,64,31.3075111250972,161,50.21267709393981,166,69.90228189692928,246,102.50760463024997,120,47.49482160625959,0.6306420557716643,3.4405650662176743
A-One Fast Food & Chaat Center,27.6688119,85.4279565,Family restaurant,64,30.82748492990018,179,57.42555977447051,170,70.98278864701774,258,107.50833239606408,125,48.24394291027295,0.55053924601816,3.440357628429011
Kanxi chiya pasal,27.6722306,85.4324328,Coffee shop,64,31.102161909654388,172,55.69265995243376,178,74.97902209452222,244,101.49817116362298,123,48.44479813766567,0.55053924601816,3.437849637271637
Gosain Hotel And Cafe,27.670994,85.4298429,Fast food restaurant,65,31.445596253098525,175,55.638690744096266,178,75.20797431920809,250,103.75217991884816,126,49.061864093765735,0.5,3.433642816192661
Sagar Khaza Ghar,27.6698976,85.4305634,Restaurant,64,31.102161909654388,178,56.370172225700585,175,73.49186568382979,252,104.52234702382796,127,49.59836956631764,0.5,3.431728837566765
The Street Coffee House,27.674435,85.4229588,Coffee store,54,27.34955969671647,170,54.51532825102339,152,63.31340644750213,243,101.16434181299992,116,44.60050050528999,0.7317205478079842,3.4230386579952317
parin Liquor shop,27.6746724,85.4278343,Bar,65,31.445596253098525,171,55.26733050479187,175,73.20187997519247,247,102.44566753677594,124,48.541543753340385,0.55053924601816,3.420775112842128
Fursad cafe,27.675584,85.4302642,Cafe,62,30.609819567287445,170,55.67990033852866,175,73.47791643868612,244,101.5202299871704,118,46.447299734938674,0.6010784920363198,3.4193289601704593
The marcopolo restaurant,27.6708871,85.4290875,Fast food restaurant,65,31.445596253098525,179,56.98334500213295,176,74.15441724039204,249,103.26248179526823,125,48.54799117843478,0.5,3.417773253546824
Sukul,27.6714524,85.431381,Fast food restaurant,64,31.102161909654388,174,55.33193587526449,179,75.6456887611889,246,102.12887292477498,125,49.00789337578934,0.5,3.4170289345655007
The waffle spot,27.6723074,85.426568,Fast food restaurant,64,30.82748492990018,176,56.612019469269384,171,71.64593818548863,250,103.83275579572232,124,48.37187425984637,0.55053924601816,3.4142549338460766
momo center,27.6716806,85.4301006,Fast food restaurant,64,31.102161909654388,175,55.797024077423146,178,75.06284846567736,248,102.90134322444024,126,49.061864093765735,0.5,3.4141846162018483
Pulanchhen,27.673801,85.4270962,Cafe,65,31.445596253098525,172,55.26061671818248,173,72.09076886400729,247,102.51609183920834,124,48.34836514737618,0.55053924601816,3.4131298332404736
Barahi Liquors,27.671011,85.4257652,Bar,63,30.373091832341753,176,56.68708514973787,167,70.21438058355037,251,104.31424094679868,124,48.128759652492185,0.55053924601816,3.4131258367183435
Art Gallery Cafe (AGC),27.6717925,85.4324033,Coffee shop,64,31.102161909654388,176,57.03733998533854,179,75.6456887611889,244,101.43319391240158,123,48.44479813766567,0.5,3.411552931714309
Fried local foods,27.6718627,85.4297751,Coffee shop,64,31.102161909654388,174,55.450820701005426,178,75.06284846567736,247,102.54840204795121,126,49.061864093765735,0.5,3.4108216832142535
Sukuldhoka_ newar_khaja_ghar,27.6723944,85.4303515,Restaurant,64,31.102161909654388,174,55.41385480722629,178,74.97902209452222,247,102.55046603144118,125,48.69519742706907,0.5,3.4087379078905653
BARAHI AJIMA NEWARI KHAJA GHAR,27.6697631,85.426554,Family restaurant,62,29.960599759771476,178,56.92746262307805,167,69.84963929455378,255,105.97220620781074,123,47.73975500414479,0.55053924601816,3.4066702493795358
Untouched like blue dawn,27.6678168,85.43099,Cafe,63,30.48405058645604,175,55.62017222562471,173,72.45047742750364,260,108.20796641672271,127,49.665093097013305,0.5,3.4062739795438532
Manandhar Hotel,27.6661458,85.4362277,Restaurant,64,31.3075111250972,156,48.72615050633311,147,61.70896171283959,246,102.39487586493158,117,46.04673629115063,0.6811813017898243,3.403759244222118
Tea shop,27.670376,85.4284829,Coffee shop,65,31.445596253098525,179,57.05927092806633,174,73.1110305072801,249,103.39999546796861,125,48.48846736887058,0.5,3.403134168617976
Ittchhen Tole -2,27.6727421,85.4262308,Restaurant,64,30.82748492990018,175,56.55393998839828,171,71.4502543006025,249,103.25150295928484,123,47.88723981068137,0.55053924601816,3.4025430767407454
New York Bites,27.6728993,85.4258144,Fast food restaurant,64,30.82748492990018,174,56.19623499396395,171,71.37211427524545,250,103.96874268060793,122,47.38489393036072,0.55053924601816,3.3986735336283327
One O One Coffee & Barista School,27.6639728,85.4259243,Coffee shop,52,24.768923529360286,146,46.191493235061586,131,54.753858334422645,236,98.59288184216905,107,41.99023595154563,0.9513527314266571,3.3965751752858973
Bangsagopal,27.6695875,85.4263594,Coffee shop,62,29.960599759771476,176,56.40047849606849,165,69.44475664044859,253,105.14140195757035,124,48.11012537454808,0.55053924601816,3.393967427755694
Hotel Prisha and Rooftop,27.6712287,85.4204982,Restaurant,51,25.72924483799106,170,55.91047077881156,151,62.415841035542414,220,92.40678792036061,117,45.67683019453191,0.7612841115433286,3.39340650499405
bishnu mo m,27.6693229,85.4281027,Restaurant,64,30.82748492990018,179,57.25333755224356,171,71.41646268493588,256,106.35832743647686,125,48.33651633139309,0.5,3.3929402412063947
Classic Burger & Stick Food Service,27.6694417,85.428121,Restaurant,64,30.82748492990018,179,57.25333755224356,171,71.41646268493588,255,105.97220620781076,125,48.4859210352247,0.5,3.3927863642731158
Sudhha MoMo,27.6728872,85.4296237,Momo restaurant,64,31.102161909654388,173,55.02496591829111,177,74.0968632081618,247,102.57252485498859,125,48.826011192184296,0.5,3.3917060903880363
Purbeli chiya pasal,27.6714331,85.4229092,Fast food restaurant,60,29.64361306623217,170,54.1466061156066,150,62.265464392252746,249,103.8648113727844,121,47.07858808936475,0.6306420557716643,3.3898186504305614
Duwal Wireless,27.6712216,85.4234705,Cafe,60,29.509767043265022,174,55.68310640301608,160,66.78268572076331,248,103.29815417615033,123,47.54278192567683,0.5801028097535045,3.3872553456589607
Tuchhimama,27.6733738,85.4311453,Coffee shop,64,31.102161909654388,171,55.34242941340207,177,74.26757027887258,244,101.49817116362298,123,48.22972123653432,0.5,3.3848723991311074
Chhitomitho momo,27.6660273,85.4332801,Restaurant,64,30.939399801914686,171,54.45405807338013,172,72.11480491279823,255,106.12091031686803,123,48.36724963770199,0.5,3.38183940950902
Aayan’s cafe and fastfood,27.6734265,85.4311372,Coffee shop,64,31.102161909654388,171,55.34242941340207,177,74.26757027887258,245,101.87317116365944,123,48.22972123653432,0.5,3.381386203001802
Shanghai Express | Chinese Restaurant,27.6699502,85.4277479,Chinese restaurant,64,30.82748492990018,181,58.02287426195254,171,71.41646268493588,251,104.39504519696617,123,47.85203574485819,0.5,3.3795451382154074
Naisha's Cake And Bake House,27.6758929,85.4304317,Bakery,62,30.609819567287445,169,55.378141406576134,171,72.16759796004729,244,101.5202299871704,118,46.447299734938674,0.5801028097535045,3.379104631249583
Gomari Chhen,27.6722932,85.4327994,Coffee shop,63,30.852161909638554,171,55.37911783598932,177,74.62981574530076,243,101.1370600524864,123,48.44479813766567,0.5,3.3773143312830776
TERAKOTA WINDOW CAFE,27.6738041,85.4311855,Cafe,63,30.852161909638554,171,55.77763202884462,177,74.26757027887258,245,101.87317116365944,123,48.22972123653432,0.5,3.3734862117245834
Durbar Restaurant & Burger Hub,27.6727348,85.4246806,Hamburger restaurant,65,31.616700259106207,172,55.51312872707181,171,71.05958657634659,249,103.50959546137071,122,47.50953538972394,0.5,3.3731787659272072
Namaste Kabhre Restro,27.6669134,85.436165,Fast food restaurant,63,31.065168782746092,161,50.3543437605896,165,69.46463244850543,244,101.70982314616603,119,47.06283630232444,0.5801028097535045,3.372616347691836
Newa Delights,27.6726948,85.4246997,Restaurant,65,31.616700259106207,172,55.51312872707181,170,70.71583657633651,249,103.50959546137071,122,47.50953538972394,0.5,3.368561108027205
Malla's Kitchen,27.6670549,85.4268318,Cafe,58,27.998627882193965,171,54.73290997691589,153,64.33732555614323,253,105.56223633651933,122,46.69026228499107,0.6173484952239897,3.365740394653243
NUMA KRISHI TATHA FRESH FARM PVT,27.6738729,85.4272013,Family restaurant,65,31.445596253098525,173,55.44950560709211,173,72.09076886400729,247,102.51609183920834,124,48.34836514737618,0.5,3.3636786149770987
Bhaktapur,27.6708782,85.425545,Restaurant,63,30.48796485731127,177,56.97019721016251,166,69.86438058353451,251,104.58419656755821,123,47.76209298579552,0.5,3.359030843402472
Mangalachhen,27.6697682,85.426547,Family restaurant,62,29.960599759771476,178,56.92746262307805,168,70.31628441826302,255,105.97220620781074,123,47.73975500414479,0.5,3.358948152939345
Shova Coffee Shop,27.67151,85.4216859,Coffee shop,50,25.132636606326194,172,55.92981152887462,144,59.623576442839386,235,98.49263263647532,117,45.588154681601814,0.7286174105755541,3.3534899279903585
Rajesh Dai Ko Panipuri Pasal,27.6750748,85.4286089,Tea house,64,31.102161909654388,172,55.799076536645416,176,73.88067986672318,244,101.39443296882624,121,47.451126951511355,0.5,3.353427900742174
Ktm,27.674766,85.4273979,Bar,65,31.445596253098525,171,55.08693834791758,173,72.09076886400729,246,101.98373242223607,123,48.166659512722454,0.5,3.3519363113138656
Destination Restaurant &Bakery Cafe,27.6676408,85.4359415,Fast food restaurant,63,31.065168782746092,166,52.58123392539284,173,73.26721255923312,247,102.75381696052708,119,47.051140395880815,0.5,3.3495253233577236
सिध्दिलक्ष्मी मिठाई भण्डार,27.6649522,85.4256451,Vegetarian restaurant,53,25.217761071358616,152,48.25786708805244,136,56.98275827396495,242,100.82619188274789,113,44.16702894841408,0.8204112390140179,3.349155185444018
The Coffee Time,27.6742754,85.4330135,Coffee shop,61,30.13548477281291,164,53.631855584522185,171,72.12706117708144,243,101.09164324083844,119,46.728390731796246,0.55053924601816,3.348461545440994
Ittachen Bhaktapur,27.6729221,85.4254375,Family restaurant,64,30.900456929881543,173,55.85351012623085,171,71.66555362086113,250,103.96874268060793,121,46.9817217911955,0.5,3.3460093938516295
Shriyanka Burger Hub,27.6729162,85.42575,Restaurant,64,30.82748492990018,173,55.82123499392749,171,71.37211427524545,250,103.96874268060793,122,47.38489393036072,0.5,3.341906185342746
rajan khiunju,27.6748464,85.4273098,Coffee shop,65,31.445596253098525,171,55.08693834791758,173,72.09076886400729,246,101.98373242223607,122,47.67615029070672,0.5,3.3414858927618423
The Lazy Lump,27.666067,85.4274325,Restaurant,57,27.45112540484517,169,54.27123809987927,148,62.1137093515824,255,106.42947257392036,120,45.77066162955038,0.6418816010661614,3.337002074534845
कान्तिपुर गेष्ट हाउस एण्ड रेष्टुरेन्ट,27.6712727,85.4207497,Hong Kong style fast food restaurant,51,25.72924483799106,170,55.58942683069854,146,60.41066452615651,227,95.23638330296748,115,44.83528558551478,0.7107448655251688,3.3369067388446902
Royal java time,27.671236,85.4211397,Bakery,51,25.72924483799106,170,55.56296516773801,146,60.592098552875214,231,96.74376995475565,118,45.986187070386876,0.6974513049774942,3.3353929728072296
times cafe,27.6673032,85.4254267,Cafe,54,25.70651572998326,171,54.710400507063326,146,61.20570710298681,253,105.56223633651933,119,46.52817192647478,0.660205619507009,3.334165250411399
its chai wala,27.6752631,85.4300374,Cafe,62,30.609819567287445,170,55.13669788102685,177,74.26757027887258,244,101.5202299871704,119,46.87928503887383,0.5,3.333815981949404
Dinesh Dai ko Chya Pasal tatha Juju Dhau,27.6736076,85.4353107,Restaurant,58,28.73164345903254,158,50.61761262941074,166,70.8873586249822,241,100.32090275231539,117,46.182337173942315,0.6173484952239897,3.3319825494444877
Suryabinayak Burger House & Crunchy Fried Chicken,27.6666969,85.4256377,Restaurant,53,25.217761071358616,167,53.65409676616579,141,58.89422350317403,255,106.42947257392036,116,45.286670640930446,0.6974513049774942,3.3301993221578723
Bakery Shop,27.6737961,85.4238925,Bakery,64,31.664589129978538,171,54.86571009465193,165,68.8744739077172,245,101.91493514265542,121,47.046812546062974,0.5,3.327208307289996
Laxmi dai junudho,27.6754177,85.4296247,Bakery,63,30.852161909638554,168,54.14974114629295,177,74.26757027887258,244,101.5202299871704,118,46.46261837214466,0.5,3.326746562362346
Kavreli khajaghar,27.6690835,85.4248994,Coffee shop,57,27.497626634096502,177,56.236620810259346,158,66.03050935013735,252,105.31532619361712,123,47.66804443484916,0.55053924601816,3.325902709730173
Ganebacha chiya pasal,27.6754337,85.4272511,Tea house,65,31.445596253098525,168,54.45416979618203,173,72.09076886400729,246,101.98373242223607,122,47.67615029070672,0.5,3.3228570525207513
The Hangout,27.676286,85.4323664,Cafe,58,28.73164345903254,160,52.47560723233203,163,69.79661485367686,242,100.73544264711799,116,45.750077512687305,0.6173484952239897,3.320953976642998
3rd eyes fast food,27.6666523,85.4270263,Restaurant,58,27.998627882193965,170,54.559833053832676,149,62.631444531233285,253,105.56223633651933,122,46.568972329407536,0.6010784920363198,3.3204325658529075
Bhajyapukhu Cafe Outlet,27.6675974,85.4265822,Cafe,58,27.998627882193965,171,54.70573282413275,157,66.19454032715623,254,105.8991538992469,123,47.08897993076839,0.55053924601816,3.3172597129364707
Byasi khaja ghar,27.6753468,85.4269932,Fast food restaurant,65,31.445596253098525,168,54.514903087049255,173,72.09076886400729,245,101.60951595548536,121,47.2107494624952,0.5,3.3144628937105645
LAFANGAZ Cafe,27.6711233,85.4234664,Restaurant,60,29.509767043265022,173,55.30745294048957,160,66.78268572076331,248,103.29815417615033,124,48.232480981092095,0.5,3.313421892085205
Laphing Hut,27.6676166,85.4264276,Cafe,58,27.998627882193965,172,54.892007333955135,156,65.84366313415715,254,105.8991538992469,122,46.69026228499107,0.55053924601816,3.3130607725509127
The Laphin House and Momo Centre,27.6677888,85.4365747,Restaurant,61,30.29262762999985,161,50.674726748496596,162,67.4847009388975,245,102.02900674653539,119,47.051140395880815,0.55053924601816,3.311235761434105
Hillside beans barista coffee school,27.6644989,85.4257322,Coffee shop,52,24.768923529360286,149,47.198954601173526,133,55.613730005138365,238,99.35380644515047,112,43.74522600132898,0.8204112390140179,3.3100723911445153
The Burger House And Crunchy Fried Chicken,27.6710646,85.4217254,Restaurant,51,25.458356192134797,171,55.756734605791415,144,59.84973163843192,236,98.89041412050594,118,45.986187070386876,0.660205619507009,3.3060822537467582
Gopal Dai Ko Chya Pasal,27.6733399,85.4354511,Nepalese restaurant,58,28.73164345903254,159,51.11761262941074,166,70.8873586249822,241,100.32090275231539,117,46.182337173942315,0.5801028097535045,3.304129124785965
Uttam Dai Ko MoMo,27.6664747,85.438088,Restaurant,57,28.221525513508272,143,45.038145095173284,135,56.861986059692775,242,100.86248382874064,104,40.952039150910885,0.7908476752786733,3.3039176949369264
De'MoMo Factory Bhaktapur,27.6672809,85.4234083,Restaurant,55,27.11163958488573,164,52.35763754522988,140,58.097858756006374,241,100.8751353402759,115,44.81728517917255,0.6678877412421497,3.2997288570212895
Sandar MoMo,27.6715316,85.4224053,Momo restaurant,55,27.304025281347442,172,54.973111195073585,143,59.45488871408793,247,103.10119001913989,116,45.46571275507869,0.6010784920363198,3.288364010394197
Namo Buddha Khaja Ghar,27.6760901,85.4229492,Cafe,56,28.38132473522938,160,52.19259758545113,155,64.53311599867962,238,99.07811906674544,116,44.6944537822579,0.6173484952239897,3.2853692485347987
Dashinkali everest momo center,27.666657,85.425601,Fast food restaurant,53,25.217761071358616,167,53.65409676616579,141,58.89422350317403,255,106.42947257392036,116,45.286670640930446,0.6516177380544796,3.2845350920381637
Bhaktapur Bartending & Barista,27.6653251,85.4254639,Coffee shop,53,25.217761071358616,157,49.852380467443055,136,56.98275827396495,244,101.83860426560045,112,43.73259701689314,0.7346969904479794,3.2771607261130957
Dreamland Kitchen Restaurant,27.6677053,85.4255981,Asian restaurant,54,25.70651572998326,170,54.37579831577361,148,62.23066202901028,253,105.56223633651933,123,47.6958508721408,0.5801028097535045,3.275187837678688
Chiya Obsession Suryabinayak,27.6673926,85.4261771,Tea store,57,27.47963905948898,173,55.30043293252753,151,63.56113592877956,253,105.56223633651933,121,46.3331194278261,0.55053924601816,3.271968429904626
Kanxoz Cafe,27.6672969,85.426885,Coffee shop,58,27.998627882193965,172,55.39571637678657,157,66.07355754539152,255,106.3447989374772,123,47.08897993076839,0.5,3.271927897376163
Jagati hanumanghat Road,27.6669539,85.4363544,Coffee shop,63,31.065168782746092,163,51.3329671619837,155,64.97830221860991,245,102.01680727313177,119,47.06283630232444,0.5,3.271612929363464
Battle Snooker,27.6707806,85.422736,Sports bar,56,27.62048560788933,173,55.36351447240405,146,60.55836113582622,246,102.63730496084833,118,46.30794946899077,0.55053924601816,3.2648833901180767
Mamako Coffee Shop,27.6718891,85.4224559,Coffee shop,54,26.793326850483485,171,54.60644452837691,144,59.787956413753164,246,102.70340853510928,120,46.63438376423774,0.5801028097535045,3.263286788997189
Travellers Bistro,27.6733506,85.4351605,Asian restaurant,60,29.837278414541203,160,51.721810309495865,167,71.2269812664978,242,100.70543667939283,119,46.91489620433231,0.5,3.263215742654094
K2 Coffee (Nepali Arabica Coffee Supplier),27.6642212,85.4337559,Coffee store,59,28.564935851766894,157,50.29539449786333,156,64.98178317851811,253,105.6561014478982,117,45.88108341626912,0.55053924601816,3.2632109195415504
Araniko Khaja Ghar,27.6663379,85.4234822,Fast food restaurant,53,25.47449917575366,164,51.757637545313216,140,58.097858756006374,232,97.18865839376573,115,44.81728517917255,0.6870174332905029,3.262786039944388
"Bhadrakali Snooker,pool,Cafe and Hookah",27.6709669,85.4227737,Breakfast restaurant,56,27.62048560788933,171,54.513272782303275,146,60.55836113582622,247,103.07370508171047,120,46.882090504825385,0.55053924601816,3.2627270196308436
New City Top Rakesh Special Panipuri House,27.6675754,85.4263916,Restaurant,58,27.998627882193965,172,54.892007333955135,155,65.4139872711591,254,105.8991538992469,122,46.69026228499107,0.5,3.2602862134378165
Khwopa Garden Restaurant,27.6718514,85.4225442,Fast food restaurant,56,27.851527758696232,171,54.60644452837691,145,60.45462308041983,247,103.13980865597141,120,46.63438376423774,0.55053924601816,3.2559968316858483
Mo: Mo Shop,27.6712938,85.4209804,Restaurant,51,25.72924483799106,170,55.58942683069854,146,60.592098552875214,230,96.35617365591958,117,45.575423237466275,0.6010784920363198,3.2484419454564515
UnderGround Cafe,27.67039,85.421741,Coffee shop,52,25.869260963116403,169,54.63092307132628,142,58.968095564415535,233,97.69962311507959,119,46.46111609196113,0.6010784920363198,3.2438840823723485
Prabin Cold Store,27.6755398,85.4227956,Coffee shop,55,27.837050953994066,163,52.99608964901138,154,64.12721973856009,238,99.07811906674544,116,44.6944537822579,0.55053924601816,3.2329126602101597
Barahi Coffee Shop,27.6661498,85.4222161,Coffee shop,55,27.304025281347442,156,50.032397283775,136,56.50023428736982,215,90.28596225055142,113,44.051208546130425,0.6870174332905029,3.22995263025263
Gopal Sau,27.6733359,85.4354261,Tea store,58,28.73164345903254,159,51.11761262941074,166,70.8873586249822,242,100.70543667939283,117,46.182337173942315,0.5,3.2280943916166605
Anil Newari Khajaghar,27.6759361,85.4229454,Restaurant,56,28.38132473522938,159,51.96053695050036,155,64.53311599867962,238,99.07811906674544,116,44.6944537822579,0.55053924601816,3.2251552822763276
Refresh Cafe,27.6712788,85.4211734,Cafe,51,25.72924483799106,170,55.56296516773801,146,60.592098552875214,231,96.74376995475565,118,45.986187070386876,0.5801028097535045,3.2203253347742757
New Vishnu Mo Mo Center,27.6704939,85.4227322,Dumpling restaurant,56,27.62048560788933,175,55.99548218747684,145,60.219179849270766,247,103.10119001913989,117,45.94463930245759,0.5,3.216903942370894
Shree Jagati Mithai Bhandar,27.6665544,85.4377743,Candy store,58,28.713678775451754,143,45.038145095173284,137,57.33315050576371,242,100.86248382874064,106,42.064701702602015,0.660205619507009,3.215763603005845
श्याम चिया पसल,27.6760317,85.4325788,Coffee shop,58,28.73164345903254,161,52.930184342679574,164,70.13590056796843,244,101.46664324087489,115,45.40087116346584,0.5,3.21509798617981
Stick Fast Food,27.671189,85.4208855,Restaurant,51,25.72924483799106,170,55.58942683069854,146,60.592098552875214,227,95.24416509325276,115,44.83528558551478,0.5801028097535045,3.2113856326330534
Komeda Cafe,27.6654822,85.4235039,Cafe,53,25.47449917575366,158,50.478187376055665,138,57.31569986958891,228,95.66292845150193,112,43.58803004368584,0.6678877412421497,3.198465529085623
The Momo Factory,27.6653663,85.4262875,Restaurant,53,25.217761071358616,160,51.12262552588454,136,56.72473718695246,251,104.86092982542526,114,44.5702010875793,0.6173484952239897,3.1975280105429715
Coffee land,27.6655004,85.4251129,Coffee shop,53,25.217761071358616,156,49.12754059329406,135,56.62981709747591,242,100.81794803199475,112,43.73259701689314,0.6516177380544796,3.1928842741874766
Yaman Coffee Shop,27.6666191,85.4237202,Coffee shop,53,25.47449917575366,163,51.44097087858405,140,58.097858756006374,236,98.6133496574686,115,44.81728517917255,0.6010784920363198,3.18442437914962
Drip Cafe,27.671192,85.4207331,Coffee shop,51,25.72924483799106,171,55.906093497427705,147,61.07733119282318,225,94.27833026103441,115,44.83528558551478,0.55053924601816,3.1830408619699946
The Tribal Bar,27.6675284,85.4252122,Bar,55,26.233880827523052,170,54.38482135353716,145,60.914339369760064,253,105.56223633651933,119,46.52817192647478,0.5,3.181693317031754
Arjan Bakery,27.6714981,85.4223347,Bakery,54,26.793326850483485,173,55.60992294969819,143,59.45488871408793,244,101.83519066014703,116,45.46571275507869,0.5,3.1783510224144975
Mahakali Mo mo,27.6763359,85.4324363,Fast food restaurant,57,28.085227062667695,159,52.290422047129354,160,68.39212904415285,242,100.73544264711799,115,45.40087116346584,0.5,3.1780790797406553
YG COFFEE & TRAINING CENTRE,27.6660197,85.4242277,Coffee shop,54,26.01253195612474,161,50.92478504413112,136,57.0969045474333,234,97.66467814678482,112,43.80002906919279,0.6173484952239897,3.177033872078735
Ramailo MOMO,27.6654899,85.4246151,Momo restaurant,52,24.768923529360286,158,49.7265567932211,136,57.07791304926533,234,97.66608908153046,111,43.27699668036087,0.6516177380544796,3.1729647355554125
Duwal Dai ko chiya pasal,27.673771,85.4228499,Restaurant,53,26.778076594966034,170,54.57454332326496,152,63.30657665707148,244,101.60662750796897,118,45.34841713467237,0.5,3.1726114025177545
Everest Bakery's Coffee Shop,27.6654263,85.4247885,Coffee store,52,24.768923529360286,158,49.7265567932211,135,56.60739037030622,236,98.5331614068837,111,43.27699668036087,0.6516177380544796,3.172098580738307
Grill and chill,27.6654456,85.4231215,Chicken restaurant,52,25.158038849211774,155,49.62418056097401,137,56.80027264334319,221,92.75953154825932,112,43.61541072052306,0.6748370656573115,3.171383866702444
Kristina Cafe and Coffee Shop,27.666073,85.4226171,Cafe,56,27.645918378895395,155,49.29953610555323,137,56.8511114803689,223,93.77169305378966,112,43.61911442422968,0.6173484952239897,3.1675198213477533
"Lumbini tandoori bhojanalaya,suryabinayak",27.6654551,85.4231862,Restaurant,52,25.158038849211774,156,49.798783735584934,137,56.80027264334319,222,93.15888029016375,112,43.61541072052306,0.6418816010661614,3.149641909946849
The Vibevault & ChiyaKhana,27.6668872,85.4259959,Cafe,54,25.70651572998326,167,53.65409676616579,146,61.185911607900785,253,105.56223633651933,117,45.65097287095664,0.5,3.1484307143237724
Surybanyak,27.6668246,85.425633,Hamburger restaurant,53,25.217761071358616,168,54.062522364738186,143,59.93700667539614,255,106.42947257392036,116,45.286670640930446,0.5,3.1446492841054656
Awal paha chhen,27.675937,85.433786,Restaurant,56,27.399801873783737,154,50.13465867994917,156,66.94514638812869,241,100.32518976577083,116,45.63672406504728,0.5,3.1423972540554974
Siddhilaxmi Mithai and Dahi Bhandar,27.6653963,85.4252398,Bakery,53,25.217761071358616,157,49.31984828562541,135,56.62981709747591,242,100.81794803199475,112,43.73259701689314,0.6010784920363198,3.1417921699836815
Khwopa Media,27.6719772,85.4372379,Cafe,56,27.399801873783737,148,46.72142055844046,155,66.12096434717898,240,100.16955563315894,117,46.13338319120799,0.55053924601816,3.1409459511715445
Mo:mo pasal,27.6777681,85.4226628,Momo restaurant,50,25.749242848067542,150,49.604154604337666,137,58.03439086851795,220,92.04976954628141,116,44.89773503157941,0.6418816010661614,3.138509624917131
Suresh coffee shop,27.6775854,85.4302684,Coffee shop,57,28.085227062667695,161,52.801471479089116,154,66.1089390892948,241,100.39176072989616,116,45.68063306819367,0.5,3.137662677510889
Pasa Cake House,27.6773635,85.4309337,Bakery,57,28.085227062667695,158,51.774387246146915,154,66.1089390892948,241,100.39176072989616,115,45.333410845958134,0.5,3.136696488201166
Chiya Kham,27.6759822,85.4337928,Tea store,56,27.399801873783737,154,50.13465867994917,155,66.60200913321721,240,99.97333791390147,115,45.40087116346584,0.5,3.1341188811808394
Kyodong Laphing and Fast Food,27.6662604,85.4234316,Restaurant,53,25.47449917575366,164,51.757637545313216,140,58.097858756006374,232,97.18865839376573,115,44.81728517917255,0.55053924601816,3.1269988077174844
Suryabinayak Tea Shop,27.6630311,85.4325736,Bakery,57,27.563040276859677,154,49.07632121345222,143,59.842069980031056,251,104.62620395112334,102,40.102667069332156,0.55053924601816,3.1261738819932647
Everest Momo & Newari Khaja Ghar,27.6643784,85.4261986,Restaurant,53,25.217761071358616,150,47.700070960099524,134,56.04513036847517,241,100.48809664464797,114,44.5702010875793,0.6010784920363198,3.1232907960567196
न्यू सुर्यबिनायक अमिलो एण्ड कुल्फी शप,27.666363,85.425524,Dessert shop,53,25.217761071358616,166,53.092511584008776,139,58.14915824211463,253,105.63919259853877,116,45.286670640930446,0.5,3.1229780512292615
A One Liquor Shop,27.6712166,85.4378953,Bar,56,27.386472277387426,146,46.303859760552946,138,58.30843528246936,242,100.87170315886945,114,45.29304009141413,0.6010784920363198,3.1189283074219416
CoffeeStation&Bakery,27.6654581,85.4243362,Coffee shop,54,26.01253195612474,156,49.558590976642606,135,56.78934648609893,231,96.62321810254875,111,43.27699668036087,0.5801028097535045,3.1187860701104957
Moori De lounge,27.666067,85.4234754,Cafe,53,25.47449917575366,164,51.757637545313216,140,58.097858756006374,231,96.76892198150998,114,44.44691480876926,0.55053924601816,3.1171735798474303
New enjoy mo: mo: & stick food,27.6659909,85.4258588,Fast food restaurant,53,25.217761071358616,166,53.729586962220935,140,58.5063010992796,252,105.24604074414198,116,45.286670640930446,0.5,3.116779340851723
Suman cold store,27.6769336,85.42285,Restaurant,54,27.782487193215214,154,50.89160670802826,146,61.35258243808249,233,97.24076869319944,115,44.48930808004849,0.5,3.1078265299179306
Suman Tamang Shop,27.666443,85.4248226,Coffee shop,55,26.46136949812307,160,51.127059709802126,138,57.980296194382674,248,103.58024223515896,112,43.73259701689314,0.5,3.1066754750875516
Narey's Café,27.6645571,85.4252743,Coffee shop,52,24.768923529360286,148,47.065737818009005,133,55.691486239912415,234,97.6213526693112,111,43.2896256647967,0.6306420557716643,3.106134362844938
New Neelbarahi Cold Store Store,27.6663926,85.4233292,Bed & breakfast,55,27.11163958488573,164,51.757637545313216,140,58.097858756006374,231,96.80880282926552,115,44.81728517917255,0.5,3.1028787122446673
BC Fast Foodl,27.6652101,85.4272984,Barbecue restaurant,53,25.217761071358616,159,50.77917448814517,143,59.70220567254953,254,105.9934534591237,115,44.32311238536326,0.5,3.101688097015823
Luthabu,27.6650513,85.4275729,Family restaurant,53,25.217761071358616,159,50.70811057282751,143,59.70220567254953,254,105.9934534591237,114,43.97390603614179,0.5,3.0983937489916302
Lhosa Chhen,27.6649091,85.4227092,Restaurant,52,25.158038849211774,153,48.964910017892876,134,55.4790415913659,208,87.1915133984038,110,42.920499598431434,0.6678877412421497,3.097681316696925
AYUSH GHASA CHHE,27.6652493,85.4270454,Asian restaurant,53,25.217761071358616,161,51.611528280332266,140,58.51004759137569,253,105.62104074417843,116,44.76725641853424,0.5,3.097448345155592
Kharbuza's Shop,27.6771993,85.4228395,Coffee shop,54,27.782487193215214,153,50.447162263509746,146,61.35258243808249,233,97.24076869319944,114,44.13745622817915,0.5,3.095503648531828
TUSHARO CAFE,27.6660451,85.4225424,Cafe,56,27.645918378895395,156,49.789021863268175,137,56.8511114803689,220,92.24835466356785,112,43.61911442422968,0.55053924601816,3.0917354164977304
Laxmi Breads and Bakery,27.6650492,85.4256411,Wholesale bakery,53,25.217761071358616,154,49.09625286497814,136,56.98275827396495,243,101.19294803203121,113,44.16702894841408,0.55053924601816,3.086531814294864
Akarshan Cafe,27.6643186,85.4248565,Cafe,51,24.23089074898921,149,47.25211540502117,129,54.03012828702086,229,96.0363329693762,109,42.575336217132275,0.6418816010661614,3.086463265202346
Bagale Fast Food and Sekuwa Corner,27.6698558,85.4377501,Fast food restaurant,58,28.718313862636233,148,47.01709948697368,139,58.64851590932129,241,100.42577352665485,115,45.696129134578506,0.5,3.083891897648982
Suraj's home,27.6634284,85.4303185,Coffee shop,54,26.084193096092438,151,48.565657087519384,147,61.54621403729746,254,106.28457746596845,107,41.707284969358376,0.5,3.072501365060365
Punahari Coffee Shop,27.6756396,85.4351914,Cafe,54,26.244704492839148,147,46.81563422199949,143,61.33072848051935,239,99.469453463914,115,45.323494771151886,0.55053924601816,3.070249933560672
Cafe JAC Bhaktapur,27.6652664,85.4226844,Restaurant,55,27.27091837885894,153,49.178858923505025,135,55.87231158884818,209,87.59138494212527,109,42.53954721743824,0.6010784920363198,3.06911637282705
Anju Store,27.6659972,85.4238661,Coffee shop,53,25.47449917575366,163,51.58196186962877,139,57.7045887585241,233,97.5718896132325,113,44.00983299077093,0.5,3.0674275926628702
De' Hide Out Cafe With Restro,27.6708993,85.4389241,Restaurant,50,24.065465326771413,139,44.0518243961766,122,51.45611336138235,236,98.45363420321507,103,41.20407275019776,0.7403084292605133,3.059906137187665
Pride food cafe,27.6655255,85.4255009,Restaurant,53,25.217761071358616,157,49.852380467443055,136,56.98275827396495,247,103.16318842165485,112,43.73259701689314,0.5,3.058807207874761
Nimto MoMo Naan & Stick Food House,27.6652775,85.4256796,Restaurant,53,25.217761071358616,157,49.852380467443055,136,56.98275827396495,247,103.16318842165485,112,43.73259701689314,0.5,3.051044558375222
Awal Newari Khaja Ghar,27.6768192,85.4337163,Restaurant,52,25.04477046990664,145,46.018646349608446,143,61.62885517209066,239,99.59868053004277,115,45.40087116346584,0.55053924601816,3.0479709396294963
Suryabinayak bhaktapur,27.66532,85.4254412,Bar,53,25.217761071358616,156,49.40288357945255,136,56.98275827396495,244,101.83860426560045,112,43.73259701689314,0.5,3.04074167959138
Diyo Garden Restaurant,27.6633774,85.4259391,Restaurant,52,24.768923529360286,142,45.27549929792099,128,53.40005844286546,227,94.98260562279012,107,41.91558799600654,0.6306420557716643,3.040626768113226
Kaman Coffee Shop,27.6734349,85.4381693,Coffee shop,47,22.470898875294125,132,41.30734830240242,118,50.410676107191186,234,97.66033055095505,109,42.98371956609573,0.7725236568378258,3.0361175922207857
Lumanti Cafe,27.6733741,85.4370836,Cafe,55,26.783793718226576,146,46.03155622682408,151,65.31437491001446,240,100.16955563315894,117,46.13338319120799,0.5,3.036094903775047
Momo & Khaja corner,27.665455,85.4239267,Coffee shop,53,25.47449917575366,159,50.66486081802605,135,56.74767981939928,230,96.26469491534473,111,43.06499765485391,0.5,3.0316923906582502
Chonga Ganesh Newari Khaja Ghar,27.6756675,85.4200654,Brunch restaurant,51,25.95189039774316,154,51.56370823255581,144,60.29419247698575,191,80.38952049160198,113,44.02061517346488,0.5,3.0298800062027773
Unique Khaja Ghar,27.6654513,85.4221887,Nepalese restaurant,54,26.826660183840147,152,48.770465573422975,133,55.03152339332392,205,86.19884357225803,107,41.898594852420125,0.5801028097535045,3.0200493830970707
RajeshDaikoNewariKhajagharराजेश दाईको नेवारी खाजा घर,27.6652255,85.4241241,Fast food restaurant,53,25.47449917575366,154,48.97663723953535,134,56.40045759716374,230,96.26469491534473,111,43.06499765485391,0.5,3.0131395519854496
Timmure kamalbinayak,27.6768151,85.4368339,Barbecue restaurant,41,19.426532797672188,126,39.83909864157018,113,47.74087010333719,232,96.72004202255945,108,42.676390568319796,0.8465971887006174,3.0055754385419817
S & S Khaja Ghar & Sekuwa Corner,27.6641245,85.4240109,Cafe,51,24.23089074898921,149,47.65506636722283,129,53.98522373973425,213,89.0701246077637,108,42.048150656442644,0.6010784920363198,3.003011075387218
Kumar Special Panipuri and Coffee Shop,27.665906,85.4383846,Coffee shop,56,27.60804381994309,139,43.81626523206556,129,54.72306328538921,241,100.47794990166321,99,38.838102707408375,0.55053924601816,3.0028293547685396
Café:In,27.664202,85.4217985,Coffee shop,49,24.595821764312202,145,46.31439559675727,130,53.764458258394974,193,80.85851414390078,98,37.64771428625088,0.6870174332905029,3.001880173985386
Halesi meat shop and sekuwa corner,27.6658296,85.4383976,Family restaurant,56,27.60804381994309,138,43.20430849736813,128,54.27861884087069,241,100.47794990166321,99,38.838102707408375,0.55053924601816,2.994951808512684
De Newa Kitchen,27.6658536,85.438753,Cafe,54,26.27620223469429,135,42.52477104263444,126,53.69619587173098,237,99.05796513254529,97,38.23631945713176,0.6010784920363198,2.980788559726509
JYO JYO CAFE Pvt.Ltd.☕️,27.6643982,85.4256247,Cafe,52,24.768923529360286,148,46.85804551025703,132,55.22484111620318,236,98.48673411979723,112,43.74522600132898,0.5,2.9796319151151915
Keshab Coffee Shop,27.6732069,85.4381559,Cafe,47,22.470898875294125,135,42.36641953901268,118,50.410676107191186,235,98.01218240282441,109,43.125486116376386,0.7065772901240378,2.9790510242480988
Sasto mitho khaja ghar,27.6653184,85.4224212,Restaurant,55,27.27091837885894,153,49.009646859978425,135,55.87231158884818,206,86.23622421190278,109,42.54325092114486,0.5,2.9588474958532913
Dipa Khaja Ghar,27.6664314,85.420063,Fast food restaurant,49,24.836546650172895,154,49.55896914209985,138,56.69658690366714,191,80.21476316215526,104,40.16882925197822,0.55053924601816,2.957407281254069
The A-One Bakery,27.6627558,85.4259439,Bakery,51,24.23089074898921,136,43.45207894503239,125,52.165510663406145,213,88.8528247867161,104,40.715648489851915,0.6306420557716643,2.956785728331104
Sindhu Khaja Ghar,27.6665413,85.4194733,Fast food restaurant,49,24.836546650172895,151,48.729405649952284,139,57.40494610931588,172,72.72271526464202,103,39.70200077408531,0.5801028097535045,2.9561037068993707
Just Chill Restaurant,27.6652904,85.4224034,Restaurant,55,27.27091837885894,152,48.770465573422975,135,55.87231158884818,204,85.49074676335728,109,42.54325092114486,0.5,2.9545787203541214
Nasika Sekuwa and Burger Station,27.6632535,85.425985,Restaurant,52,24.768923529360286,141,44.93522152013641,128,53.40005844286546,223,93.30136941039112,105,41.144312799425045,0.55053924601816,2.9459678280331567
Yonjan,27.6625467,85.4336946,Restaurant,55,26.526266283994055,141,44.55257400982529,119,48.245770438697654,243,101.51521801252015,88,34.36079607673241,0.5801028097535045,2.932148138284928
Subin Cafe,27.6717718,85.4393062,Cafe,47,22.384073229070296,126,39.643409993312794,110,46.767475825043796,235,98.03428175509748,101,40.40719044050228,0.7317205478079842,2.931030353444269
Royal jagati khajaghar and sekuwa corner,27.6658507,85.4387659,Restaurant,54,26.27620223469429,135,42.52477104263444,126,53.69619587173098,237,99.05796513254529,97,38.23631945713176,0.55053924601816,2.930436036124621
Bikerz Point,27.6783543,85.4339395,Cafe,42,19.89521160952714,129,41.11005602512485,133,57.015616373044644,234,97.3879739296257,108,42.99109179311347,0.6418816010661614,2.929751699168255
Hypnotize restro,27.6664092,85.4205994,Restaurant,50,25.132636606326194,154,49.552719142094105,137,56.743099215825225,200,84.17529957792718,106,40.964212314055075,0.5,2.928772071571107
Hotel White House,27.6622144,85.4225893,Restaurant,43,21.309950143919522,136,43.79357120394044,118,49.17814594438579,181,75.53301596872885,96,36.858589045532334,0.7866800998775423,2.927504896223883
DAJUBHAI KHAJA GHAR,27.6715355,85.4167828,Restaurant,50,25.655800441589868,151,50.83575204964228,144,59.27102272187609,154,64.53004829004621,101,39.80303023489847,0.5,2.927326267353503
HAPPINESS COFFE & CHIYA GHAR,27.6630397,85.426098,Tea house,52,24.768923529360286,139,44.167241852420496,127,53.09250038153109,219,91.66118833656661,105,41.144312799425045,0.55053924601816,2.9239087390509697
KV Lounge and Jagatiko Chhoila Pasal,27.6765449,85.437712,Restaurant,39,18.316262754979046,117,37.57570645541549,107,45.15872421520459,227,94.86968968274948,101,39.71095251291348,0.8576569244845031,2.9236359489230845
Food Bowl Restaurant,27.6771492,85.436841,Coffee shop,40,18.85843761666152,119,37.98789310182719,110,46.41073956907364,231,96.33550809548203,107,42.16687415086077,0.7973043443087164,2.9170453215467718
Khadka Restro,27.6701931,85.415751,Cafe,45,22.406524963555913,145,48.614042173134195,140,57.80332835042682,139,58.482724839211535,103,40.57594686430147,0.6010784920363198,2.90474821933615
ASALfood and beverage,27.6621394,85.4261398,Restaurant,48,23.092173772436887,133,42.17117460944404,123,51.42061483811026,207,86.40886965179729,100,38.925532324259926,0.660205619507009,2.90051059396999
Hena Coffee,27.677081,85.4359849,Coffee shop,42,19.89521160952714,127,39.99619049302738,126,54.18424332896686,233,97.06528011780904,105,41.77831901026389,0.6748370656573115,2.894485441695866
Kasi Restro & Baar,27.6766991,85.4350799,Restaurant,48,22.864597221809344,137,43.43350898681406,138,59.308812361946856,237,98.58167511968418,110,43.65995715809633,0.5,2.8906266804497864
Lawaju Mithai Bhandar (लवजू मिठाइ भण्डार),27.6767395,85.4371462,Vegetarian restaurant,40,18.85843761666152,121,38.521285318296606,109,46.12914896557592,228,95.20919585559503,107,42.16687415086077,0.7689662332784695,2.8898103738524723
Nabin Mobile Care,27.6627832,85.425985,Bakery,51,24.23089074898921,136,43.45207894503239,125,52.165510663406145,216,89.98866997749458,104,40.715648489851915,0.55053924601816,2.885374368751719
Halu Khaja Ghar,27.670213,85.4389827,Family restaurant,52,25.32159045527629,140,44.71914566646022,129,54.555222607586614,236,98.45363420321507,104,41.54393694877257,0.5,2.873031840672086
Bhaktapur Dairy And Coffee Shop,27.666245,85.4182367,Cafe,46,23.588570414352724,148,48.49897339968588,136,56.66367579558473,155,65.52661300239461,104,40.42202181153377,0.55053924601816,2.871746432999415
Gamenic Cafe (Game Bar & Cafe),27.6717182,85.438968,Bar,48,23.071479502537706,133,41.44396625564211,117,50.065540946500185,235,98.03428175509748,102,40.777560810905584,0.6173484952239897,2.870707056976731
The light cafe and restaurant,27.6633759,85.4237223,Restaurant,48,23.015991223679578,142,45.54625724707476,127,53.172269900318575,205,85.78059720255685,106,41.50816010330352,0.55053924601816,2.868814209859414
D icon Restaurant,27.6723776,85.4384499,Bar,49,23.613654364220178,135,42.278398490123344,118,50.34056799964708,237,98.79325684473068,105,41.71640639100933,0.5801028097535045,2.866121348717688
Time's Cafe And Restro,27.6774529,85.4380362,Restaurant,37,17.26042500090311,113,35.962862060332824,99,42.394084171851965,223,93.41717150827745,98,38.48657230236202,0.8825747949113852,2.860115880458817
"1990s laphing,dhara",27.6718977,85.438394,Restaurant,51,24.60764018845389,141,44.717219614985794,123,52.34361935320784,239,99.53766074819012,106,42.142918330301505,0.5,2.854931246795001
Aagya wine and dine,27.6630991,85.4240961,Restaurant,48,23.015991223679578,141,45.25851555701697,127,53.10313856889592,204,85.41211265821016,102,39.93044663185125,0.55053924601816,2.854524340043855
Krishna Fast Food,27.6706541,85.4389575,Cafe,51,24.78250122988886,140,44.52176516622186,125,52.60034929321013,236,98.45363420321507,104,41.54393694877257,0.5,2.8460565138068263
Dolakha Khaja Ghar,27.6628502,85.4259424,Restaurant,51,24.23089074898921,137,43.70207894509489,125,52.165510663406145,217,90.77558097412285,105,41.144312799425045,0.5,2.843055083324374
Planet Bhaktapur Hotel,27.682026,85.4301483,Restaurant,33,16.009631756340113,92,28.937858104756295,115,48.83933921153113,210,87.94061294752747,97,38.06390105588212,0.909268435703694,2.8368846556242087
Sindhupalchok khaja ghar and coffee shop,27.6659175,85.4192133,Coffee shop,48,24.234197407558447,146,47.25417194150822,138,57.060860087800094,162,68.30395790782508,102,39.28725467789871,0.5,2.8301892090943497
Bhintuna food cafe,27.675825,85.4381791,Restaurant,39,18.316262754979046,120,38.12527910503448,106,44.81638187285348,229,95.68261867161469,103,40.477619179663485,0.7526962300907996,2.817086487131124
The chatpate & chiya junction,27.6748902,85.4382099,Tea store,43,20.356344760512105,127,39.55142398196883,112,47.27173544489887,230,96.06715259869213,104,41.150349261624825,0.6678877412421497,2.816112549860925
Peace Heart Zone,27.6633687,85.4237219,Pizza restaurant,48,23.015991223679578,141,45.10181280255625,127,53.172269900318575,205,85.78059720255685,106,41.50816010330352,0.5,2.815901620952003
Ray Mama's Restro,27.6626591,85.4259429,Restaurant,50,23.62854150637476,136,43.45207894503239,125,52.165510663406145,212,88.45816770701016,104,40.715648489851915,0.5,2.8117005207038877
Newari khajaghar & Sekuwa corner,27.6639829,85.4218836,Coffee shop,49,24.595821764312202,145,46.27263666488154,130,53.764458258394974,193,80.85851414390078,96,36.966044594766274,0.5,2.8071647695957203
Kumpakha khaja ghar & Mini Party palace,27.6630064,85.4232512,Restaurant,47,22.775713445895004,140,44.757256158369174,124,51.77488244645296,195,81.62756533124711,99,38.11739716223845,0.55053924601816,2.794493451359064
MR BAKE Coffee,27.6762531,85.4378648,Coffee shop,39,18.316262754979046,118,37.74750132721541,107,45.15872421520459,228,95.20919585559503,101,39.71095251291348,0.7253763116754715,2.792212330863012
Khwopa Beans Cafe,27.6731166,85.4380831,Coffee shop,47,22.470898875294125,138,43.39503962405125,118,50.410676107191186,237,98.87779891739154,111,43.898664722348045,0.5,2.791314103217931
Sanju Cold Store,27.6759705,85.4171998,Restaurant,45,23.193261994802057,140,47.377368970593984,134,56.045190995495375,141,59.34302536490833,100,38.953272401884284,0.5,2.7798708244600316
Nagarkot Khaja & Thakali Bhojanalaya,27.6760335,85.4375354,Nepalese restaurant,40,18.85843761666152,124,39.24989514929889,111,47.05337278330378,229,95.59372978267247,106,41.7866989049472,0.6418816010661614,2.777389386718615
Swiss Tea House,27.6623983,85.4227701,Cafe,43,21.309950143919522,136,43.79357120394044,119,49.60000591911207,186,77.54098741892221,95,36.358589045449,0.6173484952239897,2.776773164130866
J block,27.6709633,85.4391693,Breakfast restaurant,49,23.584007252002802,136,43.110349902729155,116,49.189321843327875,235,98.03428175509748,102,40.777560810905584,0.5,2.7758057779663456
Yes Cafe,27.6758349,85.4382209,Cafe,39,18.316262754979046,120,38.12527910503448,106,44.81638187285348,229,95.68261867161469,103,40.477619179663485,0.6924208470843213,2.7548130516960616
Lisankhu Pakhar Daanse Khaja Ghar,27.6625108,85.4241925,Restaurant,46,22.370364230473854,137,43.7591183737144,124,52.015811583143474,198,82.82091111978954,98,38.37938069048029,0.5,2.732535245865406
Ghising Khaja Ghar,27.6619692,85.4240448,Coffee shop,46,22.370364230473854,132,42.32010921428919,122,51.09723129671384,187,78.20450318718174,97,37.71920560496672,0.55053924601816,2.7321990790416346
Namaste Newa Fastfood,27.6780133,85.4391407,Restaurant,37,17.26042500090311,106,34.51600954621813,92,39.39797697551719,217,91.19381242235586,88,35.565620275958615,0.8508694485699835,2.7284901758846916
"KFC, Thimi",27.6748653,85.3973167,Fast food restaurant,38,19.350669087453404,38,14.04593462009378,48,20.24719972072997,130,53.61313677692656,55,23.634188007765708,0.964446804244965,2.7201193814622346
Haadi Bistro and Cafe : Radhe Radhe,27.6759107,85.3977913,Biryani restaurant,38,19.312032734199633,40,14.426653574386066,49,20.64046971821224,131,53.95713300955049,56,23.841887670300093,0.9454418559731483,2.7176029178319894
Royal Thai Hospitality,27.6749012,85.3964525,Restaurant,38,19.350669087453404,38,14.04593462009378,46,19.220184479188024,137,56.75093907183001,55,23.634188007765708,0.9342563001069608,2.7128743304392344
Samir khaja Ghar,27.6617848,85.4261976,Cafe,47,22.686824557015743,130,41.46292442550947,123,51.42061483811026,204,85.19913319907715,98,38.55510410220156,0.5,2.7094568459966855
Hari Dairy,27.6617052,85.4261785,Bakery,47,22.686824557015743,130,41.46292442550947,122,50.914377873415184,203,84.81818081808396,97,38.096055370837206,0.5,2.6994860759244816
Shanti Special Food Industry Private Limited,27.6629488,85.4185637,Bakery,40,19.856879860723016,138,45.354913175617625,108,44.2579863217654,137,58.48704712934385,82,31.13168212174822,0.7286174105755541,2.699045353242058
Binayak Fast Food & Sekuwa Corner,27.6768541,85.4371348,Fast food restaurant,40,18.85843761666152,120,38.34949044649669,108,45.592398253122724,228,95.20919585559503,106,41.7866989049472,0.5801028097535045,2.6893435981225053
Pizza Hut,27.6748593,85.3973481,Pizza restaurant,38,19.350669087453404,38,14.04593462009378,48,20.24719972072997,130,53.61313677692656,54,23.21115561896378,0.9243580747534077,2.6766838319230724
Durbar Thakali Grill,27.6765194,85.3982044,Rice restaurant,38,19.312032734199633,41,14.886491987156372,49,20.64046971821224,129,53.054668012450435,53,22.529225832323743,0.9252184118102138,2.676281066115921
Pizza World Bhaktapur,27.6755211,85.3976867,Restaurant,38,19.350669087453404,40,14.426653574386066,48,20.24719972072997,130,53.59815865055246,56,23.841887670300093,0.9043139681452792,2.672865044767581
Purna Dai ko chya pasal,27.6772499,85.4391732,Cafe,37,17.26042500090311,106,34.453671883801405,93,39.89242903251496,218,91.46585053082143,94,37.20043967421505,0.7652262996873955,2.670559448955878
Twayana Nasa: Chhe,27.6620794,85.4220969,Coffee shop,43,21.422991667055975,135,43.596811944653666,116,48.51851485693619,172,72.21324927028985,89,33.72119639340118,0.5801028097535045,2.66523602162837
Chiya Daboo,27.673315,85.4394403,Coffee shop,43,20.356344760512105,126,39.43843330507028,106,45.005316978442146,233,97.29789597615071,101,40.53150368150827,0.55053924601816,2.6652333134252184
Chiya Juxon,27.6604619,85.4274029,Cafe,46,22.2725009826124,121,39.023173649575405,115,48.12581856604975,192,80.53448952525561,83,31.624326314307975,0.5801028097535045,2.6578429232338903
Nawa Durga Khaja Ghar and Fast Food,27.6752549,85.438541,Restaurant,39,18.316262754979046,120,37.829890851038755,107,45.353132585306675,229,95.68261867161469,104,41.150349261624825,0.5801028097535045,2.657545145117738
Newa Nasa Chhey,27.678597,85.3856256,Restaurant,48,23.976494320260898,4,1.623120001225628,10,3.6690546275004188,157,65.2096071659075,55,23.691985756606346,0.8009205921710623,2.6365006078214868
The sign cafe,27.6756952,85.4377457,Coffee shop,40,18.85843761666152,125,39.32642576160888,110,46.61969874538563,229,95.59372978267247,106,41.76938036495928,0.5,2.6362396352830793
"Biryani Adda , Radhe Radhe , Bhaktapur",27.6753198,85.3979596,Indian restaurant,37,18.740549632449202,42,14.786790026653403,50,21.10711484192148,127,52.25982405703947,56,23.841887670300093,0.8833382858624639,2.63302709501175
The Burger House And Crunchy Fried Chicken (Radhe radhe),27.675911,85.3980002,Restaurant,38,19.312032734199633,41,14.886491987156372,50,21.10711484192148,131,53.95713300955049,54,22.766750974709396,0.8628671918882873,2.629329769437751
"The Wings Factory, Radhe Radhe",27.6776843,85.3985322,Chicken wings restaurant,38,19.312032734199633,42,15.503630978111751,50,21.03819604368424,127,52.35748168957877,49,20.89131223937524,0.9198971902464955,2.6286784744952163
Old Mill Cafe,27.675913,85.4392927,Coffee shop,38,17.790809893239697,112,35.321051100759234,94,40.251403391512994,225,94.31682101245205,99,39.28161610738157,0.660205619507009,2.622249472982117
Darjeeling Fast Food,27.6604966,85.4279471,Cafe,46,22.2725009826124,121,39.023173649575405,114,47.47414391676777,193,80.90297505695995,80,30.38034757429299,0.55053924601816,2.6158669235032437
Cafe Boh,27.6783498,85.3984108,Restaurant,38,19.312032734199633,40,15.029614778231574,51,21.43218754188867,129,53.09415206250385,49,20.89131223937524,0.8958683554590599,2.6136453484160183
Bastakoti Khaja Ghar,27.677067,85.4370221,Restaurant,40,18.85843761666152,119,37.98789310182719,108,45.592398253122724,227,94.86968968274948,107,42.16687415086077,0.5,2.6074307959941576
NigooPukhoo Restro,27.6779848,85.3858299,Restaurant,48,23.976494320260898,4,1.623120001225628,11,4.139226880387998,158,65.73948915973051,56,23.929510898992,0.7479905509956541,2.6054414102009456
The Atlantic Seafood Restaurant & Bar,27.6759092,85.3980128,Asian restaurant,38,19.312032734199633,41,14.886491987156372,50,21.10711484192148,131,53.95713300955049,54,22.766750974709396,0.8357754824842993,2.6023381531265457
Dakshin Barahi Mo:Mo & Food Corner,27.6730017,85.3853751,Fast food restaurant,45,21.738724445550602,4,1.623120001225628,12,4.478797178416416,152,63.418340366616526,55,23.011056528213935,0.8280933607491585,2.6009747231919484
Meal Me Restaurant & Bar,27.6756089,85.3981092,Restaurant,38,19.312032734199633,42,14.786790026653403,50,21.10711484192148,128,52.64991353967717,55,23.25931742025099,0.8407086585490307,2.59928061913196
ALX VARIETY FOOD,27.6729441,85.3842916,Restaurant,47,22.889812621886474,4,1.623120001225628,11,4.008624925528838,151,63.255670184307604,56,23.750734139817737,0.8118233575614886,2.5943317062773406
Newa Nanee,27.6735524,85.4124763,Restaurant,31,16.078653600876414,107,37.442734889407426,109,44.62117997592166,69,28.7204428671385,80,32.8011661917608,0.7960579426824574,2.593659359231375
SanjaBunja (सजॅंबुजॅं),27.675553,85.3842259,Restaurant,47,22.889812621886474,4,1.623120001225628,11,4.008624925528838,157,65.53523165998091,57,23.815174387343998,0.7571165361421976,2.582163359624697
Chiya Sangai: Best Tea Shop in Bhaktapur,27.6769293,85.4377586,Tea store,38,17.790809893239697,115,36.739284252961035,104,44.10958142688507,226,94.52683253988307,101,39.71095251291348,0.55053924601816,2.5814227915893553
Sawaa Garden Cafe,27.6766824,85.3933197,Restaurant,37,18.4401822668528,24,9.137347073757637,32,13.861528186388735,147,60.71657612224251,58,24.643666661293356,0.860308588326471,2.580928661689266
The Box Hub,27.6776134,85.4387782,Bar,37,17.26042500090311,108,34.9511947314833,93,39.89242903251496,219,91.88278163282175,95,37.53777847999595,0.660205619507009,2.5768910615073337
Chicken Station Radhe Radhe Bhaktapur,27.6753388,85.39819,Fast food restaurant,37,19.011004506436755,42,14.786790026653403,51,21.57809762370201,126,51.909824057023634,53,22.443629241656517,0.8365009881677302,2.5766856692759523
Bhimeshwor Mo:Mo & Chinese Stick House,27.6726938,85.3853502,Restaurant,44,21.118961816017297,4,1.623120001225628,12,4.478797178416416,152,63.418340366616526,54,22.612749391468203,0.8230629028559856,2.5766718853609154
Arabica coffee Radhe Radhe,27.6763531,85.3981224,Coffee shop,38,19.312032734199633,41,14.886491987156372,49,20.64046971821224,130,53.40883467913663,54,22.766750974709396,0.8032354761089594,2.574212837930912
Kalash Food Cafe,27.6729236,85.3876911,Cafe,42,20.455213268065357,8,2.9393808195264755,14,6.082829602896941,149,62.108038726452676,51,21.765428577617588,0.8372193458957021,2.574152871006188
Bhatbhateni Food Park (Bhaktapur),27.6750698,85.397268,Restaurant,38,19.350669087453404,38,14.04593462009378,48,20.24719972072997,132,54.389822803512864,55,23.634188007765708,0.8118233575614886,2.572681504768604
Nyasa Cafe,27.676534,85.43905,Cafe,37,17.26042500090311,111,35.62794729127012,94,40.251403391512994,224,93.96682101243621,96,37.94296366523915,0.6173484952239897,2.55783241788249
Kolakhu De Cafe,27.6754737,85.3853666,Cafe,46,22.267241343883505,4,1.623120001225628,12,4.478797178416416,154,64.4285821064754,55,22.968299443232446,0.7526962300907996,2.556780658544838
Duwal house,27.672089,85.4403049,Coffee shop,44,20.811693975970748,118,37.048430019428075,98,41.70736134293492,232,96.95446163270657,94,37.440743618734125,0.5,2.5511425544944037
Thakali Station,27.6783117,85.4407716,Asian restaurant,34,16.379140212552404,94,31.330933681461975,87,36.946762615599106,193,81.60348901239604,84,33.888537862459856,0.8357754824842993,2.5508974074751074
The Burger House and Cruchy Fried Chicken,27.6741244,85.374662,Restaurant,42,21.26607106655829,3,1.1577489452096297,9,3.4221855949294655,150,62.37223589447661,58,23.889051299382277,0.9775528480507916,2.546628465426283
Ghorasaini Liquor & Fruits,27.6709226,85.4138819,Bar,37,18.945740264633272,134,45.62182308523754,132,54.61502351270737,105,43.981900848838514,94,36.97888791729164,0.5,2.5432953288866393
Sandar Momo Radhe Radhe,27.6765189,85.3982259,Momo restaurant,38,19.312032734199633,41,14.886491987156372,49,20.64046971821224,129,53.054668012450435,53,22.529225832323743,0.7894847810256198,2.541048917120358
Beeburger And Real Kitchen,27.6737832,85.379333,Restaurant,49,24.231157686953992,3,1.150433017007727,10,3.729308810431845,161,66.87520206373031,58,23.721455699427363,0.8147998002014839,2.5401936564261405
Urmi Coffee Shop,27.6773786,85.3984431,Coffee store,38,19.312032734199633,42,15.503630978111751,50,21.03819604368424,128,52.74637057851396,49,20.89131223937524,0.8176594890621673,2.5379547336417687
The Golden Lion,27.6617555,85.4211059,Sports bar,37,18.039441074846255,130,42.34982050262919,111,46.3004302046972,149,63.01460331059465,81,30.25550980440441,0.6010784920363198,2.537533307921356
A2 Matka Chiya and Fastfood,27.6714348,85.3859299,Restaurant,41,19.926696369732454,6,2.0143237049817846,13,5.2612317757932425,148,61.7195561597721,53,22.582191371925298,0.8213058848346391,2.535132520827615
Balkumari Coffee Shop,27.6764901,85.3857096,Coffee shop,46,22.33504027664531,4,1.623120001225628,12,4.478797178416416,155,64.86337385928161,56,23.484869330308776,0.7021569840726396,2.5334120255889174
Duku Family Restaurant & Sekuwa Hub,27.673066,85.3859269,Restaurant,43,20.756411533337328,6,2.0143237049817846,12,4.478797178416416,152,63.418340366616526,53,22.37029153804141,0.7742393293975594,2.533105038835545
ATITHI FOOD PALACE,27.6750932,85.3986352,Restaurant,36,18.471915281049327,43,15.246628439423711,51,21.57809762370201,124,51.10992597951431,50,21.11134968893086,0.8327990398443039,2.528250305875252
Chhusyaki Traders,27.6772092,85.4408656,Bar,36,16.919155159625518,98,32.24061521932538,91,38.96782696739926,204,86.1130544883334,87,35.009339502426265,0.7253763116754715,2.5196600550943313
Matka Tea And Cafe,27.6753191,85.3979996,Tea house,37,19.011004506436755,42,14.786790026653403,51,21.57809762370201,127,52.25982405703947,56,23.841887670300093,0.7612841115433286,2.5183505127280537
PEPE PIZZA bhaktapur,27.6754472,85.3971339,Family restaurant,38,19.350669087453404,39,14.240379064563685,48,20.24719972072997,134,55.18046162175444,55,23.471517299896796,0.7526962300907996,2.5174516069200457
Divyashwori Guest House & Restaurant,27.676267,85.3880049,Restaurant,41,20.07171774720026,8,2.9393808195264755,13,5.349713596426881,156,65.18867872507576,54,22.86003201069341,0.7571165361421976,2.51368909912569
चिया- chhey,27.677701,85.3959463,Family restaurant,39,20.028446865245172,32,12.012443193108135,40,17.228976214033015,143,58.901478417589615,57,24.301373645755746,0.7403084292605133,2.511941627784675
Kumar Bakery and Coffee Shop,27.6809137,85.3861548,Bakery,45,22.574923153008946,5,1.9897866679222946,10,3.6690546275004188,153,63.625798102447476,52,22.479038666879923,0.7837632021323228,2.509759279107269
King Everest Momo Center (Rose village Sakha)👑,27.6598766,85.425972,Momo restaurant,40,19.068688888729177,120,38.83129528554238,108,45.04943742773804,172,72.1568670882098,76,28.543278424138702,0.5801028097535045,2.506892354597279
.....,27.6735042,85.3854631,Fast food restaurant,45,21.738724445550602,4,1.623120001225628,12,4.478797178416416,154,64.22407859366524,55,23.011056528213935,0.7184269872603095,2.5064344945066246
Newa Chimney,27.6745959,85.3844078,Restaurant,46,22.24846675851434,4,1.623120001225628,11,4.008624925528838,156,65.13958662178311,57,23.815174387343998,0.6924208470843213,2.5063529366500106
Duipokhari Coffee Shop,27.6781442,85.3862113,Coffee shop,48,23.976494320260898,5,1.9897866679222946,11,4.139226880387998,158,65.73948915973051,56,23.929510898992,0.6418816010661614,2.499116796805893
Dream Beans Cafe,27.6774415,85.398256,Restaurant,38,19.312032734199633,42,15.503630978111751,50,21.03819604368424,129,53.13304095142321,50,21.2009137134544,0.7725236568378258,2.4988903273927714
Hatimahakal Garden Cafe,27.6799345,85.3862147,Cafe,46,23.12751468136753,5,1.9897866679222946,11,4.057943516435604,154,63.87843672895262,53,22.84873772230799,0.7065772901240378,2.4894524613372604
Khwopa Coffee Hub,27.6754861,85.3974593,Cafe,38,19.350669087453404,39,14.240379064563685,48,20.24719972072997,131,53.984829023461714,55,23.471517299896796,0.7219844108196658,2.4867285512228663
Ohh My Chicken Pizza Hub Radhe Radhe,27.6775612,85.3985169,Family restaurant,38,19.312032734199633,42,15.503630978111751,50,21.03819604368424,127,52.35748168957877,49,20.89131223937524,0.7759155576936313,2.485042074401691
Chyasha cafe,27.6763231,85.4398356,Cafe,37,17.26042500090311,108,34.71218866680655,92,39.39797697551719,220,92.49027889649798,90,36.28842219056262,0.5801028097535045,2.4814586597804364
Shiva ram house,27.6746056,85.4399017,Bar,38,17.790809893239697,111,35.059724770783944,95,40.96285520716262,228,95.57915714049903,101,40.48603973273932,0.5,2.4804695049238745
Indreni food stick,27.6730043,85.3853889,Coffee shop,45,21.738724445550602,4,1.623120001225628,12,4.478797178416416,152,63.418340366616526,55,23.011056528213935,0.7021569840726396,2.4786360762538338
C.B. Coffee Shop,27.6716327,85.3847579,Coffee shop,44,21.118961816017297,4,1.623120001225628,11,4.008624925528838,151,63.02955552992383,55,23.56432683695588,0.7526962300907996,2.473889716985782
Freshco Cafe and Barista Coffee School,27.676841,85.3982214,Coffee shop,38,19.312032734199633,41,14.886491987156372,49,20.64046971821224,128,52.55044094628519,51,21.70619344348033,0.7346969904479794,2.4705744527088944
Sandwich O' Clock,27.6768088,85.3980483,Restaurant,38,19.312032734199633,41,14.886491987156372,49,20.64046971821224,130,53.483040951439044,52,22.061748999056626,0.7219844108196658,2.4696329880287085
Bhairav Hotel,27.679197,85.3859545,Restaurant,48,23.976494320260898,5,1.9897866679222946,10,3.6690546275004188,156,64.75877354258694,54,23.33643020103005,0.6418816010661614,2.4692085654946947
Best Kuboos Rolls & Restro,27.6731679,85.3867754,Restaurant,42,20.455213268065357,6,2.0143237049817846,13,5.300395005520114,152,63.26786379898661,52,22.009180426904834,0.7065772901240378,2.4649313353818583
Nice Coffee Shop & Khaja Ghar,27.6754222,85.3860485,Coffee shop,44,21.665068419687934,5,1.8106200012451592,12,4.478797178416416,153,64.08670176458673,54,22.680751471178723,0.6748370656573115,2.4637704879994398
It's Bee's Knees Tavern & Lounge,27.6765083,85.3942093,Restaurant,34,16.639665173446353,30,11.20645235601219,35,15.106673681647806,145,59.61824817978262,56,23.917905227676336,0.7503813461529023,2.463285005771639
Belli The Fine Dine,27.6729575,85.3835842,Restaurant,48,23.41309157058037,4,1.623120001225628,11,4.008624925528838,155,64.77732267856992,56,23.639337237666076,0.7065772901240378,2.4593232587134213
The Chiya Vibes and restro,27.67771,85.3978591,Restaurant,38,19.312032734199633,40,15.029614778231574,48,20.24719972072997,134,55.26422245467541,50,21.2009137134544,0.7286174105755541,2.456719641941636
Ghattaghar Majheree Cafe & Live Sekuwa,27.6762843,85.3755291,Restaurant,46,23.343048860730264,2,0.8099228582392453,11,4.189874375306491,155,63.870640338105126,54,21.937076223183947,0.8239257853480275,2.4549832189906255
Shankhadhar Newari KhajaGhar,27.6724497,85.3847092,Restaurant,45,21.738724445550602,4,1.623120001225628,11,4.008624925528838,154,64.59236823767338,57,24.323745084838198,0.6924208470843213,2.45497261652328
Mui Bakery,27.6782316,85.3985692,Bakery,38,19.312032734199633,41,15.215889288053951,51,21.43218754188867,128,52.7074816895946,49,20.89131223937524,0.7403084292605133,2.452208992113173
Syryabinayak Bhaktapur,27.6599178,85.4259639,Momo restaurant,42,20.41455881215084,120,38.83129528554238,108,45.04943742773804,172,72.1568670882098,77,28.978692298571424,0.5,2.451940420859776
CafeGippum,27.6774686,85.3987862,Korean restaurant,38,19.312032734199633,42,15.503630978111751,50,21.03819604368424,125,51.39645245716693,51,21.831011294936335,0.7403084292605133,2.4512412409661506
Our Cafe,27.6736778,85.3868204,Cafe,42,20.455213268065357,6,2.0143237049817846,13,5.300395005520114,153,63.81954096037498,52,22.009180426904834,0.6924208470843213,2.4505951715464294
Real Lhaphing Corner,27.6779378,85.3982604,Restaurant,38,19.312032734199633,40,15.029614778231574,50,21.03819604368424,129,53.09415206250385,49,20.89131223937524,0.7346969904479794,2.4488714604297788
Madhyapur Family Restaurant,27.6829459,85.3866015,Restaurant,39,19.564337993977038,5,1.9897866679222946,10,3.6690546275004188,144,59.49155345538529,47,20.09505888257811,0.9333056644816298,2.4478891557803744
Ilam Organic green tea (IOCP TEA),27.6592943,85.4275082,Tea store,40,19.068688888729177,113,36.52303918209678,99,40.56933174970547,164,68.90055929822964,52,19.820758579330107,0.6748370656573115,2.4454672540351137
Hosanna Tapari Momo,27.6741639,85.3742498,Fast food restaurant,41,20.86627740669779,3,1.1577489452096297,9,3.4221855949294655,141,58.24442926039891,54,22.032272558802358,0.918737981098487,2.442240523797077
KKFC BHAKTAPUR THIMI,27.6751075,85.3971681,Fast food restaurant,38,19.350669087453404,38,14.04593462009378,48,20.24719972072997,133,54.790372139116734,55,23.634188007765708,0.6748370656573115,2.4416360286398207
Purushottam Newa Khaja Ghar Restro,27.6788682,85.4413761,Asian restaurant,33,16.13871468063057,83,27.62765077485477,84,35.79790519777743,171,72.1894848661239,78,31.699640853626228,0.8420589326861545,2.4398635906591917
KALI JIE LIVE NOODLES,27.67581,85.3974108,Chinese noodle restaurant,38,19.350669087453404,39,14.240379064563685,48,20.24719972072997,134,55.18046162175444,55,23.471517299896796,0.6678877412421497,2.4371019956829465
3 R khaja ghar,27.6741774,85.3948623,Fast food restaurant,38,19.127544703129978,33,12.213251143946295,39,16.88754537629312,140,57.71140477434759,59,25.3051182997351,0.660205619507009,2.436261933448119
Mount RED BEANS COFFEE and roastery,27.6759681,85.3981204,Coffee shop,38,19.312032734199633,41,14.886491987156372,50,21.10711484192148,130,53.54203340938325,54,22.766750974709396,0.6678877412421497,2.4357417385917337
Madhyapur dairy and coffee shop,27.6809973,85.3860676,Dairy store,45,22.574923153008946,5,1.9897866679222946,10,3.6690546275004188,153,63.625798102447476,52,22.479038666879923,0.7065772901240378,2.435230035610731
Friendship Bakery Cafe Fast Food,27.67259,85.38543,Bakery,44,21.118961816017297,4,1.623120001225628,12,4.478797178416416,151,62.86666320522816,54,22.612749391468203,0.6811813017898243,2.4331750063512065
Thakali restaurant (थकाली भान्छा घर रेस्टुराँ),27.6767625,85.3986406,Family restaurant,38,19.312032734199633,41,14.886491987156372,50,21.10711484192148,127,52.289568412267364,51,21.72394610228633,0.7146870536692356,2.432360711356526
Thakali Bhansa Ghar,27.6753013,85.3978524,Restaurant,37,18.740549632449202,42,14.786790026653403,50,21.10711484192148,127,52.402953914070466,56,23.841887670300093,0.6811813017898243,2.432172076352484
Siwatol Community Building,27.677408,85.3872402,Cafe,47,23.737100380861015,7,2.3809903716784513,12,4.528115769323183,157,65.37925027934459,54,23.125393039861947,0.5801028097535045,2.4304664795578446
IHOB Cafe and Restaurant,27.677582,85.438631,Fast food restaurant,37,17.26042500090311,110,35.414498094814604,94,40.251403391512994,220,92.22217557222163,96,37.88963033186529,0.5,2.4284133567522623
Lucky Bakery,27.6755289,85.3980283,Bakery,38,19.312032734199633,42,14.786790026653403,50,21.10711484192148,129,53.152017755706204,56,23.841887670300093,0.660205619507009,2.425348548441134
Sabaiko Live Bakery,27.6699192,85.3857994,Bakery,37,17.869671612111485,4,1.4815856097126785,12,5.072342886883613,141,58.7590670806637,50,21.654699729532958,0.8407086585490307,2.424086274360634
Sekuwa park,27.6809911,85.397652,Barbecue restaurant,36,17.954728294852423,32,12.22706134643009,41,17.238259440332616,131,54.050656934421866,41,17.612307194413667,0.8478435903268764,2.4240123677440524
Dhanusha Sweet And Chat House,27.672922,85.38556,Dessert shop,44,21.118961816017297,4,1.623120001225628,12,4.478797178416416,152,63.418340366616526,54,22.612749391468203,0.660205619507009,2.423946758595186
Paradise Foodland,27.6707736,85.4100168,Restaurant,29,15.063234217904583,96,34.06786441364416,97,40.36407935724039,44,18.35537627611746,59,23.95936053642011,0.8597859142631565,2.423414896098053
Lasa Kusa (Newari food) restaurant,27.6768342,85.3985524,Family restaurant,38,19.312032734199633,41,14.886491987156372,49,20.64046971821224,127,52.289568412267364,51,21.72394610228633,0.6974513049774942,2.420696986722894
Manandhar Newari khaja Ghar,27.6772347,85.3886696,Restaurant,40,19.813891500838203,10,3.5412326714583164,14,5.698198444926192,153,63.60246354260505,53,22.193711218751346,0.6811813017898243,2.414762635717457
"Madhyapur Thimi Burger House and Crunchy Fried Chicken,",27.6828082,85.3859495,Restaurant,42,20.938047227962436,4,1.623120001225628,10,3.6690546275004188,144,59.473184385855674,48,20.526955515386568,0.8472230527975119,2.4128622838269496
Hamro cake and bakery,27.6782964,85.4404574,Bakery,35,16.623226234068188,97,32.35881987259807,89,37.83945139595194,196,82.76450812724676,84,33.888537862459856,0.660205619507009,2.412375042805713
Combo kitchen,27.6732686,85.3872661,Restaurant,42,20.455213268065357,8,2.9393808195264755,14,6.082829602896941,152,63.26786379898661,52,22.009180426904834,0.6516177380544796,2.4116269539528687
Unik Fast Food And Cafe,27.6774892,85.3985,Fast food restaurant,38,19.312032734199633,42,15.503630978111751,50,21.03819604368424,128,52.74637057851396,49,20.89131223937524,0.6974513049774942,2.411596997411676
The Burger House and Crunchy Fried Chicken,27.6704472,85.4096093,Restaurant,29,15.063234217904583,92,32.58859904611324,92,38.45315900494724,42,17.64098233668111,56,22.823571329171273,0.9043139681452792,2.409399230598771
Ramailo momo,27.6754151,85.3978829,Fast food restaurant,37,18.740549632449202,42,14.786790026653403,50,21.10711484192148,129,53.152017755706204,56,23.841887670300093,0.6516177380544796,2.4056227028603656
Pranjal Fast Food & Cafe,27.6753726,85.3978882,Fast food restaurant,37,18.740549632449202,42,14.786790026653403,50,21.10711484192148,128,52.76192827306849,56,23.841887670300093,0.6516177380544796,2.404109886345592
Daura Thakali Bhaktapur,27.6748427,85.3907559,Family restaurant,33,16.043056941781487,20,6.929838129339751,22,9.242115670844553,152,63.30723403374901,52,22.217670285254922,0.7894847810256198,2.4017822178710917
Aarogya Bakery,27.6730941,85.3863255,Bakery,42,20.455213268065357,6,2.0143237049817846,12,4.478797178416416,151,62.8722187607888,52,22.009180426904834,0.6516177380544796,2.4013737855169572
The town kitchen,27.6764193,85.3975993,Restaurant,38,19.312032734199633,39,14.240379064563685,48,20.24719972072997,133,54.78605528414296,53,22.396380604306106,0.6306420557716643,2.400158176990226
FIREWOOD SEKUWA PALACE,27.6697901,85.385248,Restaurant,36,17.556655884709777,3,1.2778819059760531,11,4.602170633996034,140,58.068727164076094,48,20.40920131284888,0.8753178214338793,2.398926165656491
Aankhijhyal Restaurant and Lounge,27.6773192,85.3984238,Bar,38,19.312032734199633,42,15.503630978111751,50,21.03819604368424,128,52.74637057851396,50,21.2009137134544,0.6748370656573115,2.3981085657683
Yunisha Bhojanalay and Mo:Mo: Center,27.6730145,85.3859484,Restaurant,42,20.516788891821722,6,2.0143237049817846,12,4.478797178416416,152,63.418340366616526,53,22.37029153804141,0.6418816010661614,2.397451535338698
Global Mo:Mo: and Fastfood Center,27.6730018,85.3856438,Fast food restaurant,44,21.118961816017297,5,1.8268237049622535,12,4.478797178416416,152,63.418340366616526,53,22.37029153804141,0.6306420557716643,2.393662689591397
Chillout Hookah Cafe & Sekuwa Lounge,27.6784898,85.3984238,Restaurant,38,19.312032734199633,39,14.65924440782828,51,21.43218754188867,129,53.09415206250385,48,20.54409001713971,0.6811813017898243,2.3936225433173624
The Natural Kitchen,27.6766409,85.3979901,Restaurant,38,19.312032734199633,41,14.886491987156372,49,20.64046971821224,131,53.83720761812524,53,22.529225832323743,0.6173484952239897,2.3917367876378197
Aveeva Cafe,27.6776861,85.3978895,Restaurant,38,19.312032734199633,40,15.029614778231574,48,20.24719972072997,134,55.26422245467541,50,21.2009137134544,0.6678877412421497,2.3916636269761153
Crossroad khajaghar,27.6778495,85.3834804,Bar,52,25.79133104454871,4,1.623120001225628,11,4.008624925528838,150,62.4293641770807,53,22.28726652266472,0.55053924601816,2.390345406802795
Ghar Tea and Bites Since 2081,27.6729299,85.3863708,Tea house,42,20.455213268065357,6,2.0143237049817846,12,4.478797178416416,150,62.52221876077297,52,22.009180426904834,0.6418816010661614,2.390316275269136
Tamidewa stick food,27.6786489,85.3855453,Restaurant,48,23.976494320260898,4,1.623120001225628,10,3.6690546275004188,157,65.2096071659075,55,23.691985756606346,0.55053924601816,2.3870443211743453
JYUNAAR THAKALI KITCHEN,27.6735505,85.3741698,Family restaurant,41,20.86627740669779,2,0.8125108499600547,9,3.4221855949294655,138,57.266412345004724,54,22.083459565002524,0.8560183674471358,2.3832460900314807
Durbar Cakes,27.6777134,85.399273,Bakery,38,19.312032734199633,43,15.912056576684149,51,21.43218754188867,123,50.44588521442814,46,19.93675180951641,0.7021569840726396,2.3818340743523874
Naan house,27.6755324,85.3977585,Indian restaurant,37,18.740549632449202,40,14.426653574386066,50,21.10711484192148,131,53.95713300955049,56,23.841887670300093,0.6173484952239897,2.381715192895359
Aarati Restaurant,27.6754327,85.3979407,Restaurant,38,19.312032734199633,42,14.786790026653403,50,21.10711484192148,129,53.152017755706204,56,23.841887670300093,0.6173484952239897,2.3805065149949143
The Moon Restaurant,27.6718046,85.3843867,Restaurant,45,21.642240764711197,4,1.623120001225628,11,4.008624925528838,153,63.70795387925071,54,22.81798119639956,0.660205619507009,2.3766423973382844
RAJ GANESH CAFE AND KHAJA GHAR,27.6773662,85.3855139,Restaurant,50,24.806209483865775,4,1.623120001225628,12,4.478797178416416,155,64.6447463057372,56,23.929510898992,0.5,2.3748012568893144
Ranjeet Chatpate Panipuri,27.674505,85.3873503,Fast food restaurant,42,20.455213268065357,8,2.9393808195264755,14,5.6892838944553,150,62.78881631928694,52,22.038692485145738,0.6173484952239897,2.374105520589517
जोशी म:म: सेन्टर,27.6760932,85.3981691,Restaurant,38,19.312032734199633,41,14.886491987156372,50,21.10711484192148,130,53.54203340938325,54,22.766750974709396,0.6010784920363198,2.373899377407373
Thimi burger house and crunchy fried chicken,27.6718921,85.3855725,Restaurant,43,20.756411533337328,5,1.8268237049622535,12,4.478797178416416,151,62.892257594927585,53,22.582191371925298,0.6306420557716643,2.373829749166706
Food juction,27.6773798,85.3832487,Family restaurant,50,24.41228136586426,4,1.623120001225628,11,4.008624925528838,150,62.4293641770807,53,22.28726652266472,0.5801028097535045,2.3708250135622584
Baleshi Food Hub,27.6774375,85.3978125,Restaurant,38,19.312032734199633,40,15.029614778231574,48,20.24719972072997,134,55.18034009203081,50,21.2009137134544,0.6418816010661614,2.3690288487967073
Kuncha Pasal,27.6828118,85.3859487,Restaurant,42,20.938047227962436,4,1.623120001225628,10,3.6690546275004188,144,59.473184385855674,48,20.526955515386568,0.8020872205731703,2.3678932105536683
महिम क्याफे,27.680051,85.386488,Cafe,45,22.574923153008946,5,1.9897866679222946,11,4.057943516435604,154,63.97393607559958,53,22.84873772230799,0.6010784920363198,2.3677099237719443
Suku Lasa Bhoye Chhen & Sekuwa,27.6776624,85.3963624,Family restaurant,40,20.504185985760266,33,12.206887637578042,40,17.228976214033015,142,58.78100327239029,53,22.53980784291365,0.6010784920363198,2.3674155704680295
Dhungro Lekali Kitchen,27.6735106,85.3854431,Fast food restaurant,45,21.738724445550602,4,1.623120001225628,12,4.478797178416416,154,64.22407859366524,55,23.011056528213935,0.5801028097535045,2.3667740686620666
Tasty mo mo center,27.6804904,85.3859317,Restaurant,46,23.12751468136753,4,1.623120001225628,10,3.6690546275004188,153,63.52923037973116,52,22.479038666879923,0.6010784920363198,2.365368724859273
Chiya guff,27.6765533,85.3773701,Coffee shop,48,23.883935464718462,2,0.8099228582392453,10,3.729308810431845,158,65.13245647128215,55,22.59165738508107,0.7021569840726396,2.363530528189137
Makai Ghar Sekuwa Palace,27.6769375,85.3986406,Restaurant,38,19.312032734199633,42,15.503630978111751,50,21.03819604368424,127,52.289568412267364,50,21.31707025941448,0.6418816010661614,2.362613083727924
90's Cafe,27.6742191,85.3899348,Coffee shop,34,16.69009264588544,15,5.170755095625143,19,7.979482045079512,150,62.52465720967367,51,21.428060298455293,0.7375566793086629,2.3621118512787165
Mama Bhanja Fast Food,27.6775481,85.3985095,Restaurant,38,19.312032734199633,42,15.503630978111751,50,21.03819604368424,127,52.35748168957877,49,20.89131223937524,0.6516177380544796,2.3612034857770263
Syanko Katti Roll,27.67545,85.3980694,Restaurant,37,19.011004506436755,42,14.786790026653403,51,21.57809762370201,128,52.64991353967717,56,23.841887670300093,0.6010784920363198,2.3584023046247395
Om Newari Khaja Ghar,27.6800629,85.386673,Restaurant,45,22.574923153008946,5,1.9897866679222946,11,4.057943516435604,154,63.97500445166894,53,22.84873772230799,0.6010784920363198,2.3574232852424424
Jiwan Dairy and Coffee Shop,27.674399,85.3803331,Coffee shop,44,21.656953336998765,3,1.150433017007727,10,3.729308810431845,162,66.86100218717705,57,23.44386570254933,0.7021569840726396,2.3571622814759463
Sarkar Newa Khaja Ghar,27.6802712,85.3858719,Restaurant,47,23.737100380861015,4,1.623120001225628,10,3.6690546275004188,154,63.87843672895262,52,22.479038666879923,0.5801028097535045,2.3552663489812344
Ta Nani Cafe,27.677763,85.385635,Coffee shop,48,23.976494320260898,4,1.623120001225628,11,4.008624925528838,157,65.34939967709279,56,23.929510898992,0.5,2.355052702990819
Coffee Corner,27.6826986,85.3871536,Coffee shop,39,19.564337993977038,4,1.5251019049326242,11,4.057943516435604,146,60.434824986580985,45,19.213730172173264,0.8407086585490307,2.355042444393641
Vintage Tea House,27.6815247,85.386297,Cafe,43,21.264854118599953,5,1.9897866679222946,10,3.6690546275004188,152,63.23690921351229,50,21.49232818812986,0.6974513049774942,2.3544898913532117
Aaunus khanus tass and sekuwa,27.6773125,85.3979531,Restaurant,38,19.312032734199633,41,15.317356468289375,49,20.64046971821224,131,53.88359028704291,50,21.2009137134544,0.6173484952239897,2.3523973682763373
Shreya Newari Khaja Ghar,27.674057,85.4421886,Family restaurant,37,17.26042500090311,103,33.35417286353469,88,37.71203735776294,206,86.72894395506665,86,34.75128019637076,0.55053924601816,2.3512088713461434
Universal Star Foodland,27.6740956,85.3747591,Restaurant,42,21.26607106655829,3,1.1577489452096297,9,3.4221855949294655,150,62.37223589447661,58,23.889051299382277,0.7775541147309986,2.3500936265217702
Samsara Restro,27.6692896,85.3859474,Fast food restaurant,35,17.033376936015877,4,1.4815856097126785,11,4.493542995416217,139,57.83301486080401,46,19.433210417712576,0.8952259484875396,2.349963458166058
GLOS CAFE & RESTRO,27.677704,85.3977069,Restaurant,38,19.312032734199633,40,15.029614778231574,46,19.24966180031224,136,56.326818753519184,49,20.83054334305111,0.6173484952239897,2.349381683203906
Shandar Momo - Gatthaghar (शानदार मःमः),27.673639,85.3734622,Dumpling restaurant,40,20.565249178934913,2,0.8125108499600547,9,3.4221855949294655,130,53.83583070823438,50,20.40408052240357,0.8736021488741454,2.348062066568547
Indrayani Hub,27.6782144,85.3856289,Fast food restaurant,48,23.976494320260898,4,1.623120001225628,10,3.6690546275004188,158,65.73948915973051,55,23.691985756606346,0.5,2.347324686918433
6/9 Khaja Ghar,27.6784061,85.3863721,Fast food restaurant,48,23.976494320260898,5,1.9897866679222946,12,4.528115769323183,156,64.75877354258694,55,23.691985756606346,0.5,2.3459087853305993
Aaylaa Garden Resturant,27.6768247,85.3752789,Restaurant,45,22.75532242978517,2,0.8099228582392453,11,4.189874375306491,154,63.60238410177966,50,20.382717077738693,0.7526962300907996,2.341041879728624
