[
  {
    "title": "The Street Coffee House",
    "price": null,
    "categoryName": "Coffee store",
    "address": "Sahid Smriti Khel, Maidan 44800, Nepal",
    "neighborhood": null,
    "street": "Sahid Smriti Khel",
    "city": "Maidan",
    "postalCode": null,
    "state": null,
    "countryCode": "NP",
    "phone": "+977 984-3530107",
    "phoneUnformatted": "+9779843530107",
    "claimThisBusiness": false,
    "location": {
      "lat": 27.674435,
      "lng": 85.4229588
    },
    "totalScore": 5,
    "permanentlyClosed": false,
    "temporarilyClosed": false,
    "placeId": "ChIJMZ5GOIEb6zkRQohYt783S_E",
    "categories": [
      "Coffee store"
    ],
    "fid": "0x39eb1b8138469e31:0xf14b37bfb7588842",
    "cid": "17387052082948245570",
    "reviewsCount": 23,
    "imagesCount": 14,
    "imageCategories": [],
    "scrapedAt": "2025-11-14T07:37:40.289Z",
    "googleFoodUrl": null,
    "hotelAds": [],
    "openingHours": [
      {
        "day": "Monday",
        "hours": "6 AM to 9 PM"
      },
      {
        "day": "Tuesday",
        "hours": "6 AM to 9 PM"
      },
      {
        "day": "Wednesday",
        "hours": "6 AM to 9 PM"
      },
      {
        "day": "Thursday",
        "hours": "6 AM to 9 PM"
      },
      {
        "day": "Friday",
        "hours": "6 AM to 9 PM"
      },
      {
        "day": "Saturday",
        "hours": "6 AM to 9 PM"
      },
      {
        "day": "Sunday",
        "hours": "6 AM to 9 PM"
      }
    ],
    "peopleAlsoSearch": [],
    "placesTags": [],
    "reviewsTags": [],
    "additionalInfo": {
      "Service options": [
        {
          "Takeout": true
        },
        {
          "Dine-in": true
        }
      ],
      "Planning": [
        {
          "Quick visit": true
        }
      ],
      "Payments": [
        {
          "NFC mobile payments": true
        }
      ]
    },
    "gasPrices": [],
    "url": "https://www.google.com/maps/search/?api=1&query=The%20Street%20Coffee%20House&query_place_id=ChIJMZ5GOIEb6zkRQohYt783S_E",
    "searchPageUrl": "https://www.google.com/maps/search/coffee%20store/@27.67530454090198,85.41290913650586,17z?hl=en",
    "searchString": "coffee store",
    "language": "en",
    "rank": 3,
    "isAdvertisement": false,
    "imageUrl": "https://lh3.googleusercontent.com/gps-cs-s/AG0ilSwGwf4UgNYFzBTx9eSS10iobq5kifqNN-IH6Ay1tPsZc6GJYhSuDMm9TVz1XUHk5HXOfDMQotvYewIkbu2YFdlX48DP3L5I4Pvj-ywb_jdhCqOuMCh2Nni3F1lmne2HXUkVf3s_=w408-h306-k-no",
    "kgmid": "/g/11h6m5dx2w"
  },
  {
    "title": "Refesh Coffee House and Bakery",
    "price": null,
    "categoryName": "Coffee store",
    "address": "Araniko Highway, Suryabinayak 44800, Nepal",
    "neighborhood": "Katunje",
    "street": "Araniko Highway",
    "city": "Suryabinayak",
    "postalCode": "44800",
    "state": null,
    "countryCode": "NP",
    "claimThisBusiness": true,
    "location": {
      "lat": 27.6700433,
      "lng": 85.4101231
    },
    "totalScore": 5,
    "permanentlyClosed": false,
    "temporarilyClosed": false,
    "placeId": "ChIJ36SHo_Ib6zkRNjhangY36pA",
    "categories": [
      "Coffee store"
    ],
    "fid": "0x39eb1bf2a387a4df:0x90ea37069e5a3836",
    "cid": "10442219187577960502",
    "reviewsCount": 1,
    "imagesCount": 2,
    "imageCategories": [],
    "scrapedAt": "2025-11-14T07:37:40.289Z",
    "googleFoodUrl": null,
    "hotelAds": [],
    "openingHours": [
      {
        "day": "Monday",
        "hours": "6 AM to 8:30 PM"
      },
      {
        "day": "Tuesday",
        "hours": "6 AM to 8:30 PM"
      },
      {
        "day": "Wednesday",
        "hours": "6 AM to 8:30 PM"
      },
      {
        "day": "Thursday",
        "hours": "6 AM to 8:30 PM"
      },
      {
        "day": "Friday",
        "hours": "6 AM to 8:30 PM"
      },
      {
        "day": "Saturday",
        "hours": "6 AM to 8:30 PM"
      },
      {
        "day": "Sunday",
        "hours": "6 AM to 8:30 PM"
      }
    ],
    "peopleAlsoSearch": [],
    "placesTags": [],
    "reviewsTags": [],
    "additionalInfo": {
      "Service options": [
        {
          "Takeout": true
        }
      ],
      "Planning": [
        {
          "Quick visit": true
        }
      ]
    },
    "gasPrices": [],
    "url": "https://www.google.com/maps/search/?api=1&query=Refesh%20Coffee%20House%20and%20Bakery&query_place_id=ChIJ36SHo_Ib6zkRNjhangY36pA",
    "searchPageUrl": "https://www.google.com/maps/search/coffee%20store/@27.67530454090198,85.41290913650586,17z?hl=en",
    "searchString": "coffee store",
    "language": "en",
    "rank": 4,
    "isAdvertisement": false,
    "imageUrl": "https://lh3.googleusercontent.com/gps-cs-s/AG0ilSwRFdv4rRggG-40v38zelBZNVwnu89sPuQ8zhneDctpjm6XG6vW5FGEuwwKn0J1lEgC_rPBhyUzC4bHkxdXTnnVElS_XvZNNxFpOkGFx9qpptFIyZUuq5JdEKlJ_XHFI--r8Uf_Jw=w426-h240-k-no",
    "kgmid": "/g/11lgwq2nxz"
  },
  {
    "title": "K2 Coffee (Nepali Arabica Coffee Supplier)",
    "price": null,
    "categoryName": "Coffee store",
    "address": "Adrasha Road, Bhaktapur 44800, Nepal",
    "neighborhood": "Dagacha",
    "street": "Adrasha Road",
    "city": "Bhaktapur",
    "postalCode": "44800",
    "state": null,
    "countryCode": "NP",
    "phone": "+977 976-1808157",
    "phoneUnformatted": "+9779761808157",
    "claimThisBusiness": false,
    "location": {
      "lat": 27.6642212,
      "lng": 85.4337559
    },
    "totalScore": 5,
    "permanentlyClosed": false,
    "temporarilyClosed": false,
    "placeId": "ChIJb33GOs0b6zkRkNmcffL6M1M",
    "categories": [
      "Coffee store"
    ],
    "fid": "0x39eb1bcd3ac67d6f:0x5333faf27d9cd990",
    "cid": "5995411448356723088",
    "reviewsCount": 1,
    "imagesCount": 1,
    "imageCategories": [],
    "scrapedAt": "2025-11-14T07:38:08.874Z",
    "googleFoodUrl": null,
    "hotelAds": [],
    "openingHours": [],
    "peopleAlsoSearch": [],
    "placesTags": [],
    "reviewsTags": [],
    "gasPrices": [],
    "url": "https://www.google.com/maps/search/?api=1&query=K2%20Coffee%20(Nepali%20Arabica%20Coffee%20Supplier)&query_place_id=ChIJb33GOs0b6zkRkNmcffL6M1M",
    "searchPageUrl": "https://www.google.com/maps/search/coffee%20store/@27.660086377294068,85.43009086349416,17z?hl=en",
    "searchString": "coffee store",
    "language": "en",
    "rank": 3,
    "isAdvertisement": false,
    "imageUrl": "https://streetviewpixels-pa.googleapis.com/v1/thumbnail?panoid=dNO0cMbR_A_8GAK_bBSKqA&cb_client=search.gws-prod.gps&w=408&h=240&yaw=53.97679&pitch=0&thumbfov=100",
    "kgmid": "/g/11whzt0wdg"
  },
  {
    "title": "Everest Bakery's Coffee Shop",
    "subTitle": "सगरमाथा बेकरी गरेको कफी पसल",
    "price": null,
    "categoryName": "Coffee store",
    "address": "भक्तपुर, Suryabinayak 44800, Nepal",
    "neighborhood": "Katunje",
    "street": "भक्तपुर",
    "city": "Suryabinayak",
    "postalCode": "44800",
    "state": null,
    "countryCode": "NP",
    "phone": "+977 984-9209304",
    "phoneUnformatted": "+9779849209304",
    "claimThisBusiness": false,
    "location": {
      "lat": 27.6654263,
      "lng": 85.4247885
    },
    "totalScore": 4.1,
    "permanentlyClosed": false,
    "temporarilyClosed": false,
    "placeId": "ChIJz6mCUa4a6zkRwHYuWucYHP0",
    "categories": [
      "Coffee store"
    ],
    "fid": "0x39eb1aae5182a9cf:0xfd1c18e75a2e76c0",
    "cid": "18238479972873172672",
    "reviewsCount": 7,
    "imagesCount": 5,
    "imageCategories": [],
    "scrapedAt": "2025-11-14T07:38:08.874Z",
    "googleFoodUrl": null,
    "hotelAds": [],
    "openingHours": [
      {
        "day": "Monday",
        "hours": "7 AM to 8 PM"
      },
      {
        "day": "Tuesday",
        "hours": "7 AM to 8 PM"
      },
      {
        "day": "Wednesday",
        "hours": "7 AM to 8 PM"
      },
      {
        "day": "Thursday",
        "hours": "7 AM to 8 PM"
      },
      {
        "day": "Friday",
        "hours": "7 AM to 8 PM"
      },
      {
        "day": "Saturday",
        "hours": "7 AM to 8 PM"
      },
      {
        "day": "Sunday",
        "hours": "7 AM to 8 PM"
      }
    ],
    "peopleAlsoSearch": [],
    "placesTags": [],
    "reviewsTags": [],
    "additionalInfo": {
      "Service options": [
        {
          "No-contact delivery": true
        },
        {
          "Delivery": true
        },
        {
          "In-store pickup": true
        },
        {
          "In-store shopping": true
        },
        {
          "Takeout": true
        }
      ],
      "Amenities": [
        {
          "Wi-Fi": true
        },
        {
          "Free Wi-Fi": true
        }
      ],
      "Payments": [
        {
          "Debit cards": true
        },
        {
          "NFC mobile payments": true
        },
        {
          "Credit cards": true
        }
      ]
    },
    "gasPrices": [],
    "url": "https://www.google.com/maps/search/?api=1&query=Everest%20Bakery's%20Coffee%20Shop&query_place_id=ChIJz6mCUa4a6zkRwHYuWucYHP0",
    "searchPageUrl": "https://www.google.com/maps/search/coffee%20store/@27.660086377294068,85.43009086349416,17z?hl=en",
    "searchString": "coffee store",
    "language": "en",
    "rank": 14,
    "isAdvertisement": false,
    "imageUrl": "https://lh3.googleusercontent.com/gps-cs-s/AG0ilSzLPUlQDux8S_M8qNeBCrFM1PBCvk9WruuJf1yaUSB5suAuri67avj7H3tPYzdPlR5qtKxIvrawuzJ7J8-VRUJIv_5LyvzVBdPuVfmVs_T6xk_QlL3w_xio6XI3x8DzZClJvi0k=w408-h582-k-no",
    "kgmid": "/g/11dftnyh_k"
  },
  {
    "title": "GK Coffee Cold Store",
    "price": null,
    "categoryName": "Coffee store",
    "address": "MC9P+342, Bhaktapur 44800, Nepal",
    "neighborhood": null,
    "street": "MC9P+342",
    "city": "Bhaktapur",
    "postalCode": "44800",
    "state": null,
    "countryCode": "NP",
    "claimThisBusiness": true,
    "location": {
      "lat": 27.6676471,
      "lng": 85.4352535
    },
    "totalScore": 4.4,
    "permanentlyClosed": false,
    "temporarilyClosed": false,
    "placeId": "ChIJUbyUeasa6zkRjr4bZU3JEEA",
    "categories": [
      "Coffee store",
      "Grocery store"
    ],
    "fid": "0x39eb1aab7994bc51:0x4010c94d651bbe8e",
    "cid": "4616410952300740238",
    "reviewsCount": 16,
    "imagesCount": 6,
    "imageCategories": [],
    "scrapedAt": "2025-11-14T07:38:08.875Z",
    "googleFoodUrl": null,
    "hotelAds": [],
    "openingHours": [
      {
        "day": "Monday",
        "hours": "7 AM to 8 PM"
      },
      {
        "day": "Tuesday",
        "hours": "7 AM to 8 PM"
      },
      {
        "day": "Wednesday",
        "hours": "7 AM to 8 PM"
      },
      {
        "day": "Thursday",
        "hours": "7 AM to 8 PM"
      },
      {
        "day": "Friday",
        "hours": "7 AM to 8 PM"
      },
      {
        "day": "Saturday",
        "hours": "7 AM to 8 PM"
      },
      {
        "day": "Sunday",
        "hours": "7 AM to 8 PM"
      }
    ],
    "peopleAlsoSearch": [],
    "placesTags": [],
    "reviewsTags": [],
    "additionalInfo": {
      "Highlights": [
        {
          "Great produce": true
        }
      ],
      "Planning": [
        {
          "Quick visit": true
        }
      ],
      "Payments": [
        {
          "Cash-only": true
        }
      ]
    },
    "gasPrices": [],
    "url": "https://www.google.com/maps/search/?api=1&query=GK%20Coffee%20Cold%20Store&query_place_id=ChIJUbyUeasa6zkRjr4bZU3JEEA",
    "searchPageUrl": "https://www.google.com/maps/search/coffee%20store/@27.660086377294068,85.43009086349416,17z?hl=en",
    "searchString": "coffee store",
    "language": "en",
    "rank": 17,
    "isAdvertisement": false,
    "imageUrl": "https://lh3.googleusercontent.com/gps-cs-s/AG0ilSwfQ7EQ1KWMVr8T0yoI0lUlUu86VbrFnXxXoh5V6SQJj4kzg9WFfJTGqnrv3MkivelH7K6U8UHoNFaP2HWQbM1SmQwo5yGHAWdTQ47AHOMEZY8tX0uggrMC_jNM9SCqM9IiqHoIIw=w426-h240-k-no",
    "kgmid": "/g/11b6p2g3ng"
  },
  {
    "title": "Pratikshya kirana pasal",
    "price": null,
    "categoryName": "Coffee store",
    "address": "Bhaktapur 44800, Nepal",
    "neighborhood": "Tathali",
    "street": null,
    "city": "Bhaktapur",
    "postalCode": null,
    "state": null,
    "countryCode": "NP",
    "phone": "+977 984-3610791",
    "phoneUnformatted": "+9779843610791",
    "claimThisBusiness": false,
    "location": {
      "lat": 27.666451,
      "lng": 85.4466941
    },
    "permanentlyClosed": false,
    "temporarilyClosed": false,
    "placeId": "ChIJK8IvD_MF6zkR6ua1fqnWwNc",
    "categories": [
      "Coffee store"
    ],
    "fid": "0x39eb05f30f2fc22b:0xd7c0d6a97eb5e6ea",
    "cid": "15546661937146619626",
    "reviewsCount": 0,
    "imagesCount": 3,
    "imageCategories": [],
    "scrapedAt": "2025-11-14T07:53:27.084Z",
    "googleFoodUrl": null,
    "hotelAds": [],
    "openingHours": [
      {
        "day": "Monday",
        "hours": "6 to 9 AM"
      },
      {
        "day": "Tuesday",
        "hours": "6 to 9 AM"
      },
      {
        "day": "Wednesday",
        "hours": "6 AM to 9 PM"
      },
      {
        "day": "Thursday",
        "hours": "6 to 9 AM"
      },
      {
        "day": "Friday",
        "hours": "6 to 9 AM"
      },
      {
        "day": "Saturday",
        "hours": "6 to 9 AM"
      },
      {
        "day": "Sunday",
        "hours": "6 to 9 AM"
      }
    ],
    "peopleAlsoSearch": [],
    "placesTags": [],
    "reviewsTags": [],
    "gasPrices": [],
    "url": "https://www.google.com/maps/search/?api=1&query=Pratikshya%20kirana%20pasal&query_place_id=ChIJK8IvD_MF6zkR6ua1fqnWwNc",
    "searchPageUrl": "https://www.google.com/maps/search/coffee%20store/@27.666993023382226,85.44775980735567,17z?hl=en",
    "searchString": "coffee store",
    "language": "en",
    "rank": 21,
    "isAdvertisement": false,
    "imageUrl": "https://lh3.googleusercontent.com/p/AF1QipN0Q2XQo1e7QW5aJwI8FPk52jjmC-XuroYVgslM=w408-h306-k-no",
    "kgmid": "/g/11x8c2hr8f"
  },
  {
    "title": "Urmi Coffee Shop",
    "price": null,
    "categoryName": "Coffee store",
    "address": "M9GX+X94, Radhe radhe Road, Madhyapur Thimi, Nepal",
    "neighborhood": null,
    "street": "M9GX+X94, Radhe radhe Road",
    "city": "Madhyapur Thimi",
    "postalCode": null,
    "state": null,
    "countryCode": "NP",
    "claimThisBusiness": true,
    "location": {
      "lat": 27.6773786,
      "lng": 85.3984431
    },
    "totalScore": 4.5,
    "permanentlyClosed": false,
    "temporarilyClosed": false,
    "placeId": "ChIJmQ2pXXIb6zkRyw9cPpMoZEU",
    "categories": [
      "Coffee store"
    ],
    "fid": "0x39eb1b725da90d99:0x456428933e5c0fcb",
    "cid": "5000166099159617483",
    "reviewsCount": 77,
    "imagesCount": 46,
    "imageCategories": [],
    "scrapedAt": "2025-11-14T09:51:26.011Z",
    "googleFoodUrl": null,
    "hotelAds": [],
    "openingHours": [],
    "peopleAlsoSearch": [],
    "placesTags": [],
    "reviewsTags": [],
    "additionalInfo": {
      "Service options": [
        {
          "Takeout": true
        },
        {
          "Dine-in": true
        }
      ]
    },
    "gasPrices": [],
    "url": "https://www.google.com/maps/search/?api=1&query=Urmi%20Coffee%20Shop&query_place_id=ChIJmQ2pXXIb6zkRyw9cPpMoZEU",
    "searchPageUrl": "https://www.google.com/maps/search/coffee%20shop/@27.64207399075676,85.43967040879893,17z?hl=en",
    "searchString": "coffee shop",
    "language": "en",
    "rank": 18,
    "isAdvertisement": false,
    "imageUrl": "https://lh3.googleusercontent.com/gps-cs-s/AG0ilSz-IeS55oqnFQKv2drjBN7s_AD3EUXCy6KqMeFZZ6dai9JnM-_m48cyAVLnpyw_fdOhvjexp3sKathWKt5ziQCyWldGatMEr3oPQH_zjDmtvWxdJL2XGEdUCMzGM8izsym64cqvww=w408-h407-k-no",
    "kgmid": "/g/11j2nly1bb"
  },
  {
    "title": "Everest Bakery's Coffee Shop",
    "subTitle": "सगरमाथा बेकरी गरेको कफी पसल",
    "price": null,
    "categoryName": "Coffee store",
    "address": "भक्तपुर, Suryabinayak 44800, Nepal",
    "neighborhood": "Katunje",
    "street": "भक्तपुर",
    "city": "Suryabinayak",
    "postalCode": "44800",
    "state": null,
    "countryCode": "NP",
    "phone": "+977 984-9209304",
    "phoneUnformatted": "+9779849209304",
    "claimThisBusiness": false,
    "location": {
      "lat": 27.6654263,
      "lng": 85.4247885
    },
    "totalScore": 4.1,
    "permanentlyClosed": false,
    "temporarilyClosed": false,
    "placeId": "ChIJz6mCUa4a6zkRwHYuWucYHP0",
    "categories": [
      "Coffee store"
    ],
    "fid": "0x39eb1aae5182a9cf:0xfd1c18e75a2e76c0",
    "cid": "18238479972873172672",
    "reviewsCount": 7,
    "imagesCount": 5,
    "imageCategories": [],
    "scrapedAt": "2025-11-14T09:52:22.074Z",
    "googleFoodUrl": null,
    "hotelAds": [],
    "openingHours": [
      {
        "day": "Monday",
        "hours": "7 AM to 8 PM"
      },
      {
        "day": "Tuesday",
        "hours": "7 AM to 8 PM"
      },
      {
        "day": "Wednesday",
        "hours": "7 AM to 8 PM"
      },
      {
        "day": "Thursday",
        "hours": "7 AM to 8 PM"
      },
      {
        "day": "Friday",
        "hours": "7 AM to 8 PM"
      },
      {
        "day": "Saturday",
        "hours": "7 AM to 8 PM"
      },
      {
        "day": "Sunday",
        "hours": "7 AM to 8 PM"
      }
    ],
    "peopleAlsoSearch": [],
    "placesTags": [],
    "reviewsTags": [],
    "additionalInfo": {
      "Service options": [
        {
          "No-contact delivery": true
        },
        {
          "Delivery": true
        },
        {
          "In-store pickup": true
        },
        {
          "In-store shopping": true
        },
        {
          "Takeout": true
        }
      ],
      "Amenities": [
        {
          "Wi-Fi": true
        },
        {
          "Free Wi-Fi": true
        }
      ],
      "Payments": [
        {
          "Debit cards": true
        },
        {
          "NFC mobile payments": true
        },
        {
          "Credit cards": true
        }
      ]
    },
    "gasPrices": [],
    "url": "https://www.google.com/maps/search/?api=1&query=Everest%20Bakery's%20Coffee%20Shop&query_place_id=ChIJz6mCUa4a6zkRwHYuWucYHP0",
    "searchPageUrl": "https://www.google.com/maps/search/bakery/@27.672500000000003,85.42249999999997,17z?hl=en",
    "searchString": "bakery",
    "language": "en",
    "rank": 16,
    "isAdvertisement": false,
    "imageUrl": "https://lh3.googleusercontent.com/gps-cs-s/AG0ilSz18e05vvXsIqgZjRtM0iq2rhAEGUk-IVEhSppjgaNw3hxUlGiKhKITRzq3J8V7ty7ejEeVoxeN5PLhTrT73ypU8scmknkgEqKYJ30dOb5jb3pOLgVBQ2GgOfG_5tpvblQ6cC0ncA=w408-h306-k-no",
    "kgmid": "/g/11dftnyh_k"
  },
  {
    "title": "Readers Hub",
    "price": null,
    "categoryName": "Coffee store",
    "address": "F091, Madhyapur Thimi 44602, Nepal",
    "neighborhood": "Kausaltar",
    "street": "F091",
    "city": "Madhyapur Thimi",
    "postalCode": "44602",
    "state": null,
    "countryCode": "NP",
    "website": "https://readershub.com.np/",
    "phone": "+977 986-6883944",
    "phoneUnformatted": "+9779866883944",
    "claimThisBusiness": false,
    "location": {
      "lat": 27.6745681,
      "lng": 85.3671589
    },
    "totalScore": 4.3,
    "permanentlyClosed": false,
    "temporarilyClosed": false,
    "placeId": "ChIJYwpQX5AR6zkRVOodLYzcwVc",
    "categories": [
      "Coffee store",
      "Bakery",
      "Cafe",
      "Coffee shop",
      "Coworking space",
      "Event venue"
    ],
    "fid": "0x39eb11905f500a63:0x57c1dc8c2d1dea54",
    "cid": "6323577846415354452",
    "reviewsCount": 300,
    "imagesCount": 286,
    "imageCategories": [],
    "scrapedAt": "2025-11-14T09:52:46.281Z",
    "googleFoodUrl": null,
    "hotelAds": [],
    "openingHours": [
      {
        "day": "Monday",
        "hours": "7 AM to 8:30 PM"
      },
      {
        "day": "Tuesday",
        "hours": "7 AM to 8:30 PM"
      },
      {
        "day": "Wednesday",
        "hours": "7 AM to 8:30 PM"
      },
      {
        "day": "Thursday",
        "hours": "7 AM to 8:30 PM"
      },
      {
        "day": "Friday",
        "hours": "7 AM to 8:30 PM"
      },
      {
        "day": "Saturday",
        "hours": "7 AM to 8:30 PM"
      },
      {
        "day": "Sunday",
        "hours": "7 AM to 8:30 PM"
      }
    ],
    "peopleAlsoSearch": [],
    "placesTags": [],
    "reviewsTags": [],
    "additionalInfo": {
      "Service options": [
        {
          "Outdoor seating": true
        },
        {
          "Takeout": true
        },
        {
          "Dine-in": true
        }
      ],
      "Highlights": [
        {
          "Great coffee": true
        },
        {
          "Great dessert": true
        },
        {
          "Great tea selection": true
        }
      ],
      "Popular for": [
        {
          "Breakfast": true
        },
        {
          "Solo dining": true
        },
        {
          "Good for working on laptop": true
        }
      ],
      "Accessibility": [
        {
          "Wheelchair accessible entrance": false
        },
        {
          "Wheelchair accessible seating": false
        }
      ],
      "Offerings": [
        {
          "Coffee": true
        },
        {
          "Quick bite": true
        },
        {
          "Small plates": true
        }
      ],
      "Dining options": [
        {
          "Breakfast": true
        },
        {
          "Lunch": true
        },
        {
          "Dessert": true
        },
        {
          "Seating": true
        },
        {
          "Table service": true
        }
      ],
      "Amenities": [
        {
          "Restroom": true
        }
      ],
      "Atmosphere": [
        {
          "Casual": true
        },
        {
          "Cozy": true
        },
        {
          "Quiet": true
        },
        {
          "Trendy": true
        }
      ],
      "Crowd": [
        {
          "College students": true
        },
        {
          "Groups": true
        }
      ],
      "Planning": [
        {
          "Accepts reservations": true
        }
      ],
      "Payments": [
        {
          "Credit cards": true
        },
        {
          "Debit cards": true
        },
        {
          "NFC mobile payments": true
        }
      ],
      "Children": [
        {
          "Good for kids": true
        }
      ],
      "Parking": [
        {
          "Free parking lot": true
        },
        {
          "Free street parking": true
        },
        {
          "Usually plenty of parking": true
        }
      ]
    },
    "gasPrices": [],
    "url": "https://www.google.com/maps/search/?api=1&query=Readers%20Hub&query_place_id=ChIJYwpQX5AR6zkRVOodLYzcwVc",
    "searchPageUrl": "https://www.google.com/maps/search/coffee%20store/@27.664893497689192,85.37957397800257,17z?hl=en",
    "searchString": "coffee store",
    "language": "en",
    "rank": 20,
    "isAdvertisement": false,
    "imageUrl": "https://lh3.googleusercontent.com/p/AF1QipPQqrafinc-gdkwjyRKg3NqEP-pCBKaek4QL1rI=w408-h306-k-no",
    "kgmid": "/g/11r7l7l0hc"
  },
  {
    "title": "Special coffee shop and khaja ghar",
    "price": null,
    "categoryName": "Coffee store",
    "address": "M9F8+JGW, Madhyapur Thimi 44600, Nepal",
    "neighborhood": "Kausaltar",
    "street": "M9F8+JGW",
    "city": "Madhyapur Thimi",
    "postalCode": "44600",
    "state": null,
    "countryCode": "NP",
    "claimThisBusiness": true,
    "location": {
      "lat": 27.6741193,
      "lng": 85.3663206
    },
    "permanentlyClosed": false,
    "temporarilyClosed": false,
    "placeId": "ChIJS-YZTb8b6zkRNg3FO8tgX0c",
    "categories": [
      "Coffee store"
    ],
    "fid": "0x39eb1bbf4d19e64b:0x475f60cb3bc50d36",
    "cid": "5142935725477793078",
    "reviewsCount": 0,
    "imagesCount": 2,
    "imageCategories": [],
    "scrapedAt": "2025-11-14T09:53:13.600Z",
    "googleFoodUrl": null,
    "hotelAds": [],
    "openingHours": [],
    "peopleAlsoSearch": [],
    "placesTags": [],
    "reviewsTags": [],
    "additionalInfo": {
      "Service options": [
        {
          "Takeout": true
        }
      ]
    },
    "gasPrices": [],
    "url": "https://www.google.com/maps/search/?api=1&query=Special%20coffee%20shop%20and%20khaja%20ghar&query_place_id=ChIJS-YZTb8b6zkRNg3FO8tgX0c",
    "searchPageUrl": "https://www.google.com/maps/search/coffee%20store/@27.672500000000003,85.37098877360309,17z?hl=en",
    "searchString": "coffee store",
    "language": "en",
    "rank": 17,
    "isAdvertisement": false,
    "imageUrl": "https://lh3.googleusercontent.com/gps-cs-s/AG0ilSwzCJ8ob-xVmqLE5XsfNa-55nLLxVv5RIJwPSjl-Z6mQP45uVbXr8-0IAyqcCeAxa55sGZCHwnCprGpjFYXur85AKj1L7ZOcvQmODfWRa7a_6fWpIfz7SXgEvhsVRDpk5x1DfoA=w408-h725-k-no",
    "kgmid": "/g/11hspm80f8"
  },
  {
    "title": "Pratikshya kirana pasal",
    "price": null,
    "categoryName": "Coffee store",
    "address": "Bhaktapur 44800, Nepal",
    "neighborhood": "Tathali",
    "street": null,
    "city": "Bhaktapur",
    "postalCode": null,
    "state": null,
    "countryCode": "NP",
    "phone": "+977 984-3610791",
    "phoneUnformatted": "+9779843610791",
    "claimThisBusiness": false,
    "location": {
      "lat": 27.666451,
      "lng": 85.4466941
    },
    "permanentlyClosed": false,
    "temporarilyClosed": false,
    "placeId": "ChIJK8IvD_MF6zkR6ua1fqnWwNc",
    "categories": [
      "Coffee store"
    ],
    "fid": "0x39eb05f30f2fc22b:0xd7c0d6a97eb5e6ea",
    "cid": "15546661937146619626",
    "reviewsCount": 0,
    "imagesCount": 3,
    "imageCategories": [],
    "scrapedAt": "2025-11-14T09:54:32.602Z",
    "googleFoodUrl": null,
    "hotelAds": [],
    "openingHours": [
      {
        "day": "Monday",
        "hours": "6 to 9 AM"
      },
      {
        "day": "Tuesday",
        "hours": "6 to 9 AM"
      },
      {
        "day": "Wednesday",
        "hours": "6 AM to 9 PM"
      },
      {
        "day": "Thursday",
        "hours": "6 to 9 AM"
      },
      {
        "day": "Friday",
        "hours": "6 to 9 AM"
      },
      {
        "day": "Saturday",
        "hours": "6 to 9 AM"
      },
      {
        "day": "Sunday",
        "hours": "6 to 9 AM"
      }
    ],
    "peopleAlsoSearch": [],
    "placesTags": [],
    "reviewsTags": [],
    "gasPrices": [],
    "url": "https://www.google.com/maps/search/?api=1&query=Pratikshya%20kirana%20pasal&query_place_id=ChIJK8IvD_MF6zkR6ua1fqnWwNc",
    "searchPageUrl": "https://www.google.com/maps/search/tea%20store/@27.664893497689192,85.44825561319841,17z?hl=en",
    "searchString": "tea store",
    "language": "en",
    "rank": 22,
    "isAdvertisement": false,
    "imageUrl": "https://lh3.googleusercontent.com/p/AF1QipN0Q2XQo1e7QW5aJwI8FPk52jjmC-XuroYVgslM=w408-h306-k-no",
    "kgmid": "/g/11x8c2hr8f"
  }
]