[
  {
    "title": "Dhanusha Sweet And Chat House",
    "subTitle": "घनुषा एण्ड स्विट एण्ड चाट हाउस",
    "price": null,
    "categoryName": "Dessert shop",
    "address": "M9FP+567, Biruwa Sadak, Madhyapur Thimi 44800, Nepal",
    "neighborhood": null,
    "street": "M9FP+567, Biruwa Sadak",
    "city": "Madhyapur Thimi",
    "postalCode": "44800",
    "state": null,
    "countryCode": "NP",
    "phone": "+977 981-8995680",
    "phoneUnformatted": "+9779818995680",
    "claimThisBusiness": true,
    "location": {
      "lat": 27.672922,
      "lng": 85.38556
    },
    "totalScore": 3.9,
    "permanentlyClosed": false,
    "temporarilyClosed": false,
    "placeId": "ChIJz4br-28a6zkRENO2TGQgDMs",
    "categories": [
      "Dessert shop"
    ],
    "fid": "0x39eb1a6ffbeb86cf:0xcb0c20644cb6d310",
    "cid": "14631104904575767312",
    "reviewsCount": 8,
    "imagesCount": 13,
    "imageCategories": [],
    "scrapedAt": "2025-11-14T09:52:51.640Z",
    "googleFoodUrl": null,
    "hotelAds": [],
    "openingHours": [
      {
        "day": "Monday",
        "hours": "6 AM to 9 PM"
      },
      {
        "day": "Tuesday",
        "hours": "6 AM to 9 PM"
      },
      {
        "day": "Wednesday",
        "hours": "6 AM to 9 PM"
      },
      {
        "day": "Thursday",
        "hours": "6 AM to 9 PM"
      },
      {
        "day": "Friday",
        "hours": "6 AM to 9 PM"
      },
      {
        "day": "Saturday",
        "hours": "6 AM to 9 PM"
      },
      {
        "day": "Sunday",
        "hours": "6 AM to 9 PM"
      }
    ],
    "peopleAlsoSearch": [],
    "placesTags": [],
    "reviewsTags": [],
    "additionalInfo": {
      "Service options": [
        {
          "Takeout": true
        }
      ],
      "Accessibility": [
        {
          "Wheelchair accessible entrance": false
        },
        {
          "Wheelchair accessible parking lot": false
        }
      ]
    },
    "gasPrices": [],
    "url": "https://www.google.com/maps/search/?api=1&query=Dhanusha%20Sweet%20And%20Chat%20House&query_place_id=ChIJz4br-28a6zkRENO2TGQgDMs",
    "searchPageUrl": "https://www.google.com/maps/search/dessert%20shop/@27.664893497689192,85.37957397800257,17z?hl=en",
    "searchString": "dessert shop",
    "language": "en",
    "rank": 12,
    "isAdvertisement": false,
    "imageUrl": "https://lh3.googleusercontent.com/gps-cs-s/AG0ilSyE8cbGL_rXm6_s02pYIywTyU6B1_CNHPLDpx3dPcmxFSqxGi28QhmqmeoKIniC4qPlY7HlDcHq5gBLinAbG9p6Xxdlm0IyxSEQvP9yeTTyq0ZFcZuuP7vEf0LbkzLtKCJE7tHR=w408-h544-k-no",
    "kgmid": "/g/11b6s16mx0"
  },
  {
    "title": "जनकपुरीया स्वीटस्",
    "price": null,
    "categoryName": "Dessert shop",
    "address": "M9F8+W44, कैलाशटार मार्ग, Madhyapur Thimi 44600, Nepal",
    "neighborhood": "Kausaltar",
    "street": "M9F8+W44, कैलाशटार मार्ग",
    "city": "Madhyapur Thimi",
    "postalCode": "44600",
    "state": null,
    "countryCode": "NP",
    "phone": "+977 980-8857169",
    "phoneUnformatted": "+9779808857169",
    "claimThisBusiness": true,
    "location": {
      "lat": 27.6747613,
      "lng": 85.3653239
    },
    "permanentlyClosed": false,
    "temporarilyClosed": false,
    "placeId": "ChIJbQMCgBAa6zkRfUHPvZz15M8",
    "categories": [
      "Dessert shop"
    ],
    "fid": "0x39eb1a108002036d:0xcfe4f59cbdcf417d",
    "cid": "14980368314089292157",
    "reviewsCount": 0,
    "imagesCount": 5,
    "imageCategories": [],
    "scrapedAt": "2025-11-14T09:53:10.880Z",
    "googleFoodUrl": null,
    "hotelAds": [],
    "openingHours": [
      {
        "day": "Monday",
        "hours": "6 AM to 9 PM"
      },
      {
        "day": "Tuesday",
        "hours": "6 AM to 9 PM"
      },
      {
        "day": "Wednesday",
        "hours": "6 AM to 9 PM"
      },
      {
        "day": "Thursday",
        "hours": "6 AM to 9 PM"
      },
      {
        "day": "Friday",
        "hours": "6 AM to 9 PM"
      },
      {
        "day": "Saturday",
        "hours": "6 AM to 9 PM"
      },
      {
        "day": "Sunday",
        "hours": "6 AM to 9 PM"
      }
    ],
    "peopleAlsoSearch": [],
    "placesTags": [],
    "reviewsTags": [],
    "additionalInfo": {
      "Service options": [
        {
          "Takeout": true
        }
      ]
    },
    "gasPrices": [],
    "url": "https://www.google.com/maps/search/?api=1&query=%E0%A4%9C%E0%A4%A8%E0%A4%95%E0%A4%AA%E0%A5%81%E0%A4%B0%E0%A5%80%E0%A4%AF%E0%A4%BE%20%E0%A4%B8%E0%A5%8D%E0%A4%B5%E0%A5%80%E0%A4%9F%E0%A4%B8%E0%A5%8D&query_place_id=ChIJbQMCgBAa6zkRfUHPvZz15M8",
    "searchPageUrl": "https://www.google.com/maps/search/dessert%20shop/@27.664893497689192,85.37098877360309,17z?hl=en",
    "searchString": "dessert shop",
    "language": "en",
    "rank": 15,
    "isAdvertisement": false,
    "imageUrl": "https://lh3.googleusercontent.com/gps-proxy/ALd4DhH05nkjerrdzjKq0-d8GTjJTHpFlYQb8JP13ob9rJjhbELpxwn41ZcGf2Z7eee1D_MS-BrYbFUjuD-lL0MmxgUHSODD8NBhISJ09FTwz4WBKjKL5jqISzVKnzqF8YrccK4WTapjJooZ98kcsD4xAsQ6UsZA4UhC2Zl2uIfrnkGCuE1urEyO0jWtnk-4zBjewCNkax8=w408-h306-k-no",
    "kgmid": "/g/11b6q5q9my"
  },
  {
    "title": "ऊँ जय श्री दुर्गे स्वीट एण्ड चाट हाउस",
    "price": null,
    "categoryName": "Dessert shop",
    "address": "M9MP+5W8, Bahakha Bazar, Madhyapur Thimi 44600, Nepal",
    "neighborhood": null,
    "street": "M9MP+5W8, Bahakha Bazar",
    "city": "Madhyapur Thimi",
    "postalCode": "44600",
    "state": null,
    "countryCode": "NP",
    "phone": "+977 980-3059191",
    "phoneUnformatted": "+9779803059191",
    "claimThisBusiness": true,
    "location": {
      "lat": 27.682907,
      "lng": 85.3873189
    },
    "permanentlyClosed": false,
    "temporarilyClosed": false,
    "placeId": "ChIJq-s9lWca6zkR7KtZXomqqAk",
    "categories": [
      "Dessert shop"
    ],
    "fid": "0x39eb1a67953debab:0x9a8aa895e59abec",
    "cid": "695993649398918124",
    "reviewsCount": 0,
    "imagesCount": 6,
    "imageCategories": [],
    "scrapedAt": "2025-11-14T09:54:18.419Z",
    "googleFoodUrl": null,
    "hotelAds": [],
    "openingHours": [
      {
        "day": "Monday",
        "hours": "6 AM to 8 PM"
      },
      {
        "day": "Tuesday",
        "hours": "6 AM to 8 PM"
      },
      {
        "day": "Wednesday",
        "hours": "6 AM to 8 PM"
      },
      {
        "day": "Thursday",
        "hours": "6 AM to 8 PM"
      },
      {
        "day": "Friday",
        "hours": "6 AM to 8 PM"
      },
      {
        "day": "Saturday",
        "hours": "6 AM to 8 PM"
      },
      {
        "day": "Sunday",
        "hours": "6 AM to 8 PM"
      }
    ],
    "peopleAlsoSearch": [],
    "placesTags": [],
    "reviewsTags": [],
    "additionalInfo": {
      "Service options": [
        {
          "Takeout": true
        }
      ]
    },
    "gasPrices": [],
    "url": "https://www.google.com/maps/search/?api=1&query=%E0%A4%8A%E0%A4%81%20%E0%A4%9C%E0%A4%AF%20%E0%A4%B6%E0%A5%8D%E0%A4%B0%E0%A5%80%20%E0%A4%A6%E0%A5%81%E0%A4%B0%E0%A5%8D%E0%A4%97%E0%A5%87%20%E0%A4%B8%E0%A5%8D%E0%A4%B5%E0%A5%80%E0%A4%9F%20%E0%A4%8F%E0%A4%A3%E0%A5%8D%E0%A4%A1%20%E0%A4%9A%E0%A4%BE%E0%A4%9F%20%E0%A4%B9%E0%A4%BE%E0%A4%89%E0%A4%B8&query_place_id=ChIJq-s9lWca6zkR7KtZXomqqAk",
    "searchPageUrl": "https://www.google.com/maps/search/dessert%20shop/@27.680106502310814,85.38815918240205,17z?hl=en",
    "searchString": "dessert shop",
    "language": "en",
    "rank": 4,
    "isAdvertisement": false,
    "imageUrl": "https://lh3.googleusercontent.com/gps-proxy/ALd4DhFS3MEvARBrNbbCQE94eP6c5gd-BR73nhUsoxtI1J3K_Y43-iUyAct5iOEhhOCa2lWjLeMHYntPYK_j9ClUHASnqx-DMNoBwoLARH0fSvBPLV-7YGhbLExpfWIVfACSjiSfOhz4jR2hvtDoj13FMZz-lsCK_X15WJRIOp9p-84nRK-kcAPmJItLOMe8hwmUyEd07Zs=w408-h306-k-no",
    "kgmid": "/g/11b6qdlv12"
  },
  {
    "title": "न्यू सुर्यबिनायक अमिलो एण्ड कुल्फी शप",
    "price": null,
    "categoryName": "Dessert shop",
    "address": "गपली मार्ग, Suryabinayak 44800, Nepal",
    "neighborhood": null,
    "street": "गपली मार्ग",
    "city": "Suryabinayak",
    "postalCode": "44800",
    "state": null,
    "countryCode": "NP",
    "phone": "+977 981-8755661",
    "phoneUnformatted": "+9779818755661",
    "claimThisBusiness": true,
    "location": {
      "lat": 27.666363,
      "lng": 85.425524
    },
    "permanentlyClosed": false,
    "temporarilyClosed": false,
    "placeId": "ChIJ985FQqYa6zkRGtiiMbit4Oo",
    "categories": [
      "Dessert shop"
    ],
    "fid": "0x39eb1aa64245cef7:0xeae0adb831a2d81a",
    "cid": "16924718406276667418",
    "reviewsCount": 0,
    "imagesCount": 1,
    "imageCategories": [],
    "scrapedAt": "2025-11-14T09:55:03.423Z",
    "googleFoodUrl": null,
    "hotelAds": [],
    "openingHours": [
      {
        "day": "Monday",
        "hours": "7:30 AM to 7:30 PM"
      },
      {
        "day": "Tuesday",
        "hours": "7:30 AM to 7:30 PM"
      },
      {
        "day": "Wednesday",
        "hours": "7:30 AM to 7:30 PM"
      },
      {
        "day": "Thursday",
        "hours": "7:30 AM to 7:30 PM"
      },
      {
        "day": "Friday",
        "hours": "7:30 AM to 7:30 PM"
      },
      {
        "day": "Saturday",
        "hours": "7:30 AM to 7:30 PM"
      },
      {
        "day": "Sunday",
        "hours": "7:30 AM to 7:30 PM"
      }
    ],
    "peopleAlsoSearch": [],
    "placesTags": [],
    "reviewsTags": [],
    "additionalInfo": {
      "Service options": [
        {
          "Takeout": true
        }
      ]
    },
    "gasPrices": [],
    "url": "https://www.google.com/maps/search/?api=1&query=%E0%A4%A8%E0%A5%8D%E0%A4%AF%E0%A5%82%20%E0%A4%B8%E0%A5%81%E0%A4%B0%E0%A5%8D%E0%A4%AF%E0%A4%AC%E0%A4%BF%E0%A4%A8%E0%A4%BE%E0%A4%AF%E0%A4%95%20%E0%A4%85%E0%A4%AE%E0%A4%BF%E0%A4%B2%E0%A5%8B%20%E0%A4%8F%E0%A4%A3%E0%A5%8D%E0%A4%A1%20%E0%A4%95%E0%A5%81%E0%A4%B2%E0%A5%8D%E0%A4%AB%E0%A5%80%20%E0%A4%B6%E0%A4%AA&query_place_id=ChIJ985FQqYa6zkRGtiiMbit4Oo",
    "searchPageUrl": "https://www.google.com/maps/search/dessert%20shop/@27.6667617,85.4256602,17.827533103180325z?hl=en",
    "searchString": "dessert shop",
    "language": "en",
    "rank": 19,
    "isAdvertisement": false,
    "imageUrl": "https://streetviewpixels-pa.googleapis.com/v1/thumbnail?panoid=QE10srOyQPB0p-eAC_Slww&cb_client=search.gws-prod.gps&w=408&h=240&yaw=255.77216&pitch=0&thumbfov=100",
    "kgmid": "/g/11b6qllnvg"
  }
]