[
  {
    "title": "Chiya Sangai: Best Tea Shop in Bhaktapur",
    "price": null,
    "categoryName": "Tea store",
    "address": "Kamalbinayak, Bhaktapur 44800, Nepal",
    "neighborhood": null,
    "street": "Kamalbinayak",
    "city": "Bhaktapur",
    "postalCode": "44800",
    "state": null,
    "countryCode": "NP",
    "website": "https://www.tiktok.com/@chiya.sangai",
    "phone": "+977 986-0808627",
    "phoneUnformatted": "+9779860808627",
    "claimThisBusiness": false,
    "location": {
      "lat": 27.6769293,
      "lng": 85.4377586
    },
    "totalScore": 5,
    "permanentlyClosed": false,
    "temporarilyClosed": false,
    "placeId": "ChIJR1qP4JAF6zkR4AlmauLOCG4",
    "categories": [
      "Tea store",
      "Cafe",
      "Coffee shop"
    ],
    "fid": "0x39eb0590e08f5a47:0x6e08cee26a6609e0",
    "cid": "7928814615828761056",
    "reviewsCount": 1,
    "imagesCount": 34,
    "imageCategories": [],
    "scrapedAt": "2025-11-14T07:37:53.426Z",
    "googleFoodUrl": null,
    "hotelAds": [],
    "openingHours": [
      {
        "day": "Monday",
        "hours": "6 AM to 10 PM"
      },
      {
        "day": "Tuesday",
        "hours": "6 AM to 10 PM"
      },
      {
        "day": "Wednesday",
        "hours": "6 AM to 10 PM"
      },
      {
        "day": "Thursday",
        "hours": "6 AM to 10 PM"
      },
      {
        "day": "Friday",
        "hours": "6 AM to 10 PM"
      },
      {
        "day": "Saturday",
        "hours": "6 AM to 10 PM"
      },
      {
        "day": "Sunday",
        "hours": "6 AM to 10 PM"
      }
    ],
    "peopleAlsoSearch": [],
    "placesTags": [],
    "reviewsTags": [],
    "additionalInfo": {
      "Service options": [
        {
          "In-store pickup": true
        },
        {
          "In-store shopping": true
        },
        {
          "Onsite services": true
        },
        {
          "Takeout": true
        },
        {
          "Dine-in": true
        },
        {
          "Delivery": false
        }
      ],
      "Accessibility": [
        {
          "Assistive hearing loop": false
        },
        {
          "Wheelchair accessible entrance": false
        },
        {
          "Wheelchair accessible parking lot": false
        },
        {
          "Wheelchair accessible restroom": false
        },
        {
          "Wheelchair accessible seating": false
        }
      ],
      "Amenities": [
        {
          "Wi-Fi": true
        },
        {
          "Free Wi-Fi": true
        }
      ],
      "Crowd": [
        {
          "LGBTQ+ friendly": true
        },
        {
          "Transgender safespace": true
        }
      ],
      "Payments": [
        {
          "NFC mobile payments": true
        }
      ],
      "Parking": [
        {
          "Free parking garage": true
        },
        {
          "Free parking lot": true
        },
        {
          "Free street parking": true
        },
        {
          "On-site parking": true
        },
        {
          "Paid parking garage": true
        }
      ]
    },
    "gasPrices": [],
    "url": "https://www.google.com/maps/search/?api=1&query=Chiya%20Sangai%3A%20Best%20Tea%20Shop%20in%20Bhaktapur&query_place_id=ChIJR1qP4JAF6zkR4AlmauLOCG4",
    "searchPageUrl": "https://www.google.com/maps/search/tea%20and%20coffee%20shop/@27.682913622705936,85.4386817269883,17z?hl=en",
    "searchString": "tea and coffee shop",
    "language": "en",
    "rank": 3,
    "isAdvertisement": false,
    "imageUrl": "https://lh3.googleusercontent.com/gps-cs-s/AG0ilSywPFJh2NApCw17aSAw1SGvS16eALHxZwY2PsCcl_REAthIUdYjClhGrUHn3lyy02RC9o1-wgKuvkdgy2SkfFuDVkH7cOhhoL9t5LEZBH2R9jE--A83PVKjQC087V0mh0eoGFVL8GlPrDiJ=w408-h306-k-no",
    "kgmid": "/g/11x_q83hq0"
  },
  {
    "title": "Ilam Organic green tea (IOCP TEA)",
    "price": null,
    "categoryName": "Tea store",
    "address": "Suryabynaik bhaktapur, Kathmandu 44800, Nepal",
    "neighborhood": "Sipadol",
    "street": "Suryabynaik bhaktapur",
    "city": "Kathmandu",
    "postalCode": "44800",
    "state": null,
    "countryCode": "NP",
    "website": "http://www.iocp.com.np/",
    "phone": "+977 974-8284100",
    "phoneUnformatted": "+9779748284100",
    "claimThisBusiness": false,
    "location": {
      "lat": 27.6592943,
      "lng": 85.4275082
    },
    "totalScore": 4.1,
    "permanentlyClosed": false,
    "temporarilyClosed": false,
    "placeId": "ChIJlfD-xlYZ6zkR5gbI1AiXFIg",
    "categories": [
      "Tea store"
    ],
    "fid": "0x39eb1956c6fef095:0x88149708d4c806e6",
    "cid": "9805628352877823718",
    "reviewsCount": 10,
    "imagesCount": 23,
    "imageCategories": [],
    "scrapedAt": "2025-11-14T09:51:14.119Z",
    "googleFoodUrl": null,
    "hotelAds": [],
    "openingHours": [
      {
        "day": "Monday",
        "hours": "9 AM to 5 PM"
      },
      {
        "day": "Tuesday",
        "hours": "9 AM to 5 PM"
      },
      {
        "day": "Wednesday",
        "hours": "9 AM to 5 PM"
      },
      {
        "day": "Thursday",
        "hours": "9 AM to 5 PM"
      },
      {
        "day": "Friday",
        "hours": "9 AM to 5 PM"
      },
      {
        "day": "Saturday",
        "hours": "9 AM to 5 PM"
      },
      {
        "day": "Sunday",
        "hours": "9 AM to 5 PM"
      }
    ],
    "additionalOpeningHours": {
      "Delivery": [
        {
          "day": "Monday",
          "hours": "9 AM–5 PM"
        },
        {
          "day": "Tuesday",
          "hours": "9 AM–5 PM"
        },
        {
          "day": "Wednesday",
          "hours": "9 AM–5 PM"
        },
        {
          "day": "Thursday",
          "hours": "9 AM–5 PM"
        },
        {
          "day": "Friday",
          "hours": "9 AM–5 PM"
        },
        {
          "day": "Saturday",
          "hours": "9 AM–5 PM"
        },
        {
          "day": "Sunday",
          "hours": "9 AM–5 PM"
        }
      ],
      "Online service hours": [
        {
          "day": "Monday",
          "hours": "Open 24 hours"
        },
        {
          "day": "Tuesday",
          "hours": "Open 24 hours"
        },
        {
          "day": "Wednesday",
          "hours": "Open 24 hours"
        },
        {
          "day": "Thursday",
          "hours": "Open 24 hours"
        },
        {
          "day": "Friday",
          "hours": "Open 24 hours"
        },
        {
          "day": "Saturday",
          "hours": "Open 24 hours"
        },
        {
          "day": "Sunday",
          "hours": "Open 24 hours"
        }
      ]
    },
    "peopleAlsoSearch": [],
    "placesTags": [],
    "reviewsTags": [],
    "additionalInfo": {
      "From the business": [
        {
          "Identifies as women-owned": true
        }
      ],
      "Service options": [
        {
          "Delivery": true
        },
        {
          "Takeout": true
        }
      ],
      "Accessibility": [
        {
          "Wheelchair accessible parking lot": true
        },
        {
          "Wheelchair accessible restroom": false
        },
        {
          "Wheelchair accessible seating": false
        }
      ],
      "Amenities": [
        {
          "Gender-neutral restroom": true
        },
        {
          "Wi-Fi": true
        },
        {
          "Free Wi-Fi": true
        }
      ],
      "Planning": [
        {
          "Appointment required": true
        }
      ],
      "Payments": [
        {
          "Cash-only": true
        }
      ]
    },
    "gasPrices": [],
    "url": "https://www.google.com/maps/search/?api=1&query=Ilam%20Organic%20green%20tea%20(IOCP%20TEA)&query_place_id=ChIJlfD-xlYZ6zkR5gbI1AiXFIg",
    "searchPageUrl": "https://www.google.com/maps/search/tea%20store/@27.64207399075676,85.42249999999997,17z?hl=en",
    "searchString": "tea store",
    "language": "en",
    "rank": 2,
    "isAdvertisement": false,
    "imageUrl": "https://lh3.googleusercontent.com/p/AF1QipPzFs5Mtfum-8ffxIobSQun1VkzL-nJP8cTckRZ=w408-h386-k-no",
    "kgmid": "/g/11hzt99dtp"
  },
  {
    "title": "Thulogau",
    "price": null,
    "categoryName": "Tea store",
    "address": "JCPQ+J38, Doleshwor-Aashapur Rd, Suryabinayak, Nepal",
    "neighborhood": "Sipadol",
    "street": "JCPQ+J38, Doleshwor-Aashapur Rd",
    "city": "Suryabinayak",
    "postalCode": null,
    "state": null,
    "countryCode": "NP",
    "claimThisBusiness": true,
    "location": {
      "lat": 27.6365263,
      "lng": 85.4377007
    },
    "totalScore": 3.7,
    "permanentlyClosed": false,
    "temporarilyClosed": false,
    "placeId": "ChIJmflV0jIP6zkRjPSn-JSBBhM",
    "categories": [
      "Tea store"
    ],
    "fid": "0x39eb0f32d255f999:0x13068194f8a7f48c",
    "cid": "1370925613407794316",
    "reviewsCount": 7,
    "imagesCount": 9,
    "imageCategories": [],
    "scrapedAt": "2025-11-14T09:51:14.119Z",
    "googleFoodUrl": null,
    "hotelAds": [],
    "openingHours": [],
    "peopleAlsoSearch": [],
    "placesTags": [],
    "reviewsTags": [],
    "additionalInfo": {
      "Service options": [
        {
          "In-store pickup": true
        }
      ]
    },
    "gasPrices": [],
    "url": "https://www.google.com/maps/search/?api=1&query=Thulogau&query_place_id=ChIJmflV0jIP6zkRjPSn-JSBBhM",
    "searchPageUrl": "https://www.google.com/maps/search/tea%20store/@27.64207399075676,85.42249999999997,17z?hl=en",
    "searchString": "tea store",
    "language": "en",
    "rank": 4,
    "isAdvertisement": false,
    "imageUrl": "https://lh3.googleusercontent.com/gps-cs-s/AG0ilSyJdGgTb1kQuQKDa_9FC-wngTpmZnQ52NAyw92G2JF8SjSkNWqclk1j0K5xSj7qXihxuZtdsRPGzl4D-TSmTN1YhpI2iOxVu9qeOefz1vFqaqVl4Cllb_wQaZQIQ8jF2zsOFF7E=w426-h240-k-no",
    "kgmid": "/g/11r9q97487"
  },
  {
    "title": "Chiya Vibes",
    "price": null,
    "categoryName": "Tea store",
    "address": "M99J+PMP, Hanumante Rd, Madhyapur Thimi, Nepal",
    "neighborhood": "Balkot",
    "street": "M99J+PMP, Hanumante Rd",
    "city": "Madhyapur Thimi",
    "postalCode": null,
    "state": null,
    "countryCode": "NP",
    "phone": "+977 984-9042281",
    "phoneUnformatted": "+9779849042281",
    "claimThisBusiness": true,
    "location": {
      "lat": 27.6693444,
      "lng": 85.3817081
    },
    "totalScore": 4.4,
    "permanentlyClosed": false,
    "temporarilyClosed": false,
    "placeId": "ChIJlXCFPAAb6zkRjOHeFKdce9E",
    "categories": [
      "Tea store"
    ],
    "fid": "0x39eb1b003c857095:0xd17b5ca714dee18c",
    "cid": "15094760448741794188",
    "reviewsCount": 14,
    "imagesCount": 4,
    "imageCategories": [],
    "scrapedAt": "2025-11-14T09:51:14.119Z",
    "googleFoodUrl": null,
    "hotelAds": [],
    "openingHours": [
      {
        "day": "Monday",
        "hours": "6 AM to 9 PM"
      },
      {
        "day": "Tuesday",
        "hours": "6 AM to 9 PM"
      },
      {
        "day": "Wednesday",
        "hours": "6 AM to 9 PM"
      },
      {
        "day": "Thursday",
        "hours": "6 AM to 9 PM"
      },
      {
        "day": "Friday",
        "hours": "6 AM to 9 PM"
      },
      {
        "day": "Saturday",
        "hours": "6 AM to 9 PM"
      },
      {
        "day": "Sunday",
        "hours": "6 AM to 9 PM"
      }
    ],
    "peopleAlsoSearch": [],
    "placesTags": [],
    "reviewsTags": [],
    "additionalInfo": {
      "Payments": [
        {
          "NFC mobile payments": true
        }
      ]
    },
    "gasPrices": [],
    "url": "https://www.google.com/maps/search/?api=1&query=Chiya%20Vibes&query_place_id=ChIJlXCFPAAb6zkRjOHeFKdce9E",
    "searchPageUrl": "https://www.google.com/maps/search/tea%20store/@27.64207399075676,85.42249999999997,17z?hl=en",
    "searchString": "tea store",
    "language": "en",
    "rank": 10,
    "isAdvertisement": false,
    "imageUrl": "https://streetviewpixels-pa.googleapis.com/v1/thumbnail?panoid=aA1ZLYvmjXQ-HS6x5IgRrQ&cb_client=search.gws-prod.gps&w=408&h=240&yaw=87.23111&pitch=0&thumbfov=100",
    "kgmid": "/g/11wx2_m2j2"
  },
  {
    "title": "Ramchandra Chiya Pasal",
    "price": null,
    "categoryName": "Tea store",
    "address": "M9CJ+3WC, Unnamed Road, Anantalingeshwar, Nepal",
    "neighborhood": "Balkot",
    "street": "M9CJ+3WC, Unnamed Road",
    "city": "Anantalingeshwar",
    "postalCode": null,
    "state": null,
    "countryCode": "NP",
    "phone": "+977 984-9464446",
    "phoneUnformatted": "+9779849464446",
    "claimThisBusiness": true,
    "location": {
      "lat": 27.6701851,
      "lng": 85.3822674
    },
    "totalScore": 4.6,
    "permanentlyClosed": false,
    "temporarilyClosed": false,
    "placeId": "ChIJa3scuYcb6zkRjQK53tiK4wE",
    "categories": [
      "Tea store"
    ],
    "fid": "0x39eb1b87b91c7b6b:0x1e38ad8deb9028d",
    "cid": "136105077805482637",
    "reviewsCount": 11,
    "imagesCount": 1,
    "imageCategories": [],
    "scrapedAt": "2025-11-14T09:51:14.119Z",
    "googleFoodUrl": null,
    "hotelAds": [],
    "openingHours": [
      {
        "day": "Monday",
        "hours": "6 AM to 8 PM"
      },
      {
        "day": "Tuesday",
        "hours": "6 AM to 8 PM"
      },
      {
        "day": "Wednesday",
        "hours": "6 AM to 8 PM"
      },
      {
        "day": "Thursday",
        "hours": "6 AM to 8 PM"
      },
      {
        "day": "Friday",
        "hours": "6 AM to 8 PM"
      },
      {
        "day": "Saturday",
        "hours": "6 AM to 8 PM"
      },
      {
        "day": "Sunday",
        "hours": "6 AM to 8 PM"
      }
    ],
    "peopleAlsoSearch": [],
    "placesTags": [],
    "reviewsTags": [],
    "gasPrices": [],
    "url": "https://www.google.com/maps/search/?api=1&query=Ramchandra%20Chiya%20Pasal&query_place_id=ChIJa3scuYcb6zkRjQK53tiK4wE",
    "searchPageUrl": "https://www.google.com/maps/search/tea%20store/@27.64207399075676,85.42249999999997,17z?hl=en",
    "searchString": "tea store",
    "language": "en",
    "rank": 11,
    "isAdvertisement": false,
    "imageUrl": "https://streetviewpixels-pa.googleapis.com/v1/thumbnail?panoid=ALjy_GCZ0dspH3MBmP0Dvg&cb_client=search.gws-prod.gps&w=408&h=240&yaw=100.36734&pitch=0&thumbfov=100",
    "kgmid": "/g/11hdsrq5z6"
  },
  {
    "title": "Orenda Square",
    "price": null,
    "categoryName": "Tea store",
    "address": "M9JP+29P, Madhyapur Thimi 44600, Nepal",
    "neighborhood": null,
    "street": "M9JP+29P",
    "city": "Madhyapur Thimi",
    "postalCode": "44600",
    "state": null,
    "countryCode": "NP",
    "claimThisBusiness": true,
    "location": {
      "lat": 27.6800967,
      "lng": 85.3859665
    },
    "totalScore": 5,
    "permanentlyClosed": false,
    "temporarilyClosed": false,
    "placeId": "ChIJCSs8eAAb6zkRZrnEAtpn5a4",
    "categories": [
      "Tea store"
    ],
    "fid": "0x39eb1b00783c2b09:0xaee567da02c4b966",
    "cid": "12602593318313179494",
    "reviewsCount": 1,
    "imagesCount": 3,
    "imageCategories": [],
    "scrapedAt": "2025-11-14T09:51:14.119Z",
    "googleFoodUrl": null,
    "hotelAds": [],
    "openingHours": [
      {
        "day": "Monday",
        "hours": "6 AM to 9 PM"
      },
      {
        "day": "Tuesday",
        "hours": "6 AM to 9 PM"
      },
      {
        "day": "Wednesday",
        "hours": "6 AM to 9 PM"
      },
      {
        "day": "Thursday",
        "hours": "6 AM to 9 PM"
      },
      {
        "day": "Friday",
        "hours": "6 AM to 9 PM"
      },
      {
        "day": "Saturday",
        "hours": "6 AM to 9 PM"
      },
      {
        "day": "Sunday",
        "hours": "6 AM to 9 PM"
      }
    ],
    "peopleAlsoSearch": [],
    "placesTags": [],
    "reviewsTags": [],
    "gasPrices": [],
    "url": "https://www.google.com/maps/search/?api=1&query=Orenda%20Square&query_place_id=ChIJCSs8eAAb6zkRZrnEAtpn5a4",
    "searchPageUrl": "https://www.google.com/maps/search/tea%20store/@27.64207399075676,85.42249999999997,17z?hl=en",
    "searchString": "tea store",
    "language": "en",
    "rank": 19,
    "isAdvertisement": false,
    "imageUrl": "https://lh3.googleusercontent.com/gps-cs-s/AG0ilSygHJloCaG9sZS1cO6V88PPIEqHEu-nGxfmhmsQn9JvqU-9j08ABUNixe78KwOnCzNX_k2zsut0G0ZzG4azh1GVIh0SS1RcSJUrPE4YaN154HyTNt71DIHe_U3L2NCeVim8gokGMACO2hzh=w408-h307-k-no",
    "kgmid": "/g/11x5r_dq4b"
  },
  {
    "title": "Hot duck Brothers point",
    "price": null,
    "categoryName": "Tea store",
    "address": "MCM6+R9X, Rudraksha Rd, Changunarayan, Nepal",
    "neighborhood": "Duwakot",
    "street": "MCM6+R9X, Rudraksha Rd",
    "city": "Changunarayan",
    "postalCode": null,
    "state": null,
    "countryCode": "NP",
    "claimThisBusiness": true,
    "location": {
      "lat": 27.6846042,
      "lng": 85.4109941
    },
    "totalScore": 5,
    "permanentlyClosed": false,
    "temporarilyClosed": false,
    "placeId": "ChIJk5KPG2Ib6zkRzV3_bl3Xhag",
    "categories": [
      "Tea store"
    ],
    "fid": "0x39eb1b621b8f9293:0xa885d75d6eff5dcd",
    "cid": "12143348766568570317",
    "reviewsCount": 2,
    "imagesCount": 4,
    "imageCategories": [],
    "scrapedAt": "2025-11-14T09:51:14.120Z",
    "googleFoodUrl": null,
    "hotelAds": [],
    "openingHours": [],
    "peopleAlsoSearch": [],
    "placesTags": [],
    "reviewsTags": [],
    "additionalInfo": {
      "Service options": [
        {
          "Takeout": true
        }
      ]
    },
    "gasPrices": [],
    "url": "https://www.google.com/maps/search/?api=1&query=Hot%20duck%20Brothers%20point&query_place_id=ChIJk5KPG2Ib6zkRzV3_bl3Xhag",
    "searchPageUrl": "https://www.google.com/maps/search/tea%20store/@27.64207399075676,85.42249999999997,17z?hl=en",
    "searchString": "tea store",
    "language": "en",
    "rank": 20,
    "isAdvertisement": false,
    "imageUrl": "https://lh3.googleusercontent.com/gps-cs-s/AG0ilSwR8UwSAK2OS-Jv5YwlY-x8VJOVvu5q_3j2eJXgqLbvZbmMFclv5venNFVAg7lTycHdGJFSeBb1-dh8zY331a3P0T3LP6LIZGZCeEsYFDHxj7WgEKRPo4awZgyob4Q2XsvP1e3J3g=w408-h544-k-no",
    "kgmid": "/g/11qnt5lmpz"
  },
  {
    "title": "Nita Didi ko Chiya Pasal",
    "price": null,
    "categoryName": "Tea store",
    "address": "M9JG+44F, Madhyapur Thimi 44600, Nepal",
    "neighborhood": null,
    "street": "M9JG+44F",
    "city": "Madhyapur Thimi",
    "postalCode": "44600",
    "state": null,
    "countryCode": "NP",
    "claimThisBusiness": true,
    "location": {
      "lat": 27.680296,
      "lng": 85.375339
    },
    "totalScore": 4.8,
    "permanentlyClosed": false,
    "temporarilyClosed": false,
    "placeId": "ChIJj9wWKwAb6zkRTHHB3hNl8yE",
    "categories": [
      "Tea store"
    ],
    "fid": "0x39eb1b002b16dc8f:0x21f36513dec1714c",
    "cid": "2446410158608314700",
    "reviewsCount": 6,
    "imagesCount": 1,
    "imageCategories": [],
    "scrapedAt": "2025-11-14T09:51:47.785Z",
    "googleFoodUrl": null,
    "hotelAds": [],
    "openingHours": [],
    "peopleAlsoSearch": [],
    "placesTags": [],
    "reviewsTags": [],
    "gasPrices": [],
    "url": "https://www.google.com/maps/search/?api=1&query=Nita%20Didi%20ko%20Chiya%20Pasal&query_place_id=ChIJj9wWKwAb6zkRTHHB3hNl8yE",
    "searchPageUrl": "https://www.google.com/maps/search/tea%20store/@27.687713004621624,85.37957397800257,17z?hl=en",
    "searchString": "tea store",
    "language": "en",
    "rank": 4,
    "isAdvertisement": false,
    "imageUrl": "https://streetviewpixels-pa.googleapis.com/v1/thumbnail?panoid=NKxVJ059X3GLXGN_HZXtkA&cb_client=search.gws-prod.gps&w=408&h=240&yaw=204.28499&pitch=0&thumbfov=100",
    "kgmid": "/g/11y8tpc41c"
  },
  {
    "title": "Arjun Tea Shop",
    "price": null,
    "categoryName": "Tea store",
    "address": "M9JQ+F75, Madhyapur Thimi 44600, Nepal",
    "neighborhood": null,
    "street": "M9JQ+F75",
    "city": "Madhyapur Thimi",
    "postalCode": null,
    "state": null,
    "countryCode": "NP",
    "claimThisBusiness": true,
    "location": {
      "lat": 27.6811319,
      "lng": 85.3882329
    },
    "totalScore": 4.2,
    "permanentlyClosed": false,
    "temporarilyClosed": false,
    "placeId": "ChIJlaEA5GIb6zkRNKFc5B1Xw-w",
    "categories": [
      "Tea store"
    ],
    "fid": "0x39eb1b62e400a195:0xecc3571de45ca134",
    "cid": "17060575599306514740",
    "reviewsCount": 5,
    "imagesCount": 4,
    "imageCategories": [],
    "scrapedAt": "2025-11-14T09:51:47.785Z",
    "googleFoodUrl": null,
    "hotelAds": [],
    "openingHours": [],
    "peopleAlsoSearch": [],
    "placesTags": [],
    "reviewsTags": [],
    "additionalInfo": {
      "Service options": [
        {
          "Takeout": true
        }
      ]
    },
    "gasPrices": [],
    "url": "https://www.google.com/maps/search/?api=1&query=Arjun%20Tea%20Shop&query_place_id=ChIJlaEA5GIb6zkRNKFc5B1Xw-w",
    "searchPageUrl": "https://www.google.com/maps/search/tea%20store/@27.687713004621624,85.37957397800257,17z?hl=en",
    "searchString": "tea store",
    "language": "en",
    "rank": 5,
    "isAdvertisement": false,
    "imageUrl": "https://lh3.googleusercontent.com/gps-cs-s/AG0ilSyCh2y5Uvj79w4wZAyP-iXrdWXefzKO0ed5nACr-bdduc9wlAsd1PB77rxzF8YHPcZFYN5ekodOms18m2Vm073wM4pZpZq6PcXwS51IWBblXhTr0_2-WfbljENfops1CgS00N9G=w408-h725-k-no",
    "kgmid": "/g/11vbr2t3zz"
  },
  {
    "title": "Chiya Guthi",
    "price": null,
    "categoryName": "Tea store",
    "address": "M9GG+X6C, Madhyapur Thimi 44600, Nepal",
    "neighborhood": "Gatthaghar",
    "street": "M9GG+X6C",
    "city": "Madhyapur Thimi",
    "postalCode": "44600",
    "state": null,
    "countryCode": "NP",
    "phone": "+977 970-5559155",
    "phoneUnformatted": "+9779705559155",
    "claimThisBusiness": true,
    "location": {
      "lat": 27.6774298,
      "lng": 85.3755227
    },
    "totalScore": 5,
    "permanentlyClosed": false,
    "temporarilyClosed": false,
    "placeId": "ChIJUcB4GgAb6zkRpZSBzMDG1mo",
    "categories": [
      "Tea store"
    ],
    "fid": "0x39eb1b001a78c051:0x6ad6c6c0cc8194a5",
    "cid": "7698559144403506341",
    "reviewsCount": 3,
    "imagesCount": 62,
    "imageCategories": [],
    "scrapedAt": "2025-11-14T09:51:47.786Z",
    "googleFoodUrl": null,
    "hotelAds": [],
    "openingHours": [],
    "peopleAlsoSearch": [],
    "placesTags": [],
    "reviewsTags": [],
    "gasPrices": [],
    "url": "https://www.google.com/maps/search/?api=1&query=Chiya%20Guthi&query_place_id=ChIJUcB4GgAb6zkRpZSBzMDG1mo",
    "searchPageUrl": "https://www.google.com/maps/search/tea%20store/@27.687713004621624,85.37957397800257,17z?hl=en",
    "searchString": "tea store",
    "language": "en",
    "rank": 10,
    "isAdvertisement": false,
    "imageUrl": "https://lh3.googleusercontent.com/gps-cs-s/AG0ilSyUGf2oKIWqOD6AQ2EfDHpcTrC6SPyy2LnNrLoagAjqGCGI6v7kByn3g6ksX43Pnl1dWKEM_pJeYzgyRpB1G_k-ZbuwLf5QoC5GnMdNr62eKXMeRem2_k0vXsYACtNoxlfdpXpf1rb4PTLA=w408-h544-k-no",
    "kgmid": "/g/11yc9c4rxc"
  },
  {
    "title": "Chiyamala",
    "price": null,
    "categoryName": "Tea store",
    "address": "Madhyapur Thimi 44600, Nepal",
    "neighborhood": "Gatthaghar",
    "street": null,
    "city": "Madhyapur Thimi",
    "postalCode": "44600",
    "state": null,
    "countryCode": "NP",
    "phone": "+977 974-9705466",
    "phoneUnformatted": "+9779749705466",
    "claimThisBusiness": false,
    "location": {
      "lat": 27.6745491,
      "lng": 85.3736103
    },
    "totalScore": 5,
    "permanentlyClosed": false,
    "temporarilyClosed": false,
    "placeId": "ChIJCWjPUgAb6zkRH6vsTcVMlsU",
    "categories": [
      "Tea store"
    ],
    "fid": "0x39eb1b0052cf6809:0xc5964cc54decab1f",
    "cid": "14237651682278026015",
    "reviewsCount": 5,
    "imagesCount": 12,
    "imageCategories": [],
    "scrapedAt": "2025-11-14T09:51:47.786Z",
    "googleFoodUrl": null,
    "hotelAds": [],
    "openingHours": [
      {
        "day": "Monday",
        "hours": "7 AM to 8 PM"
      },
      {
        "day": "Tuesday",
        "hours": "7 AM to 8 PM"
      },
      {
        "day": "Wednesday",
        "hours": "7 AM to 8 PM"
      },
      {
        "day": "Thursday",
        "hours": "7 AM to 8 PM"
      },
      {
        "day": "Friday",
        "hours": "7 AM to 8 PM"
      },
      {
        "day": "Saturday",
        "hours": "7 AM to 8 PM"
      },
      {
        "day": "Sunday",
        "hours": "7 AM to 8 PM"
      }
    ],
    "additionalOpeningHours": {
      "Takeout": [
        {
          "day": "Monday",
          "hours": "9 AM–4 PM"
        },
        {
          "day": "Tuesday",
          "hours": "9 AM–4 PM"
        },
        {
          "day": "Wednesday",
          "hours": "9 AM–4 PM"
        },
        {
          "day": "Thursday",
          "hours": "9 AM–4 PM"
        },
        {
          "day": "Friday",
          "hours": "9 AM–4 PM"
        },
        {
          "day": "Saturday",
          "hours": "9 AM–4 PM"
        },
        {
          "day": "Sunday",
          "hours": "9 AM–4 PM"
        }
      ]
    },
    "peopleAlsoSearch": [],
    "placesTags": [],
    "reviewsTags": [],
    "additionalInfo": {
      "Service options": [
        {
          "Takeout": true
        }
      ]
    },
    "gasPrices": [],
    "url": "https://www.google.com/maps/search/?api=1&query=Chiyamala&query_place_id=ChIJCWjPUgAb6zkRH6vsTcVMlsU",
    "searchPageUrl": "https://www.google.com/maps/search/tea%20store/@27.687713004621624,85.37957397800257,17z?hl=en",
    "searchString": "tea store",
    "language": "en",
    "rank": 12,
    "isAdvertisement": false,
    "imageUrl": "https://lh3.googleusercontent.com/p/AF1QipOFRJCbggg1TuJiw-aWD71fUdpn8rmYEA73Aqg_=w408-h543-k-no",
    "kgmid": "/g/11wxkj0jl8"
  },
  {
    "title": "Chiya Sport",
    "price": null,
    "categoryName": "Tea store",
    "address": "Kaushaltar - Balkot Rd, Madhyapur Thimi 44800, Nepal",
    "neighborhood": "Kausaltar",
    "street": "Kaushaltar - Balkot Rd",
    "city": "Madhyapur Thimi",
    "postalCode": "44800",
    "state": null,
    "countryCode": "NP",
    "phone": "+977 980-8527299",
    "phoneUnformatted": "+9779808527299",
    "claimThisBusiness": false,
    "location": {
      "lat": 27.6736422,
      "lng": 85.3650583
    },
    "totalScore": 4.9,
    "permanentlyClosed": false,
    "temporarilyClosed": false,
    "placeId": "ChIJEaNldgAb6zkRT26tNY7o5F4",
    "categories": [
      "Tea store",
      "Cafe"
    ],
    "fid": "0x39eb1b007665a311:0x5ee4e88e35ad6e4f",
    "cid": "6837845831738814031",
    "reviewsCount": 22,
    "imagesCount": 22,
    "imageCategories": [],
    "scrapedAt": "2025-11-14T09:51:47.786Z",
    "googleFoodUrl": null,
    "hotelAds": [],
    "openingHours": [
      {
        "day": "Monday",
        "hours": "8 AM to 8:30 PM"
      },
      {
        "day": "Tuesday",
        "hours": "8 AM to 8:30 PM"
      },
      {
        "day": "Wednesday",
        "hours": "8 AM to 8:30 PM"
      },
      {
        "day": "Thursday",
        "hours": "8 AM to 10:30 PM"
      },
      {
        "day": "Friday",
        "hours": "8 AM to 8:30 PM"
      },
      {
        "day": "Saturday",
        "hours": "8 AM to 8:30 PM"
      },
      {
        "day": "Sunday",
        "hours": "8 AM to 8:30 PM"
      }
    ],
    "peopleAlsoSearch": [],
    "placesTags": [],
    "reviewsTags": [],
    "additionalInfo": {
      "Service options": [
        {
          "Dine-in": true
        }
      ],
      "Highlights": [
        {
          "Great coffee": true
        },
        {
          "Great tea selection": true
        }
      ],
      "Offerings": [
        {
          "Coffee": true
        },
        {
          "Quick bite": true
        },
        {
          "Small plates": true
        }
      ],
      "Amenities": [
        {
          "Restroom": true
        }
      ],
      "Atmosphere": [
        {
          "Casual": true
        }
      ],
      "Crowd": [
        {
          "Groups": true
        }
      ],
      "Payments": [
        {
          "NFC mobile payments": true
        }
      ],
      "Children": [
        {
          "Good for kids": true
        }
      ]
    },
    "gasPrices": [],
    "url": "https://www.google.com/maps/search/?api=1&query=Chiya%20Sport&query_place_id=ChIJEaNldgAb6zkRT26tNY7o5F4",
    "searchPageUrl": "https://www.google.com/maps/search/tea%20store/@27.687713004621624,85.37957397800257,17z?hl=en",
    "searchString": "tea store",
    "language": "en",
    "rank": 19,
    "isAdvertisement": false,
    "imageUrl": "https://lh3.googleusercontent.com/p/AF1QipMK1P4pF_6zoTdyIJw85KTSVgR-IT-9hd9XfuUx=w408-h306-k-no",
    "kgmid": "/g/11vz7gjg28"
  },
  {
    "title": "Pawan's Tea Shop",
    "price": null,
    "categoryName": "Tea store",
    "address": "MF34+HGP, Suryabinayak, Nepal",
    "neighborhood": "Nangkhel",
    "street": "MF34+HGP",
    "city": "Suryabinayak",
    "postalCode": null,
    "state": null,
    "countryCode": "NP",
    "claimThisBusiness": true,
    "location": {
      "lat": 27.6539565,
      "lng": 85.4563212
    },
    "permanentlyClosed": false,
    "temporarilyClosed": false,
    "placeId": "ChIJw96J_3MP6zkRCcq73ptPa7U",
    "categories": [
      "Tea store"
    ],
    "fid": "0x39eb0f73ff89dec3:0xb56b4f9bdebbca09",
    "cid": "13072629874248370697",
    "reviewsCount": 0,
    "imagesCount": 1,
    "imageCategories": [],
    "scrapedAt": "2025-11-14T09:52:28.801Z",
    "googleFoodUrl": null,
    "hotelAds": [],
    "openingHours": [],
    "peopleAlsoSearch": [],
    "placesTags": [],
    "reviewsTags": [],
    "additionalInfo": {
      "Service options": [
        {
          "Takeout": true
        }
      ]
    },
    "gasPrices": [],
    "url": "https://www.google.com/maps/search/?api=1&query=Pawan's%20Tea%20Shop&query_place_id=ChIJw96J_3MP6zkRCcq73ptPa7U",
    "searchPageUrl": "https://www.google.com/maps/search/tea%20store/@27.664893497689192,85.4568408175979,17z?hl=en",
    "searchString": "tea store",
    "language": "en",
    "rank": 15,
    "isAdvertisement": false,
    "imageUrl": "https://streetviewpixels-pa.googleapis.com/v1/thumbnail?panoid=O1_umy07mDNNXRU-uc9oMg&cb_client=search.gws-prod.gps&w=408&h=240&yaw=207.06628&pitch=0&thumbfov=100",
    "kgmid": "/g/11t59yztp1"
  },
  {
    "title": "Garud's Cottage",
    "price": null,
    "categoryName": "Tea store",
    "address": "PC6C+4J2, Changunarayan 44600, Nepal",
    "neighborhood": null,
    "street": "PC6C+4J2",
    "city": "Changunarayan",
    "postalCode": null,
    "state": null,
    "countryCode": "NP",
    "phone": "+977 984-9425065",
    "phoneUnformatted": "+9779849425065",
    "claimThisBusiness": true,
    "location": {
      "lat": 27.7102618,
      "lng": 85.4215296
    },
    "totalScore": 5,
    "permanentlyClosed": false,
    "temporarilyClosed": false,
    "placeId": "ChIJfXxy7TEb6zkRdIzqFHFeOuw",
    "categories": [
      "Tea store"
    ],
    "fid": "0x39eb1b31ed727c7d:0xec3a5e7114ea8c74",
    "cid": "17022021581375442036",
    "reviewsCount": 5,
    "imagesCount": 12,
    "imageCategories": [],
    "scrapedAt": "2025-11-14T09:52:37.334Z",
    "googleFoodUrl": null,
    "hotelAds": [],
    "openingHours": [
      {
        "day": "Monday",
        "hours": "7:30 AM to 9 PM"
      },
      {
        "day": "Tuesday",
        "hours": "7:30 AM to 9 PM"
      },
      {
        "day": "Wednesday",
        "hours": "7:30 AM to 9 PM"
      },
      {
        "day": "Thursday",
        "hours": "7:30 AM to 9 PM"
      },
      {
        "day": "Friday",
        "hours": "7:30 AM to 9 PM"
      },
      {
        "day": "Saturday",
        "hours": "7:30 AM to 9 PM"
      },
      {
        "day": "Sunday",
        "hours": "7:30 AM to 9 PM"
      }
    ],
    "peopleAlsoSearch": [],
    "placesTags": [],
    "reviewsTags": [],
    "additionalInfo": {
      "Service options": [
        {
          "Takeout": true
        },
        {
          "Dine-in": true
        }
      ]
    },
    "gasPrices": [],
    "url": "https://www.google.com/maps/search/?api=1&query=Garud's%20Cottage&query_place_id=ChIJfXxy7TEb6zkRdIzqFHFeOuw",
    "searchPageUrl": "https://www.google.com/maps/search/tea%20store/@27.710532511554057,85.42249999999997,17z?hl=en",
    "searchString": "tea store",
    "language": "en",
    "rank": 1,
    "isAdvertisement": false,
    "imageUrl": "https://lh3.googleusercontent.com/gps-cs-s/AG0ilSyN_WUKmeOjujmE1wJwcjACALrfAQUBR2LR65qrOdYvBNE-n8V6JKsUod1cUJDszXNqc0HmE3c87-xHvF4KAL86qFXe3QvJP3yIoK0uoqNjZZnOvkYepzqhaUpIHnYIalDAxZA_og=w426-h240-k-no",
    "kgmid": "/g/11m9qwc81j"
  },
  {
    "title": "P.S.P Khaja Ghar",
    "price": null,
    "categoryName": "Tea store",
    "address": "Changunarayan 44600, Nepal",
    "neighborhood": null,
    "street": null,
    "city": "Changunarayan",
    "postalCode": null,
    "state": null,
    "countryCode": "NP",
    "phone": "+977 981-8948744",
    "phoneUnformatted": "+9779818948744",
    "claimThisBusiness": true,
    "location": {
      "lat": 27.7125802,
      "lng": 85.4244619
    },
    "permanentlyClosed": false,
    "temporarilyClosed": false,
    "placeId": "ChIJBf5gX6Ib6zkRZOUyV11bnuQ",
    "categories": [
      "Tea store"
    ],
    "fid": "0x39eb1ba25f60fe05:0xe49e5b5d5732e564",
    "cid": "16473704943420892516",
    "reviewsCount": 0,
    "imagesCount": 7,
    "imageCategories": [],
    "scrapedAt": "2025-11-14T09:52:37.335Z",
    "googleFoodUrl": null,
    "hotelAds": [],
    "openingHours": [],
    "peopleAlsoSearch": [],
    "placesTags": [],
    "reviewsTags": [],
    "additionalInfo": {
      "Service options": [
        {
          "Takeout": true
        },
        {
          "Dine-in": true
        }
      ]
    },
    "gasPrices": [],
    "url": "https://www.google.com/maps/search/?api=1&query=P.S.P%20Khaja%20Ghar&query_place_id=ChIJBf5gX6Ib6zkRZOUyV11bnuQ",
    "searchPageUrl": "https://www.google.com/maps/search/tea%20store/@27.710532511554057,85.42249999999997,17z?hl=en",
    "searchString": "tea store",
    "language": "en",
    "rank": 3,
    "isAdvertisement": false,
    "imageUrl": "https://lh3.googleusercontent.com/gps-cs-s/AG0ilSyiP9JpOhMjQMHCF3CodGPb5GzPh8RRbCm9iDA3ML1NdyP9Fb0CYqRmgWDmJTp_hgF-zVUC6etQ3hfeHH6XFtjlS07hpD_Adm3nULWpGOSj9AyvKEurmvAzEHk1UJL9n08E1lHT=w408-h725-k-no",
    "kgmid": "/g/11fm54w9n1"
  },
  {
    "title": "Turning khaja ghar",
    "price": null,
    "categoryName": "Tea store",
    "address": "Anantalingeshwar 44600, Nepal",
    "neighborhood": "Balkot",
    "street": null,
    "city": "Anantalingeshwar",
    "postalCode": "44600",
    "state": null,
    "countryCode": "NP",
    "phone": "+977 981-3239889",
    "phoneUnformatted": "+9779813239889",
    "claimThisBusiness": false,
    "location": {
      "lat": 27.665344,
      "lng": 85.3747349
    },
    "totalScore": 3.7,
    "permanentlyClosed": false,
    "temporarilyClosed": false,
    "placeId": "ChIJJfo33Mkb6zkRLokC8gkCPdk",
    "categories": [
      "Tea store"
    ],
    "fid": "0x39eb1bc9dc37fa25:0xd93d0209f202892e",
    "cid": "15653670121547925806",
    "reviewsCount": 6,
    "reviewsDistribution": {
      "oneStar": 1,
      "twoStar": 0,
      "threeStar": 1,
      "fourStar": 2,
      "fiveStar": 2
    },
    "imagesCount": 13,
    "imageCategories": [],
    "scrapedAt": "2025-11-14T09:52:47.121Z",
    "googleFoodUrl": null,
    "hotelAds": [],
    "openingHours": [
      {
        "day": "Monday",
        "hours": "7 AM to 8 PM"
      },
      {
        "day": "Tuesday",
        "hours": "7 AM to 8 PM"
      },
      {
        "day": "Wednesday",
        "hours": "7 AM to 8 PM"
      },
      {
        "day": "Thursday",
        "hours": "7 AM to 8 PM"
      },
      {
        "day": "Friday",
        "hours": "7 AM to 8 PM"
      },
      {
        "day": "Saturday",
        "hours": "7 AM to 8 PM"
      },
      {
        "day": "Sunday",
        "hours": "7 AM to 8 PM"
      }
    ],
    "peopleAlsoSearch": [],
    "placesTags": [],
    "reviewsTags": [],
    "gasPrices": [],
    "url": "https://www.google.com/maps/search/?api=1&query=Turning%20khaja%20ghar&query_place_id=ChIJJfo33Mkb6zkRLokC8gkCPdk",
    "searchPageUrl": "https://www.google.com/maps/search/coffee%20store/@27.664893497689192,85.37957397800257,17z?hl=en",
    "searchString": "coffee store",
    "language": "en",
    "rank": 30,
    "isAdvertisement": false,
    "imageUrl": "https://lh3.googleusercontent.com/gps-cs-s/AG0ilSxtF8liqVJOd-cWaDkZsYGNgTgxQm4oy6vEW-mNTEhk1q-tAuxBUkFHxSXTpg432kYihGhqFUJWzOJdfMYFWzD9X-OwbFaWdx7wuGNH4T-FYeYXijcnEtRZPH4ma2L4PdAv6szi=w408-h306-k-no",
    "kgmid": "/g/11frtbkhvf"
  },
  {
    "title": "Ghimire Chowk",
    "price": null,
    "categoryName": "Tea store",
    "address": "M97M+H67, Anantalingeshwar 44800, Nepal",
    "neighborhood": "Balkot",
    "street": "M97M+H67",
    "city": "Anantalingeshwar",
    "postalCode": "44800",
    "state": null,
    "countryCode": "NP",
    "phone": "+977 974-1078502",
    "phoneUnformatted": "+9779741078502",
    "claimThisBusiness": false,
    "location": {
      "lat": 27.6639375,
      "lng": 85.3830625
    },
    "totalScore": 4.2,
    "permanentlyClosed": false,
    "temporarilyClosed": false,
    "placeId": "ChIJZd-MMZYb6zkRIm73RkhzzaY",
    "categories": [
      "Tea store"
    ],
    "fid": "0x39eb1b96318cdf65:0xa6cd734846f76e22",
    "cid": "12019389734787182114",
    "reviewsCount": 9,
    "imagesCount": 6,
    "imageCategories": [],
    "scrapedAt": "2025-11-14T09:52:51.258Z",
    "googleFoodUrl": null,
    "hotelAds": [],
    "openingHours": [
      {
        "day": "Monday",
        "hours": "Open 24 hours"
      },
      {
        "day": "Tuesday",
        "hours": "Open 24 hours"
      },
      {
        "day": "Wednesday",
        "hours": "Open 24 hours"
      },
      {
        "day": "Thursday",
        "hours": "Open 24 hours"
      },
      {
        "day": "Friday",
        "hours": "Open 24 hours"
      },
      {
        "day": "Saturday",
        "hours": "Open 24 hours"
      },
      {
        "day": "Sunday",
        "hours": "Open 24 hours"
      }
    ],
    "peopleAlsoSearch": [],
    "placesTags": [],
    "reviewsTags": [],
    "additionalInfo": {
      "Service options": [
        {
          "Takeout": true
        },
        {
          "Dine-in": true
        }
      ],
      "Payments": [
        {
          "NFC mobile payments": true
        }
      ]
    },
    "gasPrices": [],
    "url": "https://www.google.com/maps/search/?api=1&query=Ghimire%20Chowk&query_place_id=ChIJZd-MMZYb6zkRIm73RkhzzaY",
    "searchPageUrl": "https://www.google.com/maps/search/tea%20store/@27.664893497689192,85.37957397800257,17z?hl=en",
    "searchString": "tea store",
    "language": "en",
    "rank": 2,
    "isAdvertisement": false,
    "imageUrl": "https://lh3.googleusercontent.com/gps-cs-s/AG0ilSwc1ozQqKq4INFPbTL63sL2_Yc29PjcPW0LzJnv7el7-vf0JLdn4dkrZ1ip2CATAneg6ntC-XeYIxVaP2teyUduY2wMNDq_NuF61zBSDOBxIWxtlDnBRivN8ZhJGSb3gCVfM2J6cw=w408-h914-k-no",
    "kgmid": "/g/11v3ljgyrs"
  },
  {
    "title": "Ram Store",
    "price": null,
    "categoryName": "Tea store",
    "address": "M97H+97Q, Anantalingeshwar, Nepal",
    "neighborhood": "Balkot",
    "street": "M97H+97Q",
    "city": "Anantalingeshwar",
    "postalCode": null,
    "state": null,
    "countryCode": "NP",
    "phone": "+977 976-8755744",
    "phoneUnformatted": "+9779768755744",
    "claimThisBusiness": true,
    "location": {
      "lat": 27.6634556,
      "lng": 85.3782481
    },
    "permanentlyClosed": false,
    "temporarilyClosed": false,
    "placeId": "ChIJW00RcQAb6zkRbix81sbhvbc",
    "categories": [
      "Tea store"
    ],
    "fid": "0x39eb1b0071114d5b:0xb7bde1c6d67c2c6e",
    "cid": "13239986723657362542",
    "reviewsCount": 0,
    "imagesCount": 1,
    "imageCategories": [],
    "scrapedAt": "2025-11-14T09:52:51.258Z",
    "googleFoodUrl": null,
    "hotelAds": [],
    "openingHours": [],
    "peopleAlsoSearch": [],
    "placesTags": [],
    "reviewsTags": [],
    "gasPrices": [],
    "url": "https://www.google.com/maps/search/?api=1&query=Ram%20Store&query_place_id=ChIJW00RcQAb6zkRbix81sbhvbc",
    "searchPageUrl": "https://www.google.com/maps/search/tea%20store/@27.664893497689192,85.37957397800257,17z?hl=en",
    "searchString": "tea store",
    "language": "en",
    "rank": 5,
    "isAdvertisement": false,
    "imageUrl": "https://streetviewpixels-pa.googleapis.com/v1/thumbnail?panoid=fuXzdV-rCIrN5txyiDMUyw&cb_client=search.gws-prod.gps&w=408&h=240&yaw=34.936157&pitch=0&thumbfov=100",
    "kgmid": "/g/11x1zshntr"
  },
  {
    "title": "Deepen KhajaGhar",
    "price": null,
    "categoryName": "Tea store",
    "address": "M96G+57H, Anantalingeshwar, Nepal",
    "neighborhood": "Balkot",
    "street": "M96G+57H",
    "city": "Anantalingeshwar",
    "postalCode": null,
    "state": null,
    "countryCode": "NP",
    "phone": "+977 986-0411600",
    "phoneUnformatted": "+9779860411600",
    "claimThisBusiness": true,
    "location": {
      "lat": 27.6601844,
      "lng": 85.3746558
    },
    "permanentlyClosed": false,
    "temporarilyClosed": false,
    "placeId": "ChIJ0f9SalcR6zkRlanaCqS4JSw",
    "categories": [
      "Tea store"
    ],
    "fid": "0x39eb11576a52ffd1:0x2c25b8a40adaa995",
    "cid": "3181151726503373205",
    "reviewsCount": 0,
    "imagesCount": 2,
    "imageCategories": [],
    "scrapedAt": "2025-11-14T09:52:51.258Z",
    "googleFoodUrl": null,
    "hotelAds": [],
    "openingHours": [
      {
        "day": "Monday",
        "hours": "7 to 9:29 AM"
      },
      {
        "day": "Tuesday",
        "hours": "7 to 9:29 AM"
      },
      {
        "day": "Wednesday",
        "hours": "7 to 9:29 AM"
      },
      {
        "day": "Thursday",
        "hours": "7 to 9:29 AM"
      },
      {
        "day": "Friday",
        "hours": "7 to 9:29 AM"
      },
      {
        "day": "Saturday",
        "hours": "7 to 9:29 AM"
      },
      {
        "day": "Sunday",
        "hours": "7 to 9:29 AM"
      }
    ],
    "peopleAlsoSearch": [],
    "placesTags": [],
    "reviewsTags": [],
    "additionalInfo": {
      "Service options": [
        {
          "Takeout": true
        },
        {
          "Dine-in": true
        }
      ]
    },
    "gasPrices": [],
    "url": "https://www.google.com/maps/search/?api=1&query=Deepen%20KhajaGhar&query_place_id=ChIJ0f9SalcR6zkRlanaCqS4JSw",
    "searchPageUrl": "https://www.google.com/maps/search/tea%20store/@27.664893497689192,85.37957397800257,17z?hl=en",
    "searchString": "tea store",
    "language": "en",
    "rank": 13,
    "isAdvertisement": false,
    "imageUrl": "https://lh3.googleusercontent.com/gps-cs-s/AG0ilSwwb6taDczFsJzkBQBbww5XPRYcvC1mgP7mtywfSqqXX85LmR9C85vuwqcUizkWNxHbvG-O0leIv9fqn155_SSxJZ0fwqvUFqlOee437OB_itD5SCEXdnOmsslF1KDPAd2WOFIR=w426-h240-k-no",
    "kgmid": "/g/11t_wmm31b"
  },
  {
    "title": "Ma",
    "price": null,
    "categoryName": "Tea store",
    "address": "M989+456, Anantalingeshwar 44600, Nepal",
    "neighborhood": "Balkot",
    "street": "M989+456",
    "city": "Anantalingeshwar",
    "postalCode": "44600",
    "state": null,
    "countryCode": "NP",
    "claimThisBusiness": true,
    "location": {
      "lat": 27.6652779,
      "lng": 85.3678655
    },
    "permanentlyClosed": false,
    "temporarilyClosed": false,
    "placeId": "ChIJS9yucAAb6zkRIhjnhqXk_Vg",
    "categories": [
      "Tea store"
    ],
    "fid": "0x39eb1b0070aedc4b:0x58fde4a586e71822",
    "cid": "6412532844029483042",
    "reviewsCount": 0,
    "imagesCount": 1,
    "imageCategories": [],
    "scrapedAt": "2025-11-14T09:53:26.433Z",
    "googleFoodUrl": null,
    "hotelAds": [],
    "openingHours": [],
    "peopleAlsoSearch": [],
    "placesTags": [],
    "reviewsTags": [],
    "gasPrices": [],
    "url": "https://www.google.com/maps/search/?api=1&query=Ma&query_place_id=ChIJS9yucAAb6zkRIhjnhqXk_Vg",
    "searchPageUrl": "https://www.google.com/maps/search/tea%20store/@27.664893497689192,85.37098877360309,17z?hl=en",
    "searchString": "tea store",
    "language": "en",
    "rank": 2,
    "isAdvertisement": false,
    "imageUrl": "https://streetviewpixels-pa.googleapis.com/v1/thumbnail?panoid=NV3tJS1CnxJGB8suKVHADQ&cb_client=search.gws-prod.gps&w=408&h=240&yaw=14.922024&pitch=0&thumbfov=100",
    "kgmid": "/g/11xflx2xgl"
  },
  {
    "title": "Kamal dai ko tea pasal",
    "price": null,
    "categoryName": "Tea store",
    "address": "M98V+92F, Suryabinayak, Nepal",
    "neighborhood": "Dadhikot",
    "street": "M98V+92F",
    "city": "Suryabinayak",
    "postalCode": null,
    "state": null,
    "countryCode": "NP",
    "claimThisBusiness": true,
    "location": {
      "lat": 27.665948,
      "lng": 85.392561
    },
    "permanentlyClosed": false,
    "temporarilyClosed": false,
    "placeId": "ChIJ9_oNfwAb6zkRJzrP1cAB4R4",
    "categories": [
      "Tea store"
    ],
    "fid": "0x39eb1b007f0dfaf7:0x1ee101c0d5cf3a27",
    "cid": "2225061618630212135",
    "reviewsCount": 0,
    "imagesCount": null,
    "imageCategories": [],
    "scrapedAt": "2025-11-14T09:53:48.473Z",
    "googleFoodUrl": null,
    "hotelAds": [],
    "openingHours": [],
    "peopleAlsoSearch": [],
    "placesTags": [],
    "reviewsTags": [],
    "gasPrices": [],
    "url": "https://www.google.com/maps/search/?api=1&query=Kamal%20dai%20ko%20tea%20pasal&query_place_id=ChIJ9_oNfwAb6zkRJzrP1cAB4R4",
    "searchPageUrl": "https://www.google.com/maps/search/tea%20store/@27.664893497689192,85.39674438680153,17z?hl=en",
    "searchString": "tea store",
    "language": "en",
    "rank": 4,
    "isAdvertisement": false,
    "kgmid": "/g/11m5p95p6d"
  },
  {
    "title": "Duwakot chiya chautari",
    "price": null,
    "categoryName": "Tea store",
    "address": "MCJ5+P95, Changunarayan 44800, Nepal",
    "neighborhood": "Duwakot",
    "street": "MCJ5+P95",
    "city": "Changunarayan",
    "postalCode": null,
    "state": null,
    "countryCode": "NP",
    "claimThisBusiness": true,
    "location": {
      "lat": 27.6816938,
      "lng": 85.4103897
    },
    "permanentlyClosed": false,
    "temporarilyClosed": false,
    "placeId": "ChIJF3hQFwAb6zkRJ3T2XFkGaEk",
    "categories": [
      "Tea store"
    ],
    "fid": "0x39eb1b0017507817:0x496806595cf67427",
    "cid": "5289484743228159015",
    "reviewsCount": 0,
    "imagesCount": 1,
    "imageCategories": [],
    "scrapedAt": "2025-11-14T09:54:04.068Z",
    "googleFoodUrl": null,
    "hotelAds": [],
    "openingHours": [],
    "peopleAlsoSearch": [],
    "placesTags": [],
    "reviewsTags": [],
    "gasPrices": [],
    "url": "https://www.google.com/maps/search/?api=1&query=Duwakot%20chiya%20chautari&query_place_id=ChIJF3hQFwAb6zkRJ3T2XFkGaEk",
    "searchPageUrl": "https://www.google.com/maps/search/tea%20store/@27.672500000000003,85.41391479560049,17z?hl=en",
    "searchString": "tea store",
    "language": "en",
    "rank": 13,
    "isAdvertisement": false,
    "imageUrl": "https://streetviewpixels-pa.googleapis.com/v1/thumbnail?panoid=lDNfYNwh4Rl8oSZ3qRbF_w&cb_client=search.gws-prod.gps&w=408&h=240&yaw=118.571175&pitch=0&thumbfov=100",
    "kgmid": "/g/11x5bspfyf"
  },
  {
    "title": "Tupi Baje Chiya Point",
    "price": null,
    "categoryName": "Tea store",
    "address": "M9CM+C3G, Anantalingeshwar, Nepal",
    "neighborhood": "Balkot",
    "street": "M9CM+C3G",
    "city": "Anantalingeshwar",
    "postalCode": null,
    "state": null,
    "countryCode": "NP",
    "phone": "+977 984-9637410",
    "phoneUnformatted": "+9779849637410",
    "claimThisBusiness": false,
    "location": {
      "lat": 27.6710857,
      "lng": 85.382694
    },
    "permanentlyClosed": false,
    "temporarilyClosed": false,
    "placeId": "ChIJx-TTEMUb6zkR4Zd8N8zFyxQ",
    "categories": [
      "Tea store"
    ],
    "fid": "0x39eb1bc510d3e4c7:0x14cbc5cc377c97e1",
    "cid": "1498508781925734369",
    "reviewsCount": 0,
    "imagesCount": 1,
    "imageCategories": [],
    "scrapedAt": "2025-11-14T09:54:32.574Z",
    "googleFoodUrl": null,
    "hotelAds": [],
    "openingHours": [
      {
        "day": "Monday",
        "hours": "6 AM to 9:30 PM"
      },
      {
        "day": "Tuesday",
        "hours": "6 AM to 9:30 PM"
      },
      {
        "day": "Wednesday",
        "hours": "6 AM to 9:30 PM"
      },
      {
        "day": "Thursday",
        "hours": "6 AM to 9:30 PM"
      },
      {
        "day": "Friday",
        "hours": "6 AM to 9:30 PM"
      },
      {
        "day": "Saturday",
        "hours": "6 AM to 9:30 PM"
      },
      {
        "day": "Sunday",
        "hours": "6 AM to 9:30 PM"
      }
    ],
    "peopleAlsoSearch": [],
    "placesTags": [],
    "reviewsTags": [],
    "gasPrices": [],
    "url": "https://www.google.com/maps/search/?api=1&query=Tupi%20Baje%20Chiya%20Point&query_place_id=ChIJx-TTEMUb6zkR4Zd8N8zFyxQ",
    "searchPageUrl": "https://www.google.com/maps/search/tea%20store/@27.6693444,85.3817081,17.827499006956206z?hl=en",
    "searchString": "tea store",
    "language": "en",
    "rank": 14,
    "isAdvertisement": false,
    "imageUrl": "https://streetviewpixels-pa.googleapis.com/v1/thumbnail?panoid=mrV-w9sQEkPsFcKzYYFQXQ&cb_client=search.gws-prod.gps&w=408&h=240&yaw=334.40475&pitch=0&thumbfov=100",
    "kgmid": "/g/11yfktb19_"
  },
  {
    "title": "Ganesh Chiya Pasal",
    "price": null,
    "categoryName": "Tea store",
    "address": "MC4F+9JM, Suryabinayak, Nepal",
    "neighborhood": "Sipadol",
    "street": "MC4F+9JM",
    "city": "Suryabinayak",
    "postalCode": null,
    "state": null,
    "countryCode": "NP",
    "claimThisBusiness": true,
    "location": {
      "lat": 27.6559513,
      "lng": 85.4240494
    },
    "permanentlyClosed": false,
    "temporarilyClosed": false,
    "placeId": "ChIJTVtV5SoR6zkR1YF46DiTxsA",
    "categories": [
      "Tea store"
    ],
    "fid": "0x39eb112ae5555b4d:0xc0c69338e87881d5",
    "cid": "13890951973298536917",
    "reviewsCount": 0,
    "imagesCount": 2,
    "imageCategories": [],
    "scrapedAt": "2025-11-14T09:54:35.946Z",
    "googleFoodUrl": null,
    "hotelAds": [],
    "openingHours": [],
    "peopleAlsoSearch": [],
    "placesTags": [],
    "reviewsTags": [],
    "gasPrices": [],
    "url": "https://www.google.com/maps/search/?api=1&query=Ganesh%20Chiya%20Pasal&query_place_id=ChIJTVtV5SoR6zkR1YF46DiTxsA",
    "searchPageUrl": "https://www.google.com/maps/search/tea%20store/@27.6592943,85.4275082,17.82763166509174z?hl=en",
    "searchString": "tea store",
    "language": "en",
    "rank": 4,
    "isAdvertisement": false,
    "imageUrl": "https://streetviewpixels-pa.googleapis.com/v1/thumbnail?panoid=tr9VsWiztyFZnxx6WeuIfQ&cb_client=search.gws-prod.gps&w=408&h=240&yaw=155.67377&pitch=0&thumbfov=100",
    "kgmid": "/g/11rgntdc28"
  },
  {
    "title": "Orenda Square",
    "price": null,
    "categoryName": "Tea store",
    "address": "M9JP+29P, Madhyapur Thimi 44600, Nepal",
    "neighborhood": null,
    "street": "M9JP+29P",
    "city": "Madhyapur Thimi",
    "postalCode": "44600",
    "state": null,
    "countryCode": "NP",
    "claimThisBusiness": true,
    "location": {
      "lat": 27.6800967,
      "lng": 85.3859665
    },
    "totalScore": 5,
    "permanentlyClosed": false,
    "temporarilyClosed": false,
    "placeId": "ChIJCSs8eAAb6zkRZrnEAtpn5a4",
    "categories": [
      "Tea store"
    ],
    "fid": "0x39eb1b00783c2b09:0xaee567da02c4b966",
    "cid": "12602593318313179494",
    "reviewsCount": 1,
    "imagesCount": 3,
    "imageCategories": [],
    "scrapedAt": "2025-11-11T10:07:55.495Z",
    "googleFoodUrl": null,
    "hotelAds": [],
    "openingHours": [
      {
        "day": "Monday",
        "hours": "6 AM to 9 PM"
      },
      {
        "day": "Tuesday",
        "hours": "6 AM to 9 PM"
      },
      {
        "day": "Wednesday",
        "hours": "6 AM to 9 PM"
      },
      {
        "day": "Thursday",
        "hours": "6 AM to 9 PM"
      },
      {
        "day": "Friday",
        "hours": "6 AM to 9 PM"
      },
      {
        "day": "Saturday",
        "hours": "6 AM to 9 PM"
      },
      {
        "day": "Sunday",
        "hours": "6 AM to 9 PM"
      }
    ],
    "peopleAlsoSearch": [],
    "placesTags": [],
    "reviewsTags": [],
    "gasPrices": [],
    "url": "https://www.google.com/maps/search/?api=1&query=Orenda%20Square&query_place_id=ChIJCSs8eAAb6zkRZrnEAtpn5a4",
    "searchPageUrl": "https://www.google.com/maps/search/tea%20store/@27.70154040318183,85.39182508831537,14z?hl=en",
    "searchString": "tea store",
    "language": "en",
    "rank": 6,
    "isAdvertisement": false,
    "imageUrl": "https://lh3.googleusercontent.com/gps-cs-s/AG0ilSzrd1XgM2QxkTeguR6cbtxqimip1wAyUnw4SU6xPK7GCsoHtG9sZIfHe64zRzMsdj1kCGkKV98XEN_UC1cunv9yv2ScerPGLBQaY_-6lSg5mE_gQ_TxxJ_eWUb8PQc6fFXMMWRdWavzMh_X=w408-h307-k-no",
    "kgmid": "/g/11x5r_dq4b"
  },
  {
    "title": "JHEEGU CHIYA CHEEN",
    "price": null,
    "categoryName": "Tea store",
    "address": "MCJ6+X4M, Pharsingtar-Hindunagar Rd, Changunarayan, Nepal",
    "neighborhood": "Duwakot",
    "street": "MCJ6+X4M, Pharsingtar-Hindunagar Rd",
    "city": "Changunarayan",
    "postalCode": null,
    "state": null,
    "countryCode": "NP",
    "claimThisBusiness": false,
    "location": {
      "lat": 27.6824864,
      "lng": 85.410321
    },
    "totalScore": 5,
    "permanentlyClosed": false,
    "temporarilyClosed": false,
    "placeId": "ChIJabdufgAb6zkRPWrgkkLc46c",
    "categories": [
      "Tea store"
    ],
    "fid": "0x39eb1b007e6eb769:0xa7e3dc4292e06a3d",
    "cid": "12097755202537417277",
    "reviewsCount": 3,
    "imagesCount": 8,
    "imageCategories": [],
    "scrapedAt": "2025-11-11T10:07:55.495Z",
    "googleFoodUrl": null,
    "hotelAds": [],
    "openingHours": [
      {
        "day": "Monday",
        "hours": "6 AM to 10 PM"
      },
      {
        "day": "Tuesday",
        "hours": "6 AM to 10 PM"
      },
      {
        "day": "Wednesday",
        "hours": "6 AM to 10 PM"
      },
      {
        "day": "Thursday",
        "hours": "6 AM to 10 PM"
      },
      {
        "day": "Friday",
        "hours": "6 AM to 10 PM"
      },
      {
        "day": "Saturday",
        "hours": "6 AM to 10 PM"
      },
      {
        "day": "Sunday",
        "hours": "6 AM to 10 PM"
      }
    ],
    "peopleAlsoSearch": [],
    "placesTags": [],
    "reviewsTags": [],
    "gasPrices": [],
    "url": "https://www.google.com/maps/search/?api=1&query=JHEEGU%20CHIYA%20CHEEN&query_place_id=ChIJabdufgAb6zkRPWrgkkLc46c",
    "searchPageUrl": "https://www.google.com/maps/search/tea%20store/@27.70154040318183,85.39182508831537,14z?hl=en",
    "searchString": "tea store",
    "language": "en",
    "rank": 8,
    "isAdvertisement": false,
    "imageUrl": "https://lh3.googleusercontent.com/p/AF1QipNZwGd8rYL2LyrM3hqRWAWQmXoLveaU7MG7dSKa=w408-h544-k-no",
    "kgmid": "/g/11xn56y96v"
  },
  {
    "title": "Karki store",
    "price": null,
    "categoryName": "Tea store",
    "address": "MCJC+52G, Changunarayan 44800, Nepal",
    "neighborhood": "Duwakot",
    "street": "MCJC+52G",
    "city": "Changunarayan",
    "postalCode": "44800",
    "state": null,
    "countryCode": "NP",
    "claimThisBusiness": true,
    "location": {
      "lat": 27.680823,
      "lng": 85.420006
    },
    "totalScore": 5,
    "permanentlyClosed": false,
    "temporarilyClosed": false,
    "placeId": "ChIJaxsBIQAb6zkRkWk0tQR9j7Q",
    "categories": [
      "Tea store"
    ],
    "fid": "0x39eb1b0021011b6b:0xb48f7d04b5346991",
    "cid": "13010755307670104465",
    "reviewsCount": 2,
    "imagesCount": 3,
    "imageCategories": [],
    "scrapedAt": "2025-11-11T10:07:55.495Z",
    "googleFoodUrl": null,
    "hotelAds": [],
    "openingHours": [],
    "peopleAlsoSearch": [],
    "placesTags": [],
    "reviewsTags": [],
    "gasPrices": [],
    "url": "https://www.google.com/maps/search/?api=1&query=Karki%20store&query_place_id=ChIJaxsBIQAb6zkRkWk0tQR9j7Q",
    "searchPageUrl": "https://www.google.com/maps/search/tea%20store/@27.70154040318183,85.39182508831537,14z?hl=en",
    "searchString": "tea store",
    "language": "en",
    "rank": 20,
    "isAdvertisement": false,
    "imageUrl": "https://lh3.googleusercontent.com/gps-cs-s/AG0ilSwlWUNQcWajJP6CqslIu65p5Hd7zFr6OYzCAsDpodn5geltPwhtuzf_zzKz0cg0PHHZDpAuDnAyXisEoyJ7GBzrn9L8FmLYQ0DdJb2qrijafR4S3KYyqeot03IyeOQrGvCkx9mfkq0jo1Y=w408-h544-k-no",
    "kgmid": "/g/11xw49rdrh"
  },
  {
    "title": "The chatpate & chiya junction",
    "price": null,
    "categoryName": "Tea store",
    "address": "MCFQ+X8C, Bhaktapur 44800, Nepal",
    "neighborhood": null,
    "street": "MCFQ+X8C",
    "city": "Bhaktapur",
    "postalCode": "44800",
    "state": null,
    "countryCode": "NP",
    "phone": "+977 981-0320603",
    "phoneUnformatted": "+9779810320603",
    "claimThisBusiness": true,
    "location": {
      "lat": 27.6748902,
      "lng": 85.4382099
    },
    "totalScore": 4.9,
    "permanentlyClosed": false,
    "temporarilyClosed": false,
    "placeId": "ChIJVZtYOwAF6zkRPVAa1-hQ6rI",
    "categories": [
      "Tea store"
    ],
    "fid": "0x39eb05003b589b55:0xb2ea50e8d71a503d",
    "cid": "12892205844272926781",
    "reviewsCount": 9,
    "reviewsDistribution": {
      "oneStar": 0,
      "twoStar": 0,
      "threeStar": 0,
      "fourStar": 1,
      "fiveStar": 8
    },
    "imagesCount": 13,
    "imageCategories": [],
    "scrapedAt": "2025-11-11T10:07:56.586Z",
    "googleFoodUrl": null,
    "hotelAds": [],
    "openingHours": [
      {
        "day": "Monday",
        "hours": "5:30 AM to 8 PM"
      },
      {
        "day": "Tuesday",
        "hours": "5:30 AM to 8 PM"
      },
      {
        "day": "Wednesday",
        "hours": "5:30 AM to 8 PM"
      },
      {
        "day": "Thursday",
        "hours": "5:30 AM to 8 PM"
      },
      {
        "day": "Friday",
        "hours": "5:30 AM to 8 PM"
      },
      {
        "day": "Saturday",
        "hours": "5:30 AM to 8 PM"
      },
      {
        "day": "Sunday",
        "hours": "5:30 AM to 8 PM"
      }
    ],
    "peopleAlsoSearch": [],
    "placesTags": [],
    "reviewsTags": [],
    "gasPrices": [],
    "url": "https://www.google.com/maps/search/?api=1&query=The%20chatpate%20%26%20chiya%20junction&query_place_id=ChIJVZtYOwAF6zkRPVAa1-hQ6rI",
    "searchPageUrl": "https://www.google.com/maps/search/tea%20store/@27.70154040318183,85.39182508831537,14z?hl=en",
    "searchString": "tea store",
    "language": "en",
    "rank": 38,
    "isAdvertisement": false,
    "imageUrl": "https://lh3.googleusercontent.com/gps-cs-s/AG0ilSxsKAl17JAxLa5pPCXkwdjOTms8jdqOE7rfyQkl8QooOcSz4nYQir0KpN2oPaz-wk1il7cqpJ3WOgFKABHvkUopJLw4jLra1SDpesil0c64fFaaa5lYm4VhyxtKLL-yFAFLNxmZlUYARHRC=w408-h544-k-no",
    "kgmid": "/g/11xvpzqp2h"
  },
  {
    "title": "Chiya Sangai: Best Tea Shop in Bhaktapur",
    "price": null,
    "categoryName": "Tea store",
    "address": "Kamalbinayak, Bhaktapur 44800, Nepal",
    "neighborhood": null,
    "street": "Kamalbinayak",
    "city": "Bhaktapur",
    "postalCode": "44800",
    "state": null,
    "countryCode": "NP",
    "website": "https://www.tiktok.com/@chiya.sangai",
    "phone": "+977 986-0808627",
    "phoneUnformatted": "+9779860808627",
    "claimThisBusiness": false,
    "location": {
      "lat": 27.6769293,
      "lng": 85.4377586
    },
    "totalScore": 5,
    "permanentlyClosed": false,
    "temporarilyClosed": false,
    "placeId": "ChIJR1qP4JAF6zkR4AlmauLOCG4",
    "categories": [
      "Tea store",
      "Cafe",
      "Coffee shop"
    ],
    "fid": "0x39eb0590e08f5a47:0x6e08cee26a6609e0",
    "cid": "7928814615828761056",
    "reviewsCount": 1,
    "reviewsDistribution": {
      "oneStar": 0,
      "twoStar": 0,
      "threeStar": 0,
      "fourStar": 0,
      "fiveStar": 1
    },
    "imagesCount": 34,
    "imageCategories": [],
    "scrapedAt": "2025-11-11T10:07:57.720Z",
    "googleFoodUrl": null,
    "hotelAds": [],
    "openingHours": [
      {
        "day": "Monday",
        "hours": "6 AM to 10 PM"
      },
      {
        "day": "Tuesday",
        "hours": "6 AM to 10 PM"
      },
      {
        "day": "Wednesday",
        "hours": "6 AM to 10 PM"
      },
      {
        "day": "Thursday",
        "hours": "6 AM to 10 PM"
      },
      {
        "day": "Friday",
        "hours": "6 AM to 10 PM"
      },
      {
        "day": "Saturday",
        "hours": "6 AM to 10 PM"
      },
      {
        "day": "Sunday",
        "hours": "6 AM to 10 PM"
      }
    ],
    "peopleAlsoSearch": [],
    "placesTags": [],
    "reviewsTags": [],
    "additionalInfo": {
      "Service options": [
        {
          "In-store pickup": true
        },
        {
          "In-store shopping": true
        },
        {
          "Onsite services": true
        },
        {
          "Takeout": true
        },
        {
          "Dine-in": true
        },
        {
          "Delivery": false
        }
      ],
      "Accessibility": [
        {
          "Assistive hearing loop": false
        },
        {
          "Wheelchair accessible entrance": false
        },
        {
          "Wheelchair accessible parking lot": false
        },
        {
          "Wheelchair accessible restroom": false
        },
        {
          "Wheelchair accessible seating": false
        }
      ],
      "Amenities": [
        {
          "Wi-Fi": true
        },
        {
          "Free Wi-Fi": true
        }
      ],
      "Crowd": [
        {
          "LGBTQ+ friendly": true
        },
        {
          "Transgender safespace": true
        }
      ],
      "Payments": [
        {
          "NFC mobile payments": true
        }
      ],
      "Parking": [
        {
          "Free parking garage": true
        },
        {
          "Free parking lot": true
        },
        {
          "Free street parking": true
        },
        {
          "On-site parking": true
        },
        {
          "Paid parking garage": true
        }
      ]
    },
    "gasPrices": [],
    "url": "https://www.google.com/maps/search/?api=1&query=Chiya%20Sangai%3A%20Best%20Tea%20Shop%20in%20Bhaktapur&query_place_id=ChIJR1qP4JAF6zkR4AlmauLOCG4",
    "searchPageUrl": "https://www.google.com/maps/search/tea%20store/@27.70154040318183,85.39182508831537,14z?hl=en",
    "searchString": "tea store",
    "language": "en",
    "rank": 58,
    "isAdvertisement": false,
    "imageUrl": "https://lh3.googleusercontent.com/gps-cs-s/AG0ilSysjlUDpnFaST_Ot6Yeuq9ganTSJYe_A3SMwmzCaMTSWP2KFycQ7eZi5RjrFWl2tJgjcawsQRXfAazdcp-ZSlx4G-RNHVG6I0Nz3Wp1EjbNjHQ5ulyvQtlHDo3gZHlWzuC_F2X-kFsG7J9Q=w408-h306-k-no",
    "kgmid": "/g/11x_q83hq0"
  },
  {
    "title": "Hot duck Brothers point",
    "price": null,
    "categoryName": "Tea store",
    "address": "MCM6+R9X, Rudraksha Rd, Changunarayan, Nepal",
    "neighborhood": "Duwakot",
    "street": "MCM6+R9X, Rudraksha Rd",
    "city": "Changunarayan",
    "postalCode": null,
    "state": null,
    "countryCode": "NP",
    "claimThisBusiness": true,
    "location": {
      "lat": 27.6846042,
      "lng": 85.4109941
    },
    "totalScore": 5,
    "permanentlyClosed": false,
    "temporarilyClosed": false,
    "placeId": "ChIJk5KPG2Ib6zkRzV3_bl3Xhag",
    "categories": [
      "Tea store"
    ],
    "fid": "0x39eb1b621b8f9293:0xa885d75d6eff5dcd",
    "cid": "12143348766568570317",
    "reviewsCount": 2,
    "reviewsDistribution": {
      "oneStar": 0,
      "twoStar": 0,
      "threeStar": 0,
      "fourStar": 0,
      "fiveStar": 2
    },
    "imagesCount": 4,
    "imageCategories": [],
    "scrapedAt": "2025-11-11T10:07:58.876Z",
    "googleFoodUrl": null,
    "hotelAds": [],
    "openingHours": [],
    "peopleAlsoSearch": [],
    "placesTags": [],
    "reviewsTags": [],
    "additionalInfo": {
      "Service options": [
        {
          "Takeout": true
        }
      ]
    },
    "gasPrices": [],
    "url": "https://www.google.com/maps/search/?api=1&query=Hot%20duck%20Brothers%20point&query_place_id=ChIJk5KPG2Ib6zkRzV3_bl3Xhag",
    "searchPageUrl": "https://www.google.com/maps/search/tea%20store/@27.70154040318183,85.39182508831537,14z?hl=en",
    "searchString": "tea store",
    "language": "en",
    "rank": 77,
    "isAdvertisement": false,
    "imageUrl": "https://lh3.googleusercontent.com/gps-cs-s/AG0ilSyV7pTWODcPmHPKzbi8CbQ1H5wWESxB18cDMjLtcIB-4maKDYFcnPUU6U2Wj01bNbzKRuJ7GTYNuVALs-yZf7RWZoJz7OTIak-bZku5XujHm3xXmKI37kVPBNTtcDAitiq-qcU5Qw=w408-h544-k-no",
    "kgmid": "/g/11qnt5lmpz"
  },
  {
    "title": "Garud's Cottage",
    "price": null,
    "categoryName": "Tea store",
    "address": "PC6C+4J2, Changunarayan 44600, Nepal",
    "neighborhood": null,
    "street": "PC6C+4J2",
    "city": "Changunarayan",
    "postalCode": null,
    "state": null,
    "countryCode": "NP",
    "phone": "+977 984-9425065",
    "phoneUnformatted": "+9779849425065",
    "claimThisBusiness": true,
    "location": {
      "lat": 27.7102618,
      "lng": 85.4215296
    },
    "totalScore": 5,
    "permanentlyClosed": false,
    "temporarilyClosed": false,
    "placeId": "ChIJfXxy7TEb6zkRdIzqFHFeOuw",
    "categories": [
      "Tea store"
    ],
    "fid": "0x39eb1b31ed727c7d:0xec3a5e7114ea8c74",
    "cid": "17022021581375442036",
    "reviewsCount": 5,
    "reviewsDistribution": {
      "oneStar": 0,
      "twoStar": 0,
      "threeStar": 0,
      "fourStar": 0,
      "fiveStar": 5
    },
    "imagesCount": 12,
    "imageCategories": [],
    "scrapedAt": "2025-11-11T10:08:00.267Z",
    "googleFoodUrl": null,
    "hotelAds": [],
    "openingHours": [
      {
        "day": "Monday",
        "hours": "7:30 AM to 9 PM"
      },
      {
        "day": "Tuesday",
        "hours": "7:30 AM to 9 PM"
      },
      {
        "day": "Wednesday",
        "hours": "7:30 AM to 9 PM"
      },
      {
        "day": "Thursday",
        "hours": "7:30 AM to 9 PM"
      },
      {
        "day": "Friday",
        "hours": "7:30 AM to 9 PM"
      },
      {
        "day": "Saturday",
        "hours": "7:30 AM to 9 PM"
      },
      {
        "day": "Sunday",
        "hours": "7:30 AM to 9 PM"
      }
    ],
    "peopleAlsoSearch": [],
    "placesTags": [],
    "reviewsTags": [],
    "additionalInfo": {
      "Service options": [
        {
          "Takeout": true
        },
        {
          "Dine-in": true
        }
      ]
    },
    "gasPrices": [],
    "url": "https://www.google.com/maps/search/?api=1&query=Garud's%20Cottage&query_place_id=ChIJfXxy7TEb6zkRdIzqFHFeOuw",
    "searchPageUrl": "https://www.google.com/maps/search/tea%20store/@27.70154040318183,85.39182508831537,14z?hl=en",
    "searchString": "tea store",
    "language": "en",
    "rank": 93,
    "isAdvertisement": false,
    "imageUrl": "https://lh3.googleusercontent.com/gps-cs-s/AG0ilSySLqtetVi8XhYUNIwh2n-5DAtRtFm-NrtnOrT2FVeLEI0a-ZcyLlbfP2vaw6c72sSLvFtp956k1jT3GLTDMezPzepytzWH-vXs5bYc6ootO-4yBXxz1up61phHTo4W_2bicWKg0w=w426-h240-k-no",
    "kgmid": "/g/11m9qwc81j"
  },
  {
    "title": "Hamro khaza ghar",
    "price": null,
    "categoryName": "Tea store",
    "address": "MCH5+GCR, Unnamed Road, Changunarayan 44800, Nepal",
    "neighborhood": "Duwakot",
    "street": "MCH5+GCR, Unnamed Road",
    "city": "Changunarayan",
    "postalCode": "44800",
    "state": null,
    "countryCode": "NP",
    "phone": "+977 980-3532767",
    "phoneUnformatted": "+9779803532767",
    "claimThisBusiness": true,
    "location": {
      "lat": 27.6788593,
      "lng": 85.4085225
    },
    "totalScore": 3.7,
    "permanentlyClosed": false,
    "temporarilyClosed": false,
    "placeId": "ChIJL4QqP8Yb6zkRa7YLDEKSeIs",
    "categories": [
      "Tea store"
    ],
    "fid": "0x39eb1bc63f2a842f:0x8b7892420c0bb66b",
    "cid": "10049943380844852843",
    "reviewsCount": 3,
    "reviewsDistribution": {
      "oneStar": 0,
      "twoStar": 0,
      "threeStar": 1,
      "fourStar": 2,
      "fiveStar": 0
    },
    "imagesCount": 3,
    "imageCategories": [],
    "scrapedAt": "2025-11-11T10:08:01.817Z",
    "googleFoodUrl": null,
    "hotelAds": [],
    "openingHours": [],
    "peopleAlsoSearch": [],
    "placesTags": [],
    "reviewsTags": [],
    "additionalInfo": {
      "Service options": [
        {
          "Takeout": true
        }
      ]
    },
    "gasPrices": [],
    "url": "https://www.google.com/maps/search/?api=1&query=Hamro%20khaza%20ghar&query_place_id=ChIJL4QqP8Yb6zkRa7YLDEKSeIs",
    "searchPageUrl": "https://www.google.com/maps/search/tea%20store/@27.70154040318183,85.39182508831537,14z?hl=en",
    "searchString": "tea store",
    "language": "en",
    "rank": 109,
    "isAdvertisement": false,
    "imageUrl": "https://lh3.googleusercontent.com/gps-cs-s/AG0ilSy8pZzOEixWooICQMHK-OtQT1yOwUaO8nu9zREsmZA6ktBCgbzec4njpRLkXHHdarugSTW7oenG_PiPHhoyfne42v8I5G4gpBd4W76NrWtRPzsbqyU26xpjYRGEMuSkLzOvpqgzoA=w408-h306-k-no",
    "kgmid": "/g/11mwjt17vc"
  },
  {
    "title": "Arjun Tea Shop",
    "price": null,
    "categoryName": "Tea store",
    "address": "M9JQ+F75, Madhyapur Thimi 44600, Nepal",
    "neighborhood": null,
    "street": "M9JQ+F75",
    "city": "Madhyapur Thimi",
    "postalCode": null,
    "state": null,
    "countryCode": "NP",
    "claimThisBusiness": true,
    "location": {
      "lat": 27.6811319,
      "lng": 85.3882329
    },
    "totalScore": 4.2,
    "permanentlyClosed": false,
    "temporarilyClosed": false,
    "placeId": "ChIJlaEA5GIb6zkRNKFc5B1Xw-w",
    "categories": [
      "Tea store"
    ],
    "fid": "0x39eb1b62e400a195:0xecc3571de45ca134",
    "cid": "17060575599306514740",
    "reviewsCount": 5,
    "reviewsDistribution": {
      "oneStar": 0,
      "twoStar": 0,
      "threeStar": 2,
      "fourStar": 0,
      "fiveStar": 3
    },
    "imagesCount": 4,
    "imageCategories": [],
    "scrapedAt": "2025-11-11T10:08:01.817Z",
    "googleFoodUrl": null,
    "hotelAds": [],
    "openingHours": [],
    "peopleAlsoSearch": [],
    "placesTags": [],
    "reviewsTags": [],
    "additionalInfo": {
      "Service options": [
        {
          "Takeout": true
        }
      ]
    },
    "gasPrices": [],
    "url": "https://www.google.com/maps/search/?api=1&query=Arjun%20Tea%20Shop&query_place_id=ChIJlaEA5GIb6zkRNKFc5B1Xw-w",
    "searchPageUrl": "https://www.google.com/maps/search/tea%20store/@27.70154040318183,85.39182508831537,14z?hl=en",
    "searchString": "tea store",
    "language": "en",
    "rank": 112,
    "isAdvertisement": false,
    "imageUrl": "https://lh3.googleusercontent.com/gps-cs-s/AG0ilSzLfZ8cGWWBkC71HbKKmh8fVLa7NHp0udkD4BZo4lROIKv7tcK5ho05wNZw5v19UYkfQ335d3nE18R66qx65MVGIHkAiLpnJN1Y4Sw44_X5eTtw64phsF8h08ip5DWj7n8qWIEv=w408-h725-k-no",
    "kgmid": "/g/11vbr2t3zz"
  },
  {
    "title": "मङली को पसल",
    "price": null,
    "categoryName": "Tea store",
    "address": "PC37+7PR, Changunarayan 44600, Nepal",
    "neighborhood": "Duwakot",
    "street": "PC37+7PR",
    "city": "Changunarayan",
    "postalCode": "44600",
    "state": null,
    "countryCode": "NP",
    "claimThisBusiness": false,
    "location": {
      "lat": 27.7032375,
      "lng": 85.4142656
    },
    "permanentlyClosed": false,
    "temporarilyClosed": false,
    "placeId": "ChIJMX8SMZYb6zkRPUqRHYsoOZ0",
    "categories": [
      "Tea store"
    ],
    "fid": "0x39eb1b9631127f31:0x9d39288b1d914a3d",
    "cid": "11329130915588819517",
    "reviewsCount": 0,
    "imagesCount": 1,
    "imageCategories": [],
    "scrapedAt": "2025-11-11T10:08:01.817Z",
    "googleFoodUrl": null,
    "hotelAds": [],
    "openingHours": [],
    "peopleAlsoSearch": [],
    "placesTags": [],
    "reviewsTags": [],
    "gasPrices": [],
    "url": "https://www.google.com/maps/search/?api=1&query=%E0%A4%AE%E0%A4%99%E0%A4%B2%E0%A5%80%20%E0%A4%95%E0%A5%8B%20%E0%A4%AA%E0%A4%B8%E0%A4%B2&query_place_id=ChIJMX8SMZYb6zkRPUqRHYsoOZ0",
    "searchPageUrl": "https://www.google.com/maps/search/tea%20store/@27.70154040318183,85.39182508831537,14z?hl=en",
    "searchString": "tea store",
    "language": "en",
    "rank": 116,
    "isAdvertisement": false,
    "imageUrl": "https://streetviewpixels-pa.googleapis.com/v1/thumbnail?panoid=dVCvJtt8z_wfM_aK8uSPFw&cb_client=search.gws-prod.gps&w=408&h=240&yaw=242.5124&pitch=0&thumbfov=100",
    "kgmid": "/g/11sthzfz3r"
  },
  {
    "title": "Duwakot chiya chautari",
    "price": null,
    "categoryName": "Tea store",
    "address": "MCJ5+P95, Changunarayan 44800, Nepal",
    "neighborhood": "Duwakot",
    "street": "MCJ5+P95",
    "city": "Changunarayan",
    "postalCode": null,
    "state": null,
    "countryCode": "NP",
    "claimThisBusiness": true,
    "location": {
      "lat": 27.6816938,
      "lng": 85.4103897
    },
    "permanentlyClosed": false,
    "temporarilyClosed": false,
    "placeId": "ChIJF3hQFwAb6zkRJ3T2XFkGaEk",
    "categories": [
      "Tea store"
    ],
    "fid": "0x39eb1b0017507817:0x496806595cf67427",
    "cid": "5289484743228159015",
    "reviewsCount": 0,
    "imagesCount": 1,
    "imageCategories": [],
    "scrapedAt": "2025-11-11T10:08:03.209Z",
    "googleFoodUrl": null,
    "hotelAds": [],
    "openingHours": [],
    "peopleAlsoSearch": [],
    "placesTags": [],
    "reviewsTags": [],
    "gasPrices": [],
    "url": "https://www.google.com/maps/search/?api=1&query=Duwakot%20chiya%20chautari&query_place_id=ChIJF3hQFwAb6zkRJ3T2XFkGaEk",
    "searchPageUrl": "https://www.google.com/maps/search/tea%20store/@27.70154040318183,85.39182508831537,14z?hl=en",
    "searchString": "tea store",
    "language": "en",
    "rank": 132,
    "isAdvertisement": false,
    "imageUrl": "https://streetviewpixels-pa.googleapis.com/v1/thumbnail?panoid=lDNfYNwh4Rl8oSZ3qRbF_w&cb_client=search.gws-prod.gps&w=408&h=240&yaw=118.571175&pitch=0&thumbfov=100",
    "kgmid": "/g/11x5bspfyf"
  },
  {
    "title": "Chiya Kham",
    "price": null,
    "categoryName": "Tea store",
    "address": "Bhaktapur 44800, Nepal",
    "neighborhood": null,
    "street": null,
    "city": "Bhaktapur",
    "postalCode": "44800",
    "state": null,
    "countryCode": "NP",
    "phone": "+977 984-3578972",
    "phoneUnformatted": "+9779843578972",
    "claimThisBusiness": false,
    "location": {
      "lat": 27.6759822,
      "lng": 85.4337928
    },
    "permanentlyClosed": false,
    "temporarilyClosed": false,
    "placeId": "ChIJ0wQ6cE4b6zkR6_Yuh2ph4YU",
    "categories": [
      "Tea store"
    ],
    "fid": "0x39eb1b4e703a04d3:0x85e1616a872ef6eb",
    "cid": "9647098986966742763",
    "reviewsCount": 0,
    "imagesCount": 1,
    "imageCategories": [],
    "scrapedAt": "2025-11-11T10:08:03.209Z",
    "googleFoodUrl": null,
    "hotelAds": [],
    "openingHours": [],
    "peopleAlsoSearch": [],
    "placesTags": [],
    "reviewsTags": [],
    "gasPrices": [],
    "url": "https://www.google.com/maps/search/?api=1&query=Chiya%20Kham&query_place_id=ChIJ0wQ6cE4b6zkR6_Yuh2ph4YU",
    "searchPageUrl": "https://www.google.com/maps/search/tea%20store/@27.70154040318183,85.39182508831537,14z?hl=en",
    "searchString": "tea store",
    "language": "en",
    "rank": 133,
    "isAdvertisement": false,
    "imageUrl": "https://streetviewpixels-pa.googleapis.com/v1/thumbnail?panoid=NnL089zbj1T2q_dsTvGvuQ&cb_client=search.gws-prod.gps&w=408&h=240&yaw=66.90202&pitch=0&thumbfov=100",
    "kgmid": "/g/11x_gyvmnc"
  },
  {
    "title": "Basu ko pasal",
    "price": null,
    "categoryName": "Tea store",
    "address": "MCMP+FQF, Changunarayan 8, Bhaktapur 44800, Nepal",
    "neighborhood": null,
    "street": "MCMP+FQF, Changunarayan 8",
    "city": "Bhaktapur",
    "postalCode": "44800",
    "state": null,
    "countryCode": "NP",
    "claimThisBusiness": true,
    "location": {
      "lat": 27.6836829,
      "lng": 85.4369235
    },
    "permanentlyClosed": false,
    "temporarilyClosed": false,
    "placeId": "ChIJ516sAwAb6zkRcF25KM-WXEs",
    "categories": [
      "Tea store"
    ],
    "fid": "0x39eb1b0003ac5ee7:0x4b5c96cf28b95d70",
    "cid": "5430381067187608944",
    "reviewsCount": 0,
    "imagesCount": 1,
    "imageCategories": [],
    "scrapedAt": "2025-11-11T10:08:03.209Z",
    "googleFoodUrl": null,
    "hotelAds": [],
    "openingHours": [],
    "peopleAlsoSearch": [],
    "placesTags": [],
    "reviewsTags": [],
    "gasPrices": [],
    "url": "https://www.google.com/maps/search/?api=1&query=Basu%20ko%20pasal&query_place_id=ChIJ516sAwAb6zkRcF25KM-WXEs",
    "searchPageUrl": "https://www.google.com/maps/search/tea%20store/@27.70154040318183,85.39182508831537,14z?hl=en",
    "searchString": "tea store",
    "language": "en",
    "rank": 137,
    "isAdvertisement": false,
    "imageUrl": "https://streetviewpixels-pa.googleapis.com/v1/thumbnail?panoid=Ybs-w3esK7u2ryvyvOdjwg&cb_client=search.gws-prod.gps&w=408&h=240&yaw=251.31738&pitch=0&thumbfov=100",
    "kgmid": "/g/11w4x_y_cc"
  },
  {
    "title": "Gopal Sau",
    "price": null,
    "categoryName": "Tea store",
    "address": "MCFP+85M, Araniko Highway, Bhaktapur 44800, Nepal",
    "neighborhood": null,
    "street": "MCFP+85M, Araniko Highway",
    "city": "Bhaktapur",
    "postalCode": "44800",
    "state": null,
    "countryCode": "NP",
    "claimThisBusiness": true,
    "location": {
      "lat": 27.6733359,
      "lng": 85.4354261
    },
    "permanentlyClosed": false,
    "temporarilyClosed": false,
    "placeId": "ChIJG6e49ssb6zkRxQE0OqggD1g",
    "categories": [
      "Tea store"
    ],
    "fid": "0x39eb1bcbf6b8a71b:0x580f20a83a3401c5",
    "cid": "6345326306891399621",
    "reviewsCount": 0,
    "imagesCount": 2,
    "imageCategories": [],
    "scrapedAt": "2025-11-11T10:08:04.577Z",
    "googleFoodUrl": null,
    "hotelAds": [],
    "openingHours": [],
    "peopleAlsoSearch": [],
    "placesTags": [],
    "reviewsTags": [],
    "additionalInfo": {
      "Service options": [
        {
          "Takeout": true
        }
      ]
    },
    "gasPrices": [],
    "url": "https://www.google.com/maps/search/?api=1&query=Gopal%20Sau&query_place_id=ChIJG6e49ssb6zkRxQE0OqggD1g",
    "searchPageUrl": "https://www.google.com/maps/search/tea%20store/@27.70154040318183,85.39182508831537,14z?hl=en",
    "searchString": "tea store",
    "language": "en",
    "rank": 144,
    "isAdvertisement": false,
    "imageUrl": "https://streetviewpixels-pa.googleapis.com/v1/thumbnail?panoid=LTZjr5-njjvDePnaKui1og&cb_client=search.gws-prod.gps&w=408&h=240&yaw=148.40746&pitch=0&thumbfov=100",
    "kgmid": "/g/11sqpkztqv"
  },
  {
    "title": "P.S.P Khaja Ghar",
    "price": null,
    "categoryName": "Tea store",
    "address": "Changunarayan 44600, Nepal",
    "neighborhood": null,
    "street": null,
    "city": "Changunarayan",
    "postalCode": null,
    "state": null,
    "countryCode": "NP",
    "phone": "+977 981-8948744",
    "phoneUnformatted": "+9779818948744",
    "claimThisBusiness": true,
    "location": {
      "lat": 27.7125802,
      "lng": 85.4244619
    },
    "permanentlyClosed": false,
    "temporarilyClosed": false,
    "placeId": "ChIJBf5gX6Ib6zkRZOUyV11bnuQ",
    "categories": [
      "Tea store"
    ],
    "fid": "0x39eb1ba25f60fe05:0xe49e5b5d5732e564",
    "cid": "16473704943420892516",
    "reviewsCount": 0,
    "imagesCount": 7,
    "imageCategories": [],
    "scrapedAt": "2025-11-11T10:08:04.578Z",
    "googleFoodUrl": null,
    "hotelAds": [],
    "openingHours": [],
    "peopleAlsoSearch": [],
    "placesTags": [],
    "reviewsTags": [],
    "additionalInfo": {
      "Service options": [
        {
          "Takeout": true
        },
        {
          "Dine-in": true
        }
      ]
    },
    "gasPrices": [],
    "url": "https://www.google.com/maps/search/?api=1&query=P.S.P%20Khaja%20Ghar&query_place_id=ChIJBf5gX6Ib6zkRZOUyV11bnuQ",
    "searchPageUrl": "https://www.google.com/maps/search/tea%20store/@27.70154040318183,85.39182508831537,14z?hl=en",
    "searchString": "tea store",
    "language": "en",
    "rank": 147,
    "isAdvertisement": false,
    "imageUrl": "https://lh3.googleusercontent.com/gps-cs-s/AG0ilSyoZYsSPlK_6z2cP-XFx_wTXbHq2YhP7rL20TNxB0nuj9KeEyk1nwNXfXr4OVD1RVvLeW2FrB1uDkp9dsTzgR4n0nOVrD2zDv2mNeIjSyUHI7j7z2KR9QpXb-ny1BAdjsOP0fep=w408-h725-k-no",
    "kgmid": "/g/11fm54w9n1"
  },
  {
    "title": "Chiya Vibes",
    "price": null,
    "categoryName": "Tea store",
    "address": "M99J+PMP, Hanumante Rd, Madhyapur Thimi, Nepal",
    "neighborhood": "Balkot",
    "street": "M99J+PMP, Hanumante Rd",
    "city": "Madhyapur Thimi",
    "postalCode": null,
    "state": null,
    "countryCode": "NP",
    "phone": "+977 984-9042281",
    "phoneUnformatted": "+9779849042281",
    "claimThisBusiness": true,
    "location": {
      "lat": 27.6693444,
      "lng": 85.3817081
    },
    "totalScore": 4.4,
    "permanentlyClosed": false,
    "temporarilyClosed": false,
    "placeId": "ChIJlXCFPAAb6zkRjOHeFKdce9E",
    "categories": [
      "Tea store"
    ],
    "fid": "0x39eb1b003c857095:0xd17b5ca714dee18c",
    "cid": "15094760448741794188",
    "reviewsCount": 14,
    "imagesCount": 4,
    "imageCategories": [],
    "scrapedAt": "2025-11-11T10:08:12.635Z",
    "googleFoodUrl": null,
    "hotelAds": [],
    "openingHours": [
      {
        "day": "Monday",
        "hours": "6 AM to 9 PM"
      },
      {
        "day": "Tuesday",
        "hours": "6 AM to 9 PM"
      },
      {
        "day": "Wednesday",
        "hours": "6 AM to 9 PM"
      },
      {
        "day": "Thursday",
        "hours": "6 AM to 9 PM"
      },
      {
        "day": "Friday",
        "hours": "6 AM to 9 PM"
      },
      {
        "day": "Saturday",
        "hours": "6 AM to 9 PM"
      },
      {
        "day": "Sunday",
        "hours": "6 AM to 9 PM"
      }
    ],
    "peopleAlsoSearch": [],
    "placesTags": [],
    "reviewsTags": [],
    "additionalInfo": {
      "Payments": [
        {
          "NFC mobile payments": true
        }
      ]
    },
    "gasPrices": [],
    "url": "https://www.google.com/maps/search/?api=1&query=Chiya%20Vibes&query_place_id=ChIJlXCFPAAb6zkRjOHeFKdce9E",
    "searchPageUrl": "https://www.google.com/maps/search/tea%20store/@27.640686196818166,85.39182508831537,14z?hl=en",
    "searchString": "tea store",
    "language": "en",
    "rank": 1,
    "isAdvertisement": false,
    "imageUrl": "https://streetviewpixels-pa.googleapis.com/v1/thumbnail?panoid=aA1ZLYvmjXQ-HS6x5IgRrQ&cb_client=search.gws-prod.gps&w=408&h=240&yaw=87.23111&pitch=0&thumbfov=100",
    "kgmid": "/g/11wx2_m2j2"
  },
  {
    "title": "Samrakshyak Sainju",
    "price": null,
    "categoryName": "Tea store",
    "address": "MC35+G37, Anantalingeshwar, Nepal",
    "neighborhood": "Gundu",
    "street": "MC35+G37",
    "city": "Anantalingeshwar",
    "postalCode": null,
    "state": null,
    "countryCode": "NP",
    "claimThisBusiness": true,
    "location": {
      "lat": 27.6537851,
      "lng": 85.4076709
    },
    "totalScore": 4.6,
    "permanentlyClosed": false,
    "temporarilyClosed": false,
    "placeId": "ChIJl5yY0l4R6zkRPi6Q8bwYHy4",
    "categories": [
      "Tea store"
    ],
    "fid": "0x39eb115ed2989c97:0x2e1f18bcf1902e3e",
    "cid": "3323402249808391742",
    "reviewsCount": 7,
    "imagesCount": 12,
    "imageCategories": [],
    "scrapedAt": "2025-11-11T10:08:12.635Z",
    "googleFoodUrl": null,
    "hotelAds": [],
    "openingHours": [
      {
        "day": "Monday",
        "hours": "6 AM to 8 PM"
      },
      {
        "day": "Tuesday",
        "hours": "6 AM to 8 PM"
      },
      {
        "day": "Wednesday",
        "hours": "6 AM to 8 PM"
      },
      {
        "day": "Thursday",
        "hours": "6 AM to 8 PM"
      },
      {
        "day": "Friday",
        "hours": "6 AM to 8 PM"
      },
      {
        "day": "Saturday",
        "hours": "6 AM to 8 PM"
      },
      {
        "day": "Sunday",
        "hours": "6 AM to 8 PM"
      }
    ],
    "peopleAlsoSearch": [],
    "placesTags": [],
    "reviewsTags": [],
    "gasPrices": [],
    "url": "https://www.google.com/maps/search/?api=1&query=Samrakshyak%20Sainju&query_place_id=ChIJl5yY0l4R6zkRPi6Q8bwYHy4",
    "searchPageUrl": "https://www.google.com/maps/search/tea%20store/@27.640686196818166,85.39182508831537,14z?hl=en",
    "searchString": "tea store",
    "language": "en",
    "rank": 2,
    "isAdvertisement": false,
    "imageUrl": "https://lh3.googleusercontent.com/gps-cs-s/AG0ilSwD_XVaP4HopxkproCVIG0cCa4QjG_hHXBREJPjoglFL7rwagcGhPn115M-zd4I_xvybBCo7gS-IGaDN0IIZOONHAGCKrcavb8CFYtgvBKOpOOUwyrpB_OhKUQDymp4JdGaBkQ=w408-h725-k-no",
    "kgmid": "/g/11pljvmt1j"
  },
  {
    "title": "Ramchandra Chiya Pasal",
    "price": null,
    "categoryName": "Tea store",
    "address": "M9CJ+3WC, Unnamed Road, Anantalingeshwar, Nepal",
    "neighborhood": "Balkot",
    "street": "M9CJ+3WC, Unnamed Road",
    "city": "Anantalingeshwar",
    "postalCode": null,
    "state": null,
    "countryCode": "NP",
    "phone": "+977 984-9464446",
    "phoneUnformatted": "+9779849464446",
    "claimThisBusiness": true,
    "location": {
      "lat": 27.6701851,
      "lng": 85.3822674
    },
    "totalScore": 4.6,
    "permanentlyClosed": false,
    "temporarilyClosed": false,
    "placeId": "ChIJa3scuYcb6zkRjQK53tiK4wE",
    "categories": [
      "Tea store"
    ],
    "fid": "0x39eb1b87b91c7b6b:0x1e38ad8deb9028d",
    "cid": "136105077805482637",
    "reviewsCount": 11,
    "imagesCount": 1,
    "imageCategories": [],
    "scrapedAt": "2025-11-11T10:08:12.635Z",
    "googleFoodUrl": null,
    "hotelAds": [],
    "openingHours": [
      {
        "day": "Monday",
        "hours": "6 AM to 8 PM"
      },
      {
        "day": "Tuesday",
        "hours": "6 AM to 8 PM"
      },
      {
        "day": "Wednesday",
        "hours": "6 AM to 8 PM"
      },
      {
        "day": "Thursday",
        "hours": "6 AM to 8 PM"
      },
      {
        "day": "Friday",
        "hours": "6 AM to 8 PM"
      },
      {
        "day": "Saturday",
        "hours": "6 AM to 8 PM"
      },
      {
        "day": "Sunday",
        "hours": "6 AM to 8 PM"
      }
    ],
    "peopleAlsoSearch": [],
    "placesTags": [],
    "reviewsTags": [],
    "gasPrices": [],
    "url": "https://www.google.com/maps/search/?api=1&query=Ramchandra%20Chiya%20Pasal&query_place_id=ChIJa3scuYcb6zkRjQK53tiK4wE",
    "searchPageUrl": "https://www.google.com/maps/search/tea%20store/@27.640686196818166,85.39182508831537,14z?hl=en",
    "searchString": "tea store",
    "language": "en",
    "rank": 3,
    "isAdvertisement": false,
    "imageUrl": "https://streetviewpixels-pa.googleapis.com/v1/thumbnail?panoid=ALjy_GCZ0dspH3MBmP0Dvg&cb_client=search.gws-prod.gps&w=408&h=240&yaw=100.36734&pitch=0&thumbfov=100",
    "kgmid": "/g/11hdsrq5z6"
  },
  {
    "title": "Suntali Chiya Pasal☕️🍮🍵",
    "price": null,
    "categoryName": "Tea store",
    "address": "MC65+MVR, Suryabinayak, Nepal",
    "neighborhood": "Katunje",
    "street": "MC65+MVR",
    "city": "Suryabinayak",
    "postalCode": null,
    "state": null,
    "countryCode": "NP",
    "claimThisBusiness": true,
    "location": {
      "lat": 27.6617308,
      "lng": 85.4096256
    },
    "totalScore": 5,
    "permanentlyClosed": false,
    "temporarilyClosed": false,
    "placeId": "ChIJxWineQAb6zkRG9cAkja8j3c",
    "categories": [
      "Tea store"
    ],
    "fid": "0x39eb1b0079a768c5:0x778fbc369200d71b",
    "cid": "8615311554746832667",
    "reviewsCount": 1,
    "imagesCount": 3,
    "imageCategories": [],
    "scrapedAt": "2025-11-11T10:08:12.635Z",
    "googleFoodUrl": null,
    "hotelAds": [],
    "openingHours": [
      {
        "day": "Monday",
        "hours": "6 AM to 8:30 PM"
      },
      {
        "day": "Tuesday",
        "hours": "6 AM to 8:30 PM"
      },
      {
        "day": "Wednesday",
        "hours": "6 AM to 8:30 PM"
      },
      {
        "day": "Thursday",
        "hours": "6 AM to 8:30 PM"
      },
      {
        "day": "Friday",
        "hours": "6 AM to 8:30 PM"
      },
      {
        "day": "Saturday",
        "hours": "6 AM to 8:30 PM"
      },
      {
        "day": "Sunday",
        "hours": "6 AM to 8:30 PM"
      }
    ],
    "peopleAlsoSearch": [],
    "placesTags": [],
    "reviewsTags": [],
    "additionalInfo": {
      "Service options": [
        {
          "Takeout": true
        }
      ]
    },
    "gasPrices": [],
    "url": "https://www.google.com/maps/search/?api=1&query=Suntali%20Chiya%20Pasal%E2%98%95%EF%B8%8F%F0%9F%8D%AE%F0%9F%8D%B5&query_place_id=ChIJxWineQAb6zkRG9cAkja8j3c",
    "searchPageUrl": "https://www.google.com/maps/search/tea%20store/@27.640686196818166,85.39182508831537,14z?hl=en",
    "searchString": "tea store",
    "language": "en",
    "rank": 5,
    "isAdvertisement": false,
    "imageUrl": "https://lh3.googleusercontent.com/gps-cs-s/AG0ilSzT5Bts4MTgQ9RpiZ27m8MDp7e2OgJeDvZd1QADovchkaPvZJmfAr2EK1ou_3E-mDZchv8sbdNf-wyEl7HpaFZJVyR_ybIkpyAxKFJYF7f_oc9YmZCg22gAyI_YA4MDOfnsbpYLlw=w408-h725-k-no",
    "kgmid": "/g/11y2yj1yt_"
  },
  {
    "title": "Ghimire Chowk",
    "price": null,
    "categoryName": "Tea store",
    "address": "M97M+H67, Anantalingeshwar 44800, Nepal",
    "neighborhood": "Balkot",
    "street": "M97M+H67",
    "city": "Anantalingeshwar",
    "postalCode": "44800",
    "state": null,
    "countryCode": "NP",
    "phone": "+977 974-1078502",
    "phoneUnformatted": "+9779741078502",
    "claimThisBusiness": false,
    "location": {
      "lat": 27.6639375,
      "lng": 85.3830625
    },
    "totalScore": 4.2,
    "permanentlyClosed": false,
    "temporarilyClosed": false,
    "placeId": "ChIJZd-MMZYb6zkRIm73RkhzzaY",
    "categories": [
      "Tea store"
    ],
    "fid": "0x39eb1b96318cdf65:0xa6cd734846f76e22",
    "cid": "12019389734787182114",
    "reviewsCount": 9,
    "imagesCount": 6,
    "imageCategories": [],
    "scrapedAt": "2025-11-11T10:08:12.635Z",
    "googleFoodUrl": null,
    "hotelAds": [],
    "openingHours": [
      {
        "day": "Monday",
        "hours": "Open 24 hours"
      },
      {
        "day": "Tuesday",
        "hours": "Open 24 hours"
      },
      {
        "day": "Wednesday",
        "hours": "Open 24 hours"
      },
      {
        "day": "Thursday",
        "hours": "Open 24 hours"
      },
      {
        "day": "Friday",
        "hours": "Open 24 hours"
      },
      {
        "day": "Saturday",
        "hours": "Open 24 hours"
      },
      {
        "day": "Sunday",
        "hours": "Open 24 hours"
      }
    ],
    "peopleAlsoSearch": [],
    "placesTags": [],
    "reviewsTags": [],
    "additionalInfo": {
      "Service options": [
        {
          "Takeout": true
        },
        {
          "Dine-in": true
        }
      ],
      "Payments": [
        {
          "NFC mobile payments": true
        }
      ]
    },
    "gasPrices": [],
    "url": "https://www.google.com/maps/search/?api=1&query=Ghimire%20Chowk&query_place_id=ChIJZd-MMZYb6zkRIm73RkhzzaY",
    "searchPageUrl": "https://www.google.com/maps/search/tea%20store/@27.640686196818166,85.39182508831537,14z?hl=en",
    "searchString": "tea store",
    "language": "en",
    "rank": 11,
    "isAdvertisement": false,
    "imageUrl": "https://lh3.googleusercontent.com/gps-cs-s/AG0ilSx7uz43uZD0xCbsbFS7t4Eum328Ek8WhhJ6ixHgITk_-JK3NtjDA4D2ZfTlWPyz9jWbUP2cnvkmIQM6ULvLbKmYBQORYMSb-BuUEX4iEdrdFNzhU-nyVuJ4ye8I1ubFt-w7KWdUbg=w408-h914-k-no",
    "kgmid": "/g/11v3ljgyrs"
  },
  {
    "title": "Ilam Organic green tea (IOCP TEA)",
    "price": null,
    "categoryName": "Tea store",
    "address": "Suryabynaik bhaktapur, Kathmandu 44800, Nepal",
    "neighborhood": "Sipadol",
    "street": "Suryabynaik bhaktapur",
    "city": "Kathmandu",
    "postalCode": "44800",
    "state": null,
    "countryCode": "NP",
    "website": "http://www.iocp.com.np/",
    "phone": "+977 974-8284100",
    "phoneUnformatted": "+9779748284100",
    "claimThisBusiness": false,
    "location": {
      "lat": 27.6592943,
      "lng": 85.4275082
    },
    "totalScore": 4.1,
    "permanentlyClosed": false,
    "temporarilyClosed": false,
    "placeId": "ChIJlfD-xlYZ6zkR5gbI1AiXFIg",
    "categories": [
      "Tea store"
    ],
    "fid": "0x39eb1956c6fef095:0x88149708d4c806e6",
    "cid": "9805628352877823718",
    "reviewsCount": 10,
    "imagesCount": 23,
    "imageCategories": [],
    "scrapedAt": "2025-11-11T10:08:12.635Z",
    "googleFoodUrl": null,
    "hotelAds": [],
    "openingHours": [
      {
        "day": "Monday",
        "hours": "9 AM to 5 PM"
      },
      {
        "day": "Tuesday",
        "hours": "9 AM to 5 PM"
      },
      {
        "day": "Wednesday",
        "hours": "9 AM to 5 PM"
      },
      {
        "day": "Thursday",
        "hours": "9 AM to 5 PM"
      },
      {
        "day": "Friday",
        "hours": "9 AM to 5 PM"
      },
      {
        "day": "Saturday",
        "hours": "9 AM to 5 PM"
      },
      {
        "day": "Sunday",
        "hours": "9 AM to 5 PM"
      }
    ],
    "additionalOpeningHours": {
      "Delivery": [
        {
          "day": "Monday",
          "hours": "9 AM–5 PM"
        },
        {
          "day": "Tuesday",
          "hours": "9 AM–5 PM"
        },
        {
          "day": "Wednesday",
          "hours": "9 AM–5 PM"
        },
        {
          "day": "Thursday",
          "hours": "9 AM–5 PM"
        },
        {
          "day": "Friday",
          "hours": "9 AM–5 PM"
        },
        {
          "day": "Saturday",
          "hours": "9 AM–5 PM"
        },
        {
          "day": "Sunday",
          "hours": "9 AM–5 PM"
        }
      ],
      "Online service hours": [
        {
          "day": "Monday",
          "hours": "Open 24 hours"
        },
        {
          "day": "Tuesday",
          "hours": "Open 24 hours"
        },
        {
          "day": "Wednesday",
          "hours": "Open 24 hours"
        },
        {
          "day": "Thursday",
          "hours": "Open 24 hours"
        },
        {
          "day": "Friday",
          "hours": "Open 24 hours"
        },
        {
          "day": "Saturday",
          "hours": "Open 24 hours"
        },
        {
          "day": "Sunday",
          "hours": "Open 24 hours"
        }
      ]
    },
    "peopleAlsoSearch": [],
    "placesTags": [],
    "reviewsTags": [],
    "additionalInfo": {
      "From the business": [
        {
          "Identifies as women-owned": true
        }
      ],
      "Service options": [
        {
          "Delivery": true
        },
        {
          "Takeout": true
        }
      ],
      "Accessibility": [
        {
          "Wheelchair accessible parking lot": true
        },
        {
          "Wheelchair accessible restroom": false
        },
        {
          "Wheelchair accessible seating": false
        }
      ],
      "Amenities": [
        {
          "Gender-neutral restroom": true
        },
        {
          "Wi-Fi": true
        },
        {
          "Free Wi-Fi": true
        }
      ],
      "Planning": [
        {
          "Appointment required": true
        }
      ],
      "Payments": [
        {
          "Cash-only": true
        }
      ]
    },
    "gasPrices": [],
    "url": "https://www.google.com/maps/search/?api=1&query=Ilam%20Organic%20green%20tea%20(IOCP%20TEA)&query_place_id=ChIJlfD-xlYZ6zkR5gbI1AiXFIg",
    "searchPageUrl": "https://www.google.com/maps/search/tea%20store/@27.640686196818166,85.39182508831537,14z?hl=en",
    "searchString": "tea store",
    "language": "en",
    "rank": 12,
    "isAdvertisement": false,
    "imageUrl": "https://lh3.googleusercontent.com/p/AF1QipPzFs5Mtfum-8ffxIobSQun1VkzL-nJP8cTckRZ=w408-h386-k-no",
    "kgmid": "/g/11hzt99dtp"
  },
  {
    "title": "Chiya Obsession Suryabinayak",
    "price": null,
    "categoryName": "Tea store",
    "address": "MC8G+XF3, Suryabinayak 44800, Nepal",
    "neighborhood": null,
    "street": "MC8G+XF3",
    "city": "Suryabinayak",
    "postalCode": "44800",
    "state": null,
    "countryCode": "NP",
    "claimThisBusiness": true,
    "location": {
      "lat": 27.6673926,
      "lng": 85.4261771
    },
    "totalScore": 4,
    "permanentlyClosed": false,
    "temporarilyClosed": false,
    "placeId": "ChIJ42gjMAAb6zkRsyBIMMh35b0",
    "categories": [
      "Tea store"
    ],
    "fid": "0x39eb1b00302368e3:0xbde577c8304820b3",
    "cid": "13683474744522318003",
    "reviewsCount": 1,
    "imagesCount": 9,
    "imageCategories": [],
    "scrapedAt": "2025-11-11T10:08:12.636Z",
    "googleFoodUrl": null,
    "hotelAds": [],
    "openingHours": [],
    "peopleAlsoSearch": [],
    "placesTags": [],
    "reviewsTags": [],
    "gasPrices": [],
    "url": "https://www.google.com/maps/search/?api=1&query=Chiya%20Obsession%20Suryabinayak&query_place_id=ChIJ42gjMAAb6zkRsyBIMMh35b0",
    "searchPageUrl": "https://www.google.com/maps/search/tea%20store/@27.640686196818166,85.39182508831537,14z?hl=en",
    "searchString": "tea store",
    "language": "en",
    "rank": 14,
    "isAdvertisement": false,
    "imageUrl": "https://lh3.googleusercontent.com/gps-cs-s/AG0ilSy1veu07mfLKbC7MiETUBpNJ50I6v6YDW6YjsKJQeVPYcnVktmIhvGG7k_Gh9ZFjwkMInGcDYdtvTSOe1pQPeEzaRoIkfXv1Wmc4M8ZUxGyPuDgV1mZbyIszysam2nUs6NrjK2Q-w=w408-h543-k-no",
    "kgmid": "/g/11wwbkqx6v"
  },
  {
    "title": "Thulogau",
    "price": null,
    "categoryName": "Tea store",
    "address": "JCPQ+J38, Doleshwor-Aashapur Rd, Suryabinayak, Nepal",
    "neighborhood": "Sipadol",
    "street": "JCPQ+J38, Doleshwor-Aashapur Rd",
    "city": "Suryabinayak",
    "postalCode": null,
    "state": null,
    "countryCode": "NP",
    "claimThisBusiness": true,
    "location": {
      "lat": 27.6365263,
      "lng": 85.4377007
    },
    "totalScore": 3.7,
    "permanentlyClosed": false,
    "temporarilyClosed": false,
    "placeId": "ChIJmflV0jIP6zkRjPSn-JSBBhM",
    "categories": [
      "Tea store"
    ],
    "fid": "0x39eb0f32d255f999:0x13068194f8a7f48c",
    "cid": "1370925613407794316",
    "reviewsCount": 7,
    "imagesCount": 9,
    "imageCategories": [],
    "scrapedAt": "2025-11-11T10:08:18.800Z",
    "googleFoodUrl": null,
    "hotelAds": [],
    "openingHours": [],
    "peopleAlsoSearch": [],
    "placesTags": [],
    "reviewsTags": [],
    "additionalInfo": {
      "Service options": [
        {
          "In-store pickup": true
        }
      ]
    },
    "gasPrices": [],
    "url": "https://www.google.com/maps/search/?api=1&query=Thulogau&query_place_id=ChIJmflV0jIP6zkRjPSn-JSBBhM",
    "searchPageUrl": "https://www.google.com/maps/search/tea%20store/@27.640686196818166,85.46050991168464,14z?hl=en",
    "searchString": "tea store",
    "language": "en",
    "rank": 5,
    "isAdvertisement": false,
    "imageUrl": "https://lh3.googleusercontent.com/gps-cs-s/AG0ilSxdxAf6Yx1SY3DX1AMS47Keh70lvg15XNC_XaZZWe2CINgEcb9rKq4ScvA9f8Ms9ph01US0fH5oMcZFOrmiGK4KUb2RtX7WicKKn8rJ6cJM00MUTfcR8G6Y7kGxvN-gxbW4kNJ2=w426-h240-k-no",
    "kgmid": "/g/11r9q97487"
  },
  {
    "title": "Ganesh Chiya Pasal",
    "price": null,
    "categoryName": "Tea store",
    "address": "MC4F+9JM, Suryabinayak, Nepal",
    "neighborhood": "Sipadol",
    "street": "MC4F+9JM",
    "city": "Suryabinayak",
    "postalCode": null,
    "state": null,
    "countryCode": "NP",
    "claimThisBusiness": true,
    "location": {
      "lat": 27.6559513,
      "lng": 85.4240494
    },
    "permanentlyClosed": false,
    "temporarilyClosed": false,
    "placeId": "ChIJTVtV5SoR6zkR1YF46DiTxsA",
    "categories": [
      "Tea store"
    ],
    "fid": "0x39eb112ae5555b4d:0xc0c69338e87881d5",
    "cid": "13890951973298536917",
    "reviewsCount": 0,
    "imagesCount": 2,
    "imageCategories": [],
    "scrapedAt": "2025-11-11T10:08:18.801Z",
    "googleFoodUrl": null,
    "hotelAds": [],
    "openingHours": [],
    "peopleAlsoSearch": [],
    "placesTags": [],
    "reviewsTags": [],
    "gasPrices": [],
    "url": "https://www.google.com/maps/search/?api=1&query=Ganesh%20Chiya%20Pasal&query_place_id=ChIJTVtV5SoR6zkR1YF46DiTxsA",
    "searchPageUrl": "https://www.google.com/maps/search/tea%20store/@27.640686196818166,85.46050991168464,14z?hl=en",
    "searchString": "tea store",
    "language": "en",
    "rank": 11,
    "isAdvertisement": false,
    "imageUrl": "https://streetviewpixels-pa.googleapis.com/v1/thumbnail?panoid=tr9VsWiztyFZnxx6WeuIfQ&cb_client=search.gws-prod.gps&w=408&h=240&yaw=155.67377&pitch=0&thumbfov=100",
    "kgmid": "/g/11rgntdc28"
  },
  {
    "title": "Pawan's Tea Shop",
    "price": null,
    "categoryName": "Tea store",
    "address": "MF34+HGP, Suryabinayak, Nepal",
    "neighborhood": "Nangkhel",
    "street": "MF34+HGP",
    "city": "Suryabinayak",
    "postalCode": null,
    "state": null,
    "countryCode": "NP",
    "claimThisBusiness": true,
    "location": {
      "lat": 27.6539565,
      "lng": 85.4563212
    },
    "permanentlyClosed": false,
    "temporarilyClosed": false,
    "placeId": "ChIJw96J_3MP6zkRCcq73ptPa7U",
    "categories": [
      "Tea store"
    ],
    "fid": "0x39eb0f73ff89dec3:0xb56b4f9bdebbca09",
    "cid": "13072629874248370697",
    "reviewsCount": 0,
    "imagesCount": 1,
    "imageCategories": [],
    "scrapedAt": "2025-11-11T10:08:18.801Z",
    "googleFoodUrl": null,
    "hotelAds": [],
    "openingHours": [],
    "peopleAlsoSearch": [],
    "placesTags": [],
    "reviewsTags": [],
    "additionalInfo": {
      "Service options": [
        {
          "Takeout": true
        }
      ]
    },
    "gasPrices": [],
    "url": "https://www.google.com/maps/search/?api=1&query=Pawan's%20Tea%20Shop&query_place_id=ChIJw96J_3MP6zkRCcq73ptPa7U",
    "searchPageUrl": "https://www.google.com/maps/search/tea%20store/@27.640686196818166,85.46050991168464,14z?hl=en",
    "searchString": "tea store",
    "language": "en",
    "rank": 14,
    "isAdvertisement": false,
    "imageUrl": "https://streetviewpixels-pa.googleapis.com/v1/thumbnail?panoid=O1_umy07mDNNXRU-uc9oMg&cb_client=search.gws-prod.gps&w=408&h=240&yaw=207.06628&pitch=0&thumbfov=100",
    "kgmid": "/g/11t59yztp1"
  },
  {
    "title": "Mitho chiya nasta pasal",
    "price": null,
    "categoryName": "Tea store",
    "address": "MC85+CX3, Unnamed Road, Suryabinayak 44800, Nepal",
    "neighborhood": "Katunje",
    "street": "MC85+CX3, Unnamed Road",
    "city": "Suryabinayak",
    "postalCode": "44800",
    "state": null,
    "countryCode": "NP",
    "claimThisBusiness": true,
    "location": {
      "lat": 27.666006,
      "lng": 85.4099179
    },
    "permanentlyClosed": false,
    "temporarilyClosed": false,
    "placeId": "ChIJGS39kYEb6zkRHLLcZR3Slrg",
    "categories": [
      "Tea store"
    ],
    "fid": "0x39eb1b8191fd2d19:0xb896d21d65dcb21c",
    "cid": "13301049573190185500",
    "reviewsCount": 0,
    "imagesCount": 3,
    "imageCategories": [],
    "scrapedAt": "2025-11-11T10:08:19.896Z",
    "googleFoodUrl": null,
    "hotelAds": [],
    "openingHours": [
      {
        "day": "Monday",
        "hours": "7 AM to 8 PM"
      },
      {
        "day": "Tuesday",
        "hours": "7 AM to 8 PM"
      },
      {
        "day": "Wednesday",
        "hours": "7 AM to 8 PM"
      },
      {
        "day": "Thursday",
        "hours": "7 AM to 8 PM"
      },
      {
        "day": "Friday",
        "hours": "7 AM to 8 PM"
      },
      {
        "day": "Saturday",
        "hours": "7 AM to 8 PM"
      },
      {
        "day": "Sunday",
        "hours": "7 AM to 8 PM"
      }
    ],
    "peopleAlsoSearch": [],
    "placesTags": [],
    "reviewsTags": [],
    "gasPrices": [],
    "url": "https://www.google.com/maps/search/?api=1&query=Mitho%20chiya%20nasta%20pasal&query_place_id=ChIJGS39kYEb6zkRHLLcZR3Slrg",
    "searchPageUrl": "https://www.google.com/maps/search/tea%20store/@27.640686196818166,85.46050991168464,14z?hl=en",
    "searchString": "tea store",
    "language": "en",
    "rank": 38,
    "isAdvertisement": false,
    "imageUrl": "https://lh3.googleusercontent.com/gps-cs-s/AG0ilSyK3NjYVzqnzCEP5xijnp5koTYiEBlc70HGS9an0808GjwbnUyHvVkkMn8LhIC0PQH7HC4bTASKqKZK9OM6jTgzY57NsuFKYU2zi7d5q_cUjI-qbz-c91of0_T-5G8yZzpJ91pS=w408-h725-k-no",
    "kgmid": "/g/11pq1wvhk8"
  }
]