[
  {
    "title": "Vet for Your Pet - the Animals’ Clinic",
    "price": null,
    "categoryName": "Animal hospital",
    "address": "Bhaktapur Rd, Bhaktapur 44800, Nepal",
    "neighborhood": null,
    "street": "Bhaktapur Rd",
    "city": "Bhaktapur",
    "postalCode": "44800",
    "state": null,
    "countryCode": "NP",
    "website": "https://www.vetforyourpet.com.np/",
    "phone": "+977 1-6613244",
    "phoneUnformatted": "+97716613244",
    "claimThisBusiness": false,
    "location": {
      "lat": 27.6662,
      "lng": 85.4258326
    },
    "totalScore": 4.3,
    "permanentlyClosed": false,
    "temporarilyClosed": false,
    "placeId": "ChIJTx-iR6Ya6zkRtJ7MSVBSfz4",
    "categories": [
      "Animal hospital",
      "Veterinarian",
      "Veterinary pharmacy"
    ],
    "fid": "0x39eb1aa647a21f4f:0x3e7f525049cc9eb4",
    "cid": "4503408657182793396",
    "reviewsCount": 173,
    "imagesCount": 44,
    "imageCategories": [],
    "scrapedAt": "2025-11-14T08:13:20.147Z",
    "googleFoodUrl": null,
    "hotelAds": [],
    "openingHours": [
      {
        "day": "Monday",
        "hours": "10 AM to 5 PM"
      },
      {
        "day": "Tuesday",
        "hours": "10 AM to 5 PM"
      },
      {
        "day": "Wednesday",
        "hours": "10 AM to 5 PM"
      },
      {
        "day": "Thursday",
        "hours": "10 AM to 5 PM"
      },
      {
        "day": "Friday",
        "hours": "10 AM to 5 PM"
      },
      {
        "day": "Saturday",
        "hours": "Closed"
      },
      {
        "day": "Sunday",
        "hours": "10 AM to 5 PM"
      }
    ],
    "peopleAlsoSearch": [],
    "placesTags": [],
    "reviewsTags": [],
    "additionalInfo": {
      "Service options": [
        {
          "Onsite services": false
        }
      ],
      "Accessibility": [
        {
          "Wheelchair accessible restroom": true
        },
        {
          "Wheelchair accessible seating": true
        }
      ],
      "Amenities": [
        {
          "Restroom": true
        }
      ],
      "Planning": [
        {
          "Appointment required": true
        },
        {
          "Appointments recommended": true
        }
      ]
    },
    "gasPrices": [],
    "url": "https://www.google.com/maps/search/?api=1&query=Vet%20for%20Your%20Pet%20-%20the%20Animals%E2%80%99%20Clinic&query_place_id=ChIJTx-iR6Ya6zkRtJ7MSVBSfz4",
    "searchPageUrl": "https://www.google.com/maps/search/animal%20hospital/@27.67530454090198,85.43009086349416,17z?hl=en",
    "searchString": "animal hospital",
    "language": "en",
    "rank": 1,
    "isAdvertisement": false,
    "imageUrl": "https://lh3.googleusercontent.com/gps-cs-s/AG0ilSzd6g2vE3PnIJHp30pUcUKdaD8E_DSbyUVCBxjPbwd73LBdxmhJRvzuR-IpoApAklqqY2M3SfSH9VT12B7dACXzAlWTQlUSt4JWq72NSnYZPjWu-iOvsNpt_cUNP9GVAkkJ3o-Y8w=w408-h306-k-no",
    "kgmid": "/g/1hc21hvzv"
  },
  {
    "title": "Mahakali Veterinary Centre",
    "subTitle": "महाकाली भेटेरिनरी सेन्टर",
    "price": null,
    "categoryName": "Animal hospital",
    "address": "MCGJ+CXM, Nagarkot Rd, Bhaktapur 44800, Nepal",
    "neighborhood": null,
    "street": "MCGJ+CXM, Nagarkot Rd",
    "city": "Bhaktapur",
    "postalCode": "44800",
    "state": null,
    "countryCode": "NP",
    "phone": "+977 1-6616963",
    "phoneUnformatted": "+97716616963",
    "claimThisBusiness": true,
    "location": {
      "lat": 27.6760923,
      "lng": 85.4324124
    },
    "totalScore": 1,
    "permanentlyClosed": false,
    "temporarilyClosed": false,
    "placeId": "ChIJqfmIJ7Ia6zkRAABYm0ySFpc",
    "categories": [
      "Animal hospital"
    ],
    "fid": "0x39eb1ab22788f9a9:0x9716924c9b580000",
    "cid": "10887050006936158208",
    "reviewsCount": 1,
    "imagesCount": 3,
    "imageCategories": [],
    "scrapedAt": "2025-11-14T08:13:20.147Z",
    "googleFoodUrl": null,
    "hotelAds": [],
    "openingHours": [],
    "peopleAlsoSearch": [],
    "placesTags": [],
    "reviewsTags": [],
    "additionalInfo": {
      "Amenities": [
        {
          "Restroom": true
        }
      ]
    },
    "gasPrices": [],
    "url": "https://www.google.com/maps/search/?api=1&query=Mahakali%20Veterinary%20Centre&query_place_id=ChIJqfmIJ7Ia6zkRAABYm0ySFpc",
    "searchPageUrl": "https://www.google.com/maps/search/animal%20hospital/@27.67530454090198,85.43009086349416,17z?hl=en",
    "searchString": "animal hospital",
    "language": "en",
    "rank": 3,
    "isAdvertisement": false,
    "imageUrl": "https://lh3.googleusercontent.com/gps-proxy/ALd4DhH_3jAwl9DANDAwCQgpUOr7V7DUgpLut-a1-iQC-bqTLYInXtJUQpXL_mrqVCza4ooMl0W62wRfBVpLHdR3OSXT96-37uZbqOKJ58U32E8_ETKvQR1l9-SZ5zTBew8E7D0vL0Xx5PjS9fV9xEv9NJH5eFYHfFVSQ5q32g14v6shuiKt6RvfEZG7PVTH_JqmFuDJWwA=w408-h306-k-no",
    "kgmid": "/g/11b6q4d06p"
  },
  {
    "title": "Vet for Your Pet - the Animals’ Clinic",
    "price": null,
    "categoryName": "Animal hospital",
    "address": "Bhaktapur Rd, Bhaktapur 44800, Nepal",
    "neighborhood": null,
    "street": "Bhaktapur Rd",
    "city": "Bhaktapur",
    "postalCode": "44800",
    "state": null,
    "countryCode": "NP",
    "website": "https://www.vetforyourpet.com.np/",
    "phone": "+977 1-6613244",
    "phoneUnformatted": "+97716613244",
    "claimThisBusiness": false,
    "location": {
      "lat": 27.6662,
      "lng": 85.4258326
    },
    "totalScore": 4.3,
    "permanentlyClosed": false,
    "temporarilyClosed": false,
    "placeId": "ChIJTx-iR6Ya6zkRtJ7MSVBSfz4",
    "categories": [
      "Animal hospital",
      "Veterinarian",
      "Veterinary pharmacy"
    ],
    "fid": "0x39eb1aa647a21f4f:0x3e7f525049cc9eb4",
    "cid": "4503408657182793396",
    "reviewsCount": 173,
    "reviewsDistribution": {
      "oneStar": 15,
      "twoStar": 5,
      "threeStar": 13,
      "fourStar": 27,
      "fiveStar": 113
    },
    "imagesCount": 44,
    "imageCategories": [],
    "scrapedAt": "2025-11-14T08:40:51.003Z",
    "googleFoodUrl": null,
    "hotelAds": [],
    "openingHours": [
      {
        "day": "Monday",
        "hours": "10 AM to 5 PM"
      },
      {
        "day": "Tuesday",
        "hours": "10 AM to 5 PM"
      },
      {
        "day": "Wednesday",
        "hours": "10 AM to 5 PM"
      },
      {
        "day": "Thursday",
        "hours": "10 AM to 5 PM"
      },
      {
        "day": "Friday",
        "hours": "10 AM to 5 PM"
      },
      {
        "day": "Saturday",
        "hours": "Closed"
      },
      {
        "day": "Sunday",
        "hours": "10 AM to 5 PM"
      }
    ],
    "peopleAlsoSearch": [],
    "placesTags": [],
    "reviewsTags": [],
    "additionalInfo": {
      "Service options": [
        {
          "Onsite services": false
        }
      ],
      "Accessibility": [
        {
          "Wheelchair accessible restroom": true
        },
        {
          "Wheelchair accessible seating": true
        }
      ],
      "Amenities": [
        {
          "Restroom": true
        }
      ],
      "Planning": [
        {
          "Appointment required": true
        },
        {
          "Appointments recommended": true
        }
      ]
    },
    "gasPrices": [],
    "url": "https://www.google.com/maps/search/?api=1&query=Vet%20for%20Your%20Pet%20-%20the%20Animals%E2%80%99%20Clinic&query_place_id=ChIJTx-iR6Ya6zkRtJ7MSVBSfz4",
    "searchPageUrl": "https://www.google.com/maps/search/hospital/@27.666993023382226,85.4287066988148,17z?hl=en",
    "searchString": "hospital",
    "language": "en",
    "rank": 36,
    "isAdvertisement": false,
    "imageUrl": "https://lh3.googleusercontent.com/gps-cs-s/AG0ilSzJdOWKboVApAPZG3sVLe0ZanpB02lQnvxEQOUhQYumvolY1K3DYZWJqinZHLOw2A2cDGqL8TvRZrs0oCWftUWwST5e__0npM4l9Or0n_JEOBeEf6dHRalzzp_HYCAkEXHCzqF9aw=w427-h240-k-no",
    "kgmid": "/g/1hc21hvzv"
  },
  {
    "title": "Gyan Ganga Veterinary Hospital",
    "price": null,
    "categoryName": "Animal hospital",
    "address": "Kamalbinayak, Bhaktapur 44800, Nepal",
    "neighborhood": null,
    "street": "Kamalbinayak",
    "city": "Bhaktapur",
    "postalCode": "44800",
    "state": null,
    "countryCode": "NP",
    "phone": "+977 980-2348864",
    "phoneUnformatted": "+9779802348864",
    "claimThisBusiness": false,
    "location": {
      "lat": 27.6794788,
      "lng": 85.4429661
    },
    "permanentlyClosed": false,
    "temporarilyClosed": false,
    "placeId": "ChIJE2HBNegF6zkRViZeXbpnPj4",
    "categories": [
      "Animal hospital"
    ],
    "fid": "0x39eb05e835c16113:0x3e3e67ba5d5e2656",
    "cid": "4485136329035621974",
    "reviewsCount": 0,
    "imagesCount": 4,
    "imageCategories": [],
    "scrapedAt": "2025-11-14T08:42:30.902Z",
    "googleFoodUrl": null,
    "hotelAds": [],
    "openingHours": [
      {
        "day": "Monday",
        "hours": "6 AM to 8 PM"
      },
      {
        "day": "Tuesday",
        "hours": "6 AM to 8 PM"
      },
      {
        "day": "Wednesday",
        "hours": "6 AM to 8 PM"
      },
      {
        "day": "Thursday",
        "hours": "6 AM to 8 PM"
      },
      {
        "day": "Friday",
        "hours": "6 AM to 8 PM"
      },
      {
        "day": "Saturday",
        "hours": "6 AM to 8 PM"
      },
      {
        "day": "Sunday",
        "hours": "6 AM to 8 PM"
      }
    ],
    "peopleAlsoSearch": [],
    "placesTags": [],
    "reviewsTags": [],
    "additionalInfo": {
      "Amenities": [
        {
          "Restroom": true
        }
      ]
    },
    "gasPrices": [],
    "url": "https://www.google.com/maps/search/?api=1&query=Gyan%20Ganga%20Veterinary%20Hospital&query_place_id=ChIJE2HBNegF6zkRViZeXbpnPj4",
    "searchPageUrl": "https://www.google.com/maps/search/hospital/@27.682206976617763,85.44587990355555,17z?hl=en",
    "searchString": "hospital",
    "language": "en",
    "rank": 22,
    "isAdvertisement": false,
    "imageUrl": "https://streetviewpixels-pa.googleapis.com/v1/thumbnail?panoid=jPruRRi-zX50VHh9gJGVAw&cb_client=search.gws-prod.gps&w=408&h=240&yaw=181.98851&pitch=0&thumbfov=100",
    "kgmid": "/g/11vz0021gb"
  }
]