[
  {
    "title": "Health & Health Clinic Bhaktapur",
    "price": null,
    "categoryName": "Health consultant",
    "address": "Bhaktapur cancer Hospital Chwok, Bhaktapur 00977, Nepal",
    "neighborhood": null,
    "street": "Bhaktapur cancer Hospital Chwok",
    "city": "Bhaktapur",
    "postalCode": "00977",
    "state": null,
    "countryCode": "NP",
    "phone": "+977 1-6620706",
    "phoneUnformatted": "+97716620706",
    "claimThisBusiness": false,
    "location": {
      "lat": 27.66424,
      "lng": 85.4257978
    },
    "totalScore": 5,
    "permanentlyClosed": false,
    "temporarilyClosed": false,
    "placeId": "ChIJIVDD-lcb6zkR8y9Dg9KIwwc",
    "categories": [
      "Health consultant"
    ],
    "fid": "0x39eb1b57fac35021:0x7c388d283432ff3",
    "cid": "559441216450801651",
    "reviewsCount": 1,
    "reviewsDistribution": {
      "oneStar": 0,
      "twoStar": 0,
      "threeStar": 0,
      "fourStar": 0,
      "fiveStar": 1
    },
    "imagesCount": 2,
    "imageCategories": [],
    "scrapedAt": "2025-11-14T08:13:50.731Z",
    "googleFoodUrl": null,
    "hotelAds": [],
    "openingHours": [
      {
        "day": "Monday",
        "hours": "6 AM to 7 PM"
      },
      {
        "day": "Tuesday",
        "hours": "6 AM to 7 PM"
      },
      {
        "day": "Wednesday",
        "hours": "6 AM to 7 PM"
      },
      {
        "day": "Thursday",
        "hours": "6 AM to 7 PM"
      },
      {
        "day": "Friday",
        "hours": "6 AM to 7 PM"
      },
      {
        "day": "Saturday",
        "hours": "Closed"
      },
      {
        "day": "Sunday",
        "hours": "6 AM to 7 PM"
      }
    ],
    "peopleAlsoSearch": [],
    "placesTags": [],
    "reviewsTags": [],
    "gasPrices": [],
    "url": "https://www.google.com/maps/search/?api=1&query=Health%20%26%20Health%20Clinic%20Bhaktapur&query_place_id=ChIJIVDD-lcb6zkR8y9Dg9KIwwc",
    "searchPageUrl": "https://www.google.com/maps/search/hospital/@27.667695459098024,85.42150000000001,17z?hl=en",
    "searchString": "hospital",
    "language": "en",
    "rank": 27,
    "isAdvertisement": false,
    "imageUrl": "https://streetviewpixels-pa.googleapis.com/v1/thumbnail?panoid=jXTGIO_-C3VQLRuQB8i9hQ&cb_client=search.gws-prod.gps&w=408&h=240&yaw=215.27644&pitch=0&thumbfov=100",
    "kgmid": "/g/11mx3t5rf5"
  },
  {
    "title": "Bhaktapur heart and diabetic centre Suryabinayak",
    "price": null,
    "categoryName": "Health consultant",
    "address": "MC8C+6QX, Bhaktapur 44800, Nepal",
    "neighborhood": "Katunje",
    "street": "MC8C+6QX",
    "city": "Bhaktapur",
    "postalCode": "44800",
    "state": null,
    "countryCode": "NP",
    "claimThisBusiness": true,
    "location": {
      "lat": 27.6656467,
      "lng": 85.4220721
    },
    "permanentlyClosed": false,
    "temporarilyClosed": false,
    "placeId": "ChIJySFUYwAb6zkRa3VYXww7fDk",
    "categories": [
      "Health consultant"
    ],
    "fid": "0x39eb1b00635421c9:0x397c3b0c5f58756b",
    "cid": "4142250681599292779",
    "reviewsCount": 0,
    "imagesCount": 1,
    "imageCategories": [],
    "scrapedAt": "2025-11-14T08:13:57.887Z",
    "googleFoodUrl": null,
    "hotelAds": [],
    "openingHours": [],
    "peopleAlsoSearch": [],
    "placesTags": [],
    "reviewsTags": [],
    "gasPrices": [],
    "url": "https://www.google.com/maps/search/?api=1&query=Bhaktapur%20heart%20and%20diabetic%20centre%20Suryabinayak&query_place_id=ChIJySFUYwAb6zkRa3VYXww7fDk",
    "searchPageUrl": "https://www.google.com/maps/search/health/@27.667695459098024,85.42150000000001,17z?hl=en",
    "searchString": "health",
    "language": "en",
    "rank": 32,
    "isAdvertisement": false,
    "imageUrl": "https://streetviewpixels-pa.googleapis.com/v1/thumbnail?panoid=HDNkPsZSYmLdfUoEFscrFw&cb_client=search.gws-prod.gps&w=408&h=240&yaw=176.39748&pitch=0&thumbfov=100",
    "kgmid": "/g/11ycj9cdfp"
  },
  {
    "title": "Bhaktapur Heart and Diabetic Centre",
    "subTitle": "भक्तपुर हार्ट एण्ड डायवेटिक सेन्टर",
    "price": null,
    "categoryName": "Health consultant",
    "address": "MCCJ+HHF, Bhaktapur 44800, Nepal",
    "neighborhood": null,
    "street": "MCCJ+HHF",
    "city": "Bhaktapur",
    "postalCode": "44800",
    "state": null,
    "countryCode": "NP",
    "phone": "+977 1-6611082",
    "phoneUnformatted": "+97716611082",
    "claimThisBusiness": true,
    "location": {
      "lat": 27.67143,
      "lng": 85.4314286
    },
    "totalScore": 3.2,
    "permanentlyClosed": false,
    "temporarilyClosed": false,
    "placeId": "ChIJRVRVYa4a6zkRiHo6ERcCwyA",
    "categories": [
      "Health consultant",
      "Hospital"
    ],
    "fid": "0x39eb1aae61555445:0x20c30217113a7a88",
    "cid": "2360732927768820360",
    "reviewsCount": 11,
    "reviewsDistribution": {
      "oneStar": 4,
      "twoStar": 0,
      "threeStar": 1,
      "fourStar": 2,
      "fiveStar": 4
    },
    "imagesCount": 22,
    "imageCategories": [],
    "scrapedAt": "2025-11-14T08:42:56.529Z",
    "googleFoodUrl": null,
    "hotelAds": [],
    "openingHours": [
      {
        "day": "Monday",
        "hours": "6 AM to 8 PM"
      },
      {
        "day": "Tuesday",
        "hours": "6 AM to 8 PM"
      },
      {
        "day": "Wednesday",
        "hours": "6 AM to 8 PM"
      },
      {
        "day": "Thursday",
        "hours": "6 AM to 8 PM"
      },
      {
        "day": "Friday",
        "hours": "6 AM to 8 PM"
      },
      {
        "day": "Saturday",
        "hours": "6 AM to 8 PM"
      },
      {
        "day": "Sunday",
        "hours": "6 AM to 8 PM"
      }
    ],
    "peopleAlsoSearch": [],
    "placesTags": [],
    "reviewsTags": [],
    "gasPrices": [],
    "url": "https://www.google.com/maps/search/?api=1&query=Bhaktapur%20Heart%20and%20Diabetic%20Centre&query_place_id=ChIJRVRVYa4a6zkRiHo6ERcCwyA",
    "searchPageUrl": "https://www.google.com/maps/search/clinic/@27.674599999999995,85.43729330118518,17z?hl=en",
    "searchString": "clinic",
    "language": "en",
    "rank": 35,
    "isAdvertisement": false,
    "imageUrl": "https://lh3.googleusercontent.com/gps-proxy/ALd4DhEO1eXFt0rySVASIHHO0Zmsy5S-q2ofUmVvByKXNc_OUrmXbd1QXzgzTMCbdjJFHeXTZJlYCYDd-estYfyxy2AXgGhuxPZNJPXEqEIBoUVp9vkGdxPAx4ShElynTOF4cY96CzEwWt3f55fpnxrV96mLP5kV1rbgMWB1pNNsZjaLtUFdEIu7OlNsSJP2yJJGltQ8DA=w408-h306-k-no",
    "kgmid": "/g/1q5cctk7k"
  }
]