[
  {
    "title": "Bhaktapur Hospital भक्तपुर अस्पताल",
    "subTitle": "भक्तपुर अस्पताल",
    "price": null,
    "categoryName": "Hospital",
    "address": "Bhaktapur 44800, Nepal",
    "neighborhood": null,
    "street": null,
    "city": "Bhaktapur",
    "postalCode": "44800",
    "state": null,
    "countryCode": "NP",
    "website": "http://www.bhaktapurhospital.gov.np/",
    "phone": "+977 1-6610798",
    "phoneUnformatted": "+97716610798",
    "claimThisBusiness": false,
    "location": {
      "lat": 27.6719188,
      "lng": 85.4220317
    },
    "totalScore": 3.2,
    "permanentlyClosed": false,
    "temporarilyClosed": false,
    "placeId": "ChIJzwOjXqMa6zkRdEpmL-gU1S0",
    "categories": [
      "Hospital"
    ],
    "fid": "0x39eb1aa35ea303cf:0x2dd514e82f664a74",
    "cid": "3302568889206327924",
    "reviewsCount": 97,
    "imagesCount": 239,
    "imageCategories": [],
    "scrapedAt": "2025-11-14T08:13:19.561Z",
    "googleFoodUrl": null,
    "hotelAds": [],
    "openingHours": [
      {
        "day": "Monday",
        "hours": "Open 24 hours"
      },
      {
        "day": "Tuesday",
        "hours": "Open 24 hours"
      },
      {
        "day": "Wednesday",
        "hours": "Open 24 hours"
      },
      {
        "day": "Thursday",
        "hours": "Open 24 hours"
      },
      {
        "day": "Friday",
        "hours": "Open 24 hours"
      },
      {
        "day": "Saturday",
        "hours": "Open 24 hours"
      },
      {
        "day": "Sunday",
        "hours": "Open 24 hours"
      }
    ],
    "peopleAlsoSearch": [],
    "placesTags": [],
    "reviewsTags": [],
    "additionalInfo": {
      "Accessibility": [
        {
          "Wheelchair accessible entrance": true
        },
        {
          "Wheelchair accessible parking lot": true
        }
      ],
      "Payments": [
        {
          "Credit cards": true
        },
        {
          "Debit cards": true
        },
        {
          "NFC mobile payments": true
        }
      ]
    },
    "gasPrices": [],
    "url": "https://www.google.com/maps/search/?api=1&query=Bhaktapur%20Hospital%20%E0%A4%AD%E0%A4%95%E0%A5%8D%E0%A4%A4%E0%A4%AA%E0%A5%81%E0%A4%B0%20%E0%A4%85%E0%A4%B8%E0%A5%8D%E0%A4%AA%E0%A4%A4%E0%A4%BE%E0%A4%B2&query_place_id=ChIJzwOjXqMa6zkRdEpmL-gU1S0",
    "searchPageUrl": "https://www.google.com/maps/search/hospital/@27.67530454090198,85.43009086349416,17z?hl=en",
    "searchString": "hospital",
    "language": "en",
    "rank": 1,
    "isAdvertisement": false,
    "imageUrl": "https://lh3.googleusercontent.com/gps-cs-s/AG0ilSwKaKiEuhoPGfJbwjsmg33ev9o3Q4qSADqQ2Ghzmduna3Wy1e9NPqNiVKzIXUYmer0gCT9TzhL-Pnlf-JW4jL1Fcs11r7aHkD8xn45z9OGqYlpb5wDJDKmOPaenD4rgq6Ek9BVf=w408-h541-k-no",
    "kgmid": "/g/11c5rr_bs7"
  },
  {
    "title": "Khwopa Hospital",
    "subTitle": "ख्वप अस्पताल",
    "price": null,
    "categoryName": "Hospital",
    "address": "MCCQ+P67, Chyamhasingha Bhaktapur Minicipality ward-9, Garud Kundal Road, Bhaktapur 44800, Nepal",
    "neighborhood": null,
    "street": "MCCQ+P67, Chyamhasingha Bhaktapur Minicipality ward-9, Garud Kundal Road",
    "city": "Bhaktapur",
    "postalCode": "44800",
    "state": null,
    "countryCode": "NP",
    "phone": "+977 1-6610317",
    "phoneUnformatted": "+97716610317",
    "claimThisBusiness": true,
    "location": {
      "lat": 27.6742045,
      "lng": 85.4390592
    },
    "totalScore": 2.8,
    "permanentlyClosed": false,
    "temporarilyClosed": false,
    "placeId": "ChIJXQPeFMcF6zkRF6OLHjJyswk",
    "categories": [
      "Hospital"
    ],
    "fid": "0x39eb05c714de035d:0x9b372321e8ba317",
    "cid": "699027926758957847",
    "reviewsCount": 57,
    "imagesCount": 219,
    "imageCategories": [],
    "scrapedAt": "2025-11-14T08:13:19.562Z",
    "googleFoodUrl": null,
    "hotelAds": [],
    "openingHours": [
      {
        "day": "Monday",
        "hours": "Open 24 hours"
      },
      {
        "day": "Tuesday",
        "hours": "Open 24 hours"
      },
      {
        "day": "Wednesday",
        "hours": "Open 24 hours"
      },
      {
        "day": "Thursday",
        "hours": "Open 24 hours"
      },
      {
        "day": "Friday",
        "hours": "Open 24 hours"
      },
      {
        "day": "Saturday",
        "hours": "Open 24 hours"
      },
      {
        "day": "Sunday",
        "hours": "Open 24 hours"
      }
    ],
    "peopleAlsoSearch": [],
    "placesTags": [],
    "reviewsTags": [],
    "additionalInfo": {
      "Accessibility": [
        {
          "Wheelchair accessible entrance": true
        },
        {
          "Wheelchair accessible parking lot": true
        }
      ],
      "Offerings": [
        {
          "Medication disposal": true
        }
      ]
    },
    "gasPrices": [],
    "url": "https://www.google.com/maps/search/?api=1&query=Khwopa%20Hospital&query_place_id=ChIJXQPeFMcF6zkRF6OLHjJyswk",
    "searchPageUrl": "https://www.google.com/maps/search/hospital/@27.67530454090198,85.43009086349416,17z?hl=en",
    "searchString": "hospital",
    "language": "en",
    "rank": 2,
    "isAdvertisement": false,
    "imageUrl": "https://lh3.googleusercontent.com/gps-cs-s/AG0ilSyojhojOaahT7p6hov5RQogFOUWtdXMswSeBgkMfB38tcz6xEHthEoG5Sxf_1YUeIyPq9-pa7fSbJVQmr6K8ufDUcQISCJxprta7jiLcx2JgBNKYfaQJvajQt_FZUdbkkfS0vx6=w408-h306-k-no",
    "kgmid": "/g/11h6nj6sqd"
  },
  {
    "title": "लक्ष्मी ओप्टिकल",
    "subTitle": "लक्ष्मी ऑप्टिकल्स",
    "price": null,
    "categoryName": "Hospital",
    "address": "Bhaktapur 44800, Nepal",
    "neighborhood": "Itachhen",
    "street": null,
    "city": "Bhaktapur",
    "postalCode": "44800",
    "state": null,
    "countryCode": "NP",
    "phone": "+977 1-6612012",
    "phoneUnformatted": "+97716612012",
    "claimThisBusiness": false,
    "location": {
      "lat": 27.6726633,
      "lng": 85.4249792
    },
    "totalScore": 1.8,
    "permanentlyClosed": false,
    "temporarilyClosed": false,
    "placeId": "ChIJbQAAOaUa6zkRRYgyygD4MTQ",
    "categories": [
      "Hospital"
    ],
    "fid": "0x39eb1aa53900006d:0x3431f800ca328845",
    "cid": "3761059846107072581",
    "reviewsCount": 9,
    "reviewsDistribution": {
      "oneStar": 6,
      "twoStar": 0,
      "threeStar": 2,
      "fourStar": 1,
      "fiveStar": 0
    },
    "imagesCount": 2,
    "imageCategories": [],
    "scrapedAt": "2025-11-14T08:13:20.486Z",
    "googleFoodUrl": null,
    "hotelAds": [],
    "openingHours": [
      {
        "day": "Monday",
        "hours": "7 AM to 8 PM"
      },
      {
        "day": "Tuesday",
        "hours": "7 AM to 8 PM"
      },
      {
        "day": "Wednesday",
        "hours": "7 AM to 8 PM"
      },
      {
        "day": "Thursday",
        "hours": "7 AM to 8 PM"
      },
      {
        "day": "Friday",
        "hours": "7 AM to 8 PM"
      },
      {
        "day": "Saturday",
        "hours": "7 AM to 8 PM"
      },
      {
        "day": "Sunday",
        "hours": "7 AM to 8 PM"
      }
    ],
    "peopleAlsoSearch": [],
    "placesTags": [],
    "reviewsTags": [],
    "gasPrices": [],
    "url": "https://www.google.com/maps/search/?api=1&query=%E0%A4%B2%E0%A4%95%E0%A5%8D%E0%A4%B7%E0%A5%8D%E0%A4%AE%E0%A5%80%20%E0%A4%93%E0%A4%AA%E0%A5%8D%E0%A4%9F%E0%A4%BF%E0%A4%95%E0%A4%B2&query_place_id=ChIJbQAAOaUa6zkRRYgyygD4MTQ",
    "searchPageUrl": "https://www.google.com/maps/search/hospital/@27.67530454090198,85.43009086349416,17z?hl=en",
    "searchString": "hospital",
    "language": "en",
    "rank": 27,
    "isAdvertisement": false,
    "imageUrl": "https://lh3.googleusercontent.com/p/AF1QipNJ8SuyUoLLMiUOzgvEz6NMwcvYLG8dZAPPTgo-=w408-h725-k-no",
    "kgmid": "/g/11c2r412q0"
  },
  {
    "title": "Human Organ Transplant Centre (Shahid Dharma Bhakta Hospital)",
    "subTitle": "शहिद धर्मभक्त मानव अङ्ग प्रत्यारोपण केन्द्र",
    "price": null,
    "categoryName": "Hospital",
    "address": "भक्तपुर अस्पताल तथा मानव अङग प्रत्यारोपण केन्द्र, Bhaktapur 44800, Nepal",
    "neighborhood": null,
    "street": "भक्तपुर अस्पताल तथा मानव अङग प्रत्यारोपण केन्द्र",
    "city": "Bhaktapur",
    "postalCode": "44800",
    "state": null,
    "countryCode": "NP",
    "website": "http://www.hotc.org.np/",
    "phone": "+977 1-6614709",
    "phoneUnformatted": "+97716614709",
    "claimThisBusiness": true,
    "location": {
      "lat": 27.6727526,
      "lng": 85.4219096
    },
    "totalScore": 3.8,
    "permanentlyClosed": false,
    "temporarilyClosed": false,
    "placeId": "ChIJMSrsWaMa6zkR8Q9vJt1c1e0",
    "categories": [
      "Hospital"
    ],
    "fid": "0x39eb1aa359ec2a31:0xedd55cdd266f0ff1",
    "cid": "17137706061930631153",
    "reviewsCount": 67,
    "imagesCount": 127,
    "imageCategories": [],
    "scrapedAt": "2025-11-14T08:13:27.149Z",
    "googleFoodUrl": null,
    "hotelAds": [],
    "openingHours": [
      {
        "day": "Monday",
        "hours": "Open 24 hours"
      },
      {
        "day": "Tuesday",
        "hours": "Open 24 hours"
      },
      {
        "day": "Wednesday",
        "hours": "Open 24 hours"
      },
      {
        "day": "Thursday",
        "hours": "Open 24 hours"
      },
      {
        "day": "Friday",
        "hours": "Open 24 hours"
      },
      {
        "day": "Saturday",
        "hours": "Open 24 hours"
      },
      {
        "day": "Sunday",
        "hours": "Open 24 hours"
      }
    ],
    "peopleAlsoSearch": [],
    "placesTags": [],
    "reviewsTags": [],
    "additionalInfo": {
      "Accessibility": [
        {
          "Wheelchair accessible entrance": true
        },
        {
          "Wheelchair accessible parking lot": true
        }
      ]
    },
    "gasPrices": [],
    "url": "https://www.google.com/maps/search/?api=1&query=Human%20Organ%20Transplant%20Centre%20(Shahid%20Dharma%20Bhakta%20Hospital)&query_place_id=ChIJMSrsWaMa6zkR8Q9vJt1c1e0",
    "searchPageUrl": "https://www.google.com/maps/search/cancer%20treatment%20center/@27.67530454090198,85.43009086349416,17z?hl=en",
    "searchString": "cancer treatment center",
    "language": "en",
    "rank": 5,
    "isAdvertisement": false,
    "imageUrl": "https://lh3.googleusercontent.com/gps-cs-s/AG0ilSydMUIEpcCPvGJC1jy_IihgNjR24t8NwRH7Y_U90iUWXDEbcqnEY9XjzQNKzZqoMLQHRFufkhm0GlfcdEPSIwiFQF_rwhn6wjGXY2u724AtzBAGUip8QJkke43LuegcY4O_Gghh=w408-h544-k-no",
    "kgmid": "/g/1pp2xb1g_"
  },
  {
    "title": "Dr.Lalpathlabs CC Bhaktapur",
    "price": null,
    "categoryName": "Hospital",
    "address": "Bhaktapur 2 near Bkhatapur cancer hospital, Bhaktapur, Nepal",
    "neighborhood": null,
    "street": "Bhaktapur 2 near Bkhatapur cancer hospital",
    "city": "Bhaktapur",
    "postalCode": null,
    "state": null,
    "countryCode": "NP",
    "phone": "+977 1-6610949",
    "phoneUnformatted": "+97716610949",
    "claimThisBusiness": false,
    "location": {
      "lat": 27.6732109,
      "lng": 85.4227645
    },
    "totalScore": 5,
    "permanentlyClosed": false,
    "temporarilyClosed": false,
    "placeId": "ChIJ9V2zkoUb6zkRdBsk6DBdTTQ",
    "categories": [
      "Hospital"
    ],
    "fid": "0x39eb1b8592b35df5:0x344d5d30e8241b74",
    "cid": "3768770927813466996",
    "reviewsCount": 1,
    "imagesCount": 7,
    "imageCategories": [],
    "scrapedAt": "2025-11-14T08:13:27.149Z",
    "googleFoodUrl": null,
    "hotelAds": [],
    "openingHours": [
      {
        "day": "Monday",
        "hours": "10 AM to 5 PM"
      },
      {
        "day": "Tuesday",
        "hours": "10 AM to 5 PM"
      },
      {
        "day": "Wednesday",
        "hours": "10 AM to 5 PM"
      },
      {
        "day": "Thursday",
        "hours": "10 AM to 5 PM"
      },
      {
        "day": "Friday",
        "hours": "10 AM to 3 PM"
      },
      {
        "day": "Saturday",
        "hours": "Closed"
      },
      {
        "day": "Sunday",
        "hours": "10 AM to 5 PM"
      }
    ],
    "peopleAlsoSearch": [],
    "placesTags": [],
    "reviewsTags": [],
    "gasPrices": [],
    "url": "https://www.google.com/maps/search/?api=1&query=Dr.Lalpathlabs%20CC%20Bhaktapur&query_place_id=ChIJ9V2zkoUb6zkRdBsk6DBdTTQ",
    "searchPageUrl": "https://www.google.com/maps/search/cancer%20treatment%20center/@27.67530454090198,85.43009086349416,17z?hl=en",
    "searchString": "cancer treatment center",
    "language": "en",
    "rank": 6,
    "isAdvertisement": false,
    "imageUrl": "https://lh3.googleusercontent.com/gps-cs-s/AG0ilSz_a0XrN9j9FCrT24qnHUfp6qBt7grnRHsQu6YBZYoj6CS96Dc7UFsQlWaJXeq0hwHVl098P4LYa9gBop4fwY7itySIvetwZ-MeV3W00pN5mYPnwAMVJyoP30o92MEaHjAvp8wjQw=w425-h240-k-no",
    "kgmid": "/g/11ghq646vs"
  },
  {
    "title": "Janta Clinic Pathology",
    "price": null,
    "categoryName": "Hospital",
    "address": "MCCH+9WW near bkhatapur cancer hospital, Bhaktapur 2, Nepal",
    "neighborhood": null,
    "street": "MCCH+9WW near bkhatapur cancer hospital",
    "city": "Bhaktapur",
    "postalCode": "2",
    "state": null,
    "countryCode": "NP",
    "phone": "+977 984-9858658",
    "phoneUnformatted": "+9779849858658",
    "claimThisBusiness": true,
    "location": {
      "lat": 27.6709939,
      "lng": 85.4298429
    },
    "permanentlyClosed": false,
    "temporarilyClosed": false,
    "placeId": "ChIJh6mjnxIb6zkRzMEDzlI0ASY",
    "categories": [
      "Hospital"
    ],
    "fid": "0x39eb1b129fa3a987:0x26013452ce03c1cc",
    "cid": "2738527578666287564",
    "reviewsCount": 0,
    "imagesCount": 1,
    "imageCategories": [],
    "scrapedAt": "2025-11-14T08:13:27.149Z",
    "googleFoodUrl": null,
    "hotelAds": [],
    "openingHours": [
      {
        "day": "Monday",
        "hours": "7 AM to 5 PM"
      },
      {
        "day": "Tuesday",
        "hours": "7 AM to 5 PM"
      },
      {
        "day": "Wednesday",
        "hours": "7 AM to 5 PM"
      },
      {
        "day": "Thursday",
        "hours": "7 AM to 5 PM"
      },
      {
        "day": "Friday",
        "hours": "7 AM to 5 PM"
      },
      {
        "day": "Saturday",
        "hours": "Closed"
      },
      {
        "day": "Sunday",
        "hours": "7 AM to 5 PM"
      }
    ],
    "peopleAlsoSearch": [],
    "placesTags": [],
    "reviewsTags": [],
    "gasPrices": [],
    "url": "https://www.google.com/maps/search/?api=1&query=Janta%20Clinic%20Pathology&query_place_id=ChIJh6mjnxIb6zkRzMEDzlI0ASY",
    "searchPageUrl": "https://www.google.com/maps/search/cancer%20treatment%20center/@27.67530454090198,85.43009086349416,17z?hl=en",
    "searchString": "cancer treatment center",
    "language": "en",
    "rank": 8,
    "isAdvertisement": false,
    "imageUrl": "https://streetviewpixels-pa.googleapis.com/v1/thumbnail?panoid=Xiwkb2LIzRqxgf6gIkv8Jw&cb_client=search.gws-prod.gps&w=408&h=240&yaw=356.44382&pitch=0&thumbfov=100",
    "kgmid": "/g/11f631pqv6"
  },
  {
    "title": "Spark Ortho Neuro Center",
    "price": null,
    "categoryName": "Hospital",
    "address": "Suryabinayak 44800, Nepal",
    "neighborhood": "Katunje",
    "street": null,
    "city": "Suryabinayak",
    "postalCode": "44800",
    "state": null,
    "countryCode": "NP",
    "phone": "+977 1-5092256",
    "phoneUnformatted": "+97715092256",
    "claimThisBusiness": false,
    "location": {
      "lat": 27.6659344,
      "lng": 85.4192158
    },
    "permanentlyClosed": false,
    "temporarilyClosed": false,
    "placeId": "ChIJjxPS5aUb6zkRvhe5AWGZbCM",
    "categories": [
      "Hospital"
    ],
    "fid": "0x39eb1ba5e5d2138f:0x236c996101b917be",
    "cid": "2552583730732013502",
    "reviewsCount": 0,
    "imagesCount": 3,
    "imageCategories": [],
    "scrapedAt": "2025-11-14T08:13:50.731Z",
    "googleFoodUrl": null,
    "hotelAds": [],
    "openingHours": [
      {
        "day": "Monday",
        "hours": "6:45 AM to 6 PM"
      },
      {
        "day": "Tuesday",
        "hours": "6:45 AM to 6 PM"
      },
      {
        "day": "Wednesday",
        "hours": "6:45 AM to 6 PM"
      },
      {
        "day": "Thursday",
        "hours": "6:45 AM to 6 PM"
      },
      {
        "day": "Friday",
        "hours": "6:45 AM to 6 PM"
      },
      {
        "day": "Saturday",
        "hours": "6:45 AM to 6 PM"
      },
      {
        "day": "Sunday",
        "hours": "6:45 AM to 6 PM"
      }
    ],
    "peopleAlsoSearch": [],
    "placesTags": [],
    "reviewsTags": [],
    "gasPrices": [],
    "url": "https://www.google.com/maps/search/?api=1&query=Spark%20Ortho%20Neuro%20Center&query_place_id=ChIJjxPS5aUb6zkRvhe5AWGZbCM",
    "searchPageUrl": "https://www.google.com/maps/search/hospital/@27.667695459098024,85.42150000000001,17z?hl=en",
    "searchString": "hospital",
    "language": "en",
    "rank": 21,
    "isAdvertisement": false,
    "imageUrl": "https://lh3.googleusercontent.com/p/AF1QipNnfxkayCiKPax0wN4-u9MlgGlzNh3C2k7zZ45B=w408-h725-k-no",
    "kgmid": "/g/11h3b277b9"
  },
  {
    "title": "Suryabinayak Polyclinic",
    "price": null,
    "categoryName": "Hospital",
    "address": "MC7G+W2F, Suryabinayak 44800, Nepal",
    "neighborhood": "Katunje",
    "street": "MC7G+W2F",
    "city": "Suryabinayak",
    "postalCode": "44800",
    "state": null,
    "countryCode": "NP",
    "phone": "+977 1-6610695",
    "phoneUnformatted": "+97716610695",
    "claimThisBusiness": true,
    "location": {
      "lat": 27.6648182,
      "lng": 85.425057
    },
    "totalScore": 2.9,
    "permanentlyClosed": false,
    "temporarilyClosed": false,
    "placeId": "ChIJrQuYq6ca6zkR3sF-3oh52pQ",
    "categories": [
      "Hospital"
    ],
    "fid": "0x39eb1aa7ab980bad:0x94da7988de7ec1de",
    "cid": "10726019091291619806",
    "reviewsCount": 10,
    "reviewsDistribution": {
      "oneStar": 3,
      "twoStar": 1,
      "threeStar": 2,
      "fourStar": 2,
      "fiveStar": 2
    },
    "imagesCount": 8,
    "imageCategories": [],
    "scrapedAt": "2025-11-14T08:13:50.731Z",
    "googleFoodUrl": null,
    "hotelAds": [],
    "openingHours": [
      {
        "day": "Monday",
        "hours": "7 AM to 7 PM"
      },
      {
        "day": "Tuesday",
        "hours": "7 AM to 7 PM"
      },
      {
        "day": "Wednesday",
        "hours": "7 AM to 7 PM"
      },
      {
        "day": "Thursday",
        "hours": "7 AM to 7 PM"
      },
      {
        "day": "Friday",
        "hours": "7 AM to 7 PM"
      },
      {
        "day": "Saturday",
        "hours": "7 AM to 7 PM"
      },
      {
        "day": "Sunday",
        "hours": "7 AM to 7 PM"
      }
    ],
    "peopleAlsoSearch": [],
    "placesTags": [],
    "reviewsTags": [],
    "gasPrices": [],
    "url": "https://www.google.com/maps/search/?api=1&query=Suryabinayak%20Polyclinic&query_place_id=ChIJrQuYq6ca6zkR3sF-3oh52pQ",
    "searchPageUrl": "https://www.google.com/maps/search/hospital/@27.667695459098024,85.42150000000001,17z?hl=en",
    "searchString": "hospital",
    "language": "en",
    "rank": 22,
    "isAdvertisement": false,
    "imageUrl": "https://lh3.googleusercontent.com/gps-cs-s/AG0ilSw7NQG7uU7q7g74sRaHRkkLy1TSiuhtv8rxjmFrfzwg1bLUnfiGKwxEnMz1uUVZekew1IEjRjzKLYLi2Zg1eIS7ptRabAclMVeBaJaiM59TBtlujfOsQbivagtNHaWKb1mkdGbkcA=w408-h725-k-no",
    "kgmid": "/g/11c60_f33r"
  },
  {
    "title": "Tathali Health Post",
    "price": null,
    "categoryName": "Hospital",
    "address": "MC9G+6F7, Rammandir Rd, Suryabinayak 44800, Nepal",
    "neighborhood": null,
    "street": "MC9G+6F7, Rammandir Rd",
    "city": "Suryabinayak",
    "postalCode": "44800",
    "state": null,
    "countryCode": "NP",
    "claimThisBusiness": true,
    "location": {
      "lat": 27.6680403,
      "lng": 85.4261613
    },
    "permanentlyClosed": false,
    "temporarilyClosed": false,
    "placeId": "ChIJO7sf3qUa6zkRo-tqcGYxWx0",
    "categories": [
      "Hospital",
      "Health consultant"
    ],
    "fid": "0x39eb1aa5de1fbb3b:0x1d5b3166706aeba3",
    "cid": "2115338766023060387",
    "reviewsCount": 0,
    "imagesCount": 1,
    "imageCategories": [],
    "scrapedAt": "2025-11-14T08:13:50.731Z",
    "googleFoodUrl": null,
    "hotelAds": [],
    "openingHours": [
      {
        "day": "Monday",
        "hours": "10 AM to 5 PM"
      },
      {
        "day": "Tuesday",
        "hours": "10 AM to 5 PM"
      },
      {
        "day": "Wednesday",
        "hours": "10 AM to 5 PM"
      },
      {
        "day": "Thursday",
        "hours": "10 AM to 5 PM"
      },
      {
        "day": "Friday",
        "hours": "10 AM to 5 PM"
      },
      {
        "day": "Saturday",
        "hours": "Closed"
      },
      {
        "day": "Sunday",
        "hours": "10 AM to 5 PM"
      }
    ],
    "peopleAlsoSearch": [],
    "placesTags": [],
    "reviewsTags": [],
    "gasPrices": [],
    "url": "https://www.google.com/maps/search/?api=1&query=Tathali%20Health%20Post&query_place_id=ChIJO7sf3qUa6zkRo-tqcGYxWx0",
    "searchPageUrl": "https://www.google.com/maps/search/hospital/@27.667695459098024,85.42150000000001,17z?hl=en",
    "searchString": "hospital",
    "language": "en",
    "rank": 23,
    "isAdvertisement": false,
    "imageUrl": "https://streetviewpixels-pa.googleapis.com/v1/thumbnail?panoid=Z1w8kr0XPJAMQLhkWvb7ew&cb_client=search.gws-prod.gps&w=408&h=240&yaw=201.1417&pitch=0&thumbfov=100",
    "kgmid": "/g/11ckqj7gx_"
  },
  {
    "title": "Siddhi Pathology Lab",
    "price": null,
    "categoryName": "Hospital",
    "address": "MC8F+6V3, Suryabinayak 44800, Nepal",
    "neighborhood": "Katunje",
    "street": "MC8F+6V3",
    "city": "Suryabinayak",
    "postalCode": null,
    "state": null,
    "countryCode": "NP",
    "phone": "+977 981-8134485",
    "phoneUnformatted": "+9779818134485",
    "claimThisBusiness": true,
    "location": {
      "lat": 27.6655012,
      "lng": 85.4246681
    },
    "totalScore": 3,
    "permanentlyClosed": false,
    "temporarilyClosed": false,
    "placeId": "ChIJ3VJxOb0b6zkRedM2c8my2S8",
    "categories": [
      "Hospital"
    ],
    "fid": "0x39eb1bbd397152dd:0x2fd9b2c97336d379",
    "cid": "3447983568019968889",
    "reviewsCount": 2,
    "reviewsDistribution": {
      "oneStar": 1,
      "twoStar": 0,
      "threeStar": 0,
      "fourStar": 0,
      "fiveStar": 1
    },
    "imagesCount": 3,
    "imageCategories": [],
    "scrapedAt": "2025-11-14T08:13:50.731Z",
    "googleFoodUrl": null,
    "hotelAds": [],
    "openingHours": [
      {
        "day": "Monday",
        "hours": "7 AM to 7 PM"
      },
      {
        "day": "Tuesday",
        "hours": "7 AM to 7 PM"
      },
      {
        "day": "Wednesday",
        "hours": "7 AM to 7 PM"
      },
      {
        "day": "Thursday",
        "hours": "7 AM to 7 PM"
      },
      {
        "day": "Friday",
        "hours": "7 AM to 7 PM"
      },
      {
        "day": "Saturday",
        "hours": "7 AM to 7 PM"
      },
      {
        "day": "Sunday",
        "hours": "7 AM to 7 PM"
      }
    ],
    "peopleAlsoSearch": [],
    "placesTags": [],
    "reviewsTags": [],
    "gasPrices": [],
    "url": "https://www.google.com/maps/search/?api=1&query=Siddhi%20Pathology%20Lab&query_place_id=ChIJ3VJxOb0b6zkRedM2c8my2S8",
    "searchPageUrl": "https://www.google.com/maps/search/hospital/@27.667695459098024,85.42150000000001,17z?hl=en",
    "searchString": "hospital",
    "language": "en",
    "rank": 24,
    "isAdvertisement": false,
    "imageUrl": "https://lh3.googleusercontent.com/gps-cs-s/AG0ilSzlahIphfLHtxTxwtoG15bA8LWk6Z0mSov4qkYmsmO_TnkMw8gPgbf6kQMmW8wvDYD4E0r8J-lP56MloRmzfjaoUHxWFIafd5VmpBLNQh8HKeYc-HfWX_VRe8aed3k_h9VYsJm8=w408-h578-k-no",
    "kgmid": "/g/11j4kb7dyj"
  },
  {
    "title": "chandeshwori health care pvt.ltd.",
    "price": null,
    "categoryName": "Hospital",
    "address": "MCCC+335, Ganeshthan Road, Bhaktapur 44800, Nepal",
    "neighborhood": null,
    "street": "MCCC+335, Ganeshthan Road",
    "city": "Bhaktapur",
    "postalCode": "44800",
    "state": null,
    "countryCode": "NP",
    "claimThisBusiness": true,
    "location": {
      "lat": 27.6701412,
      "lng": 85.4202209
    },
    "permanentlyClosed": false,
    "temporarilyClosed": false,
    "placeId": "ChIJNUE7BHUb6zkRTiXqRE3G9no",
    "categories": [
      "Hospital"
    ],
    "fid": "0x39eb1b75043b4135:0x7af6c64d44ea254e",
    "cid": "8860487352069006670",
    "reviewsCount": 0,
    "imagesCount": null,
    "imageCategories": [],
    "scrapedAt": "2025-11-14T08:13:50.731Z",
    "googleFoodUrl": null,
    "hotelAds": [],
    "openingHours": [],
    "peopleAlsoSearch": [],
    "placesTags": [],
    "reviewsTags": [],
    "gasPrices": [],
    "url": "https://www.google.com/maps/search/?api=1&query=chandeshwori%20health%20care%20pvt.ltd.&query_place_id=ChIJNUE7BHUb6zkRTiXqRE3G9no",
    "searchPageUrl": "https://www.google.com/maps/search/hospital/@27.667695459098024,85.42150000000001,17z?hl=en",
    "searchString": "hospital",
    "language": "en",
    "rank": 26,
    "isAdvertisement": false,
    "kgmid": "/g/11h4zfvptj"
  },
  {
    "title": "Siddhi Memorial Women and Children Hospital",
    "subTitle": "सिद्धि स्मृति महिला तथा बाल अस्पताल",
    "price": null,
    "categoryName": "Hospital",
    "address": "Bhimsenthan-7, Bhaktapur, Province 3, Bhaktapur 44800, Nepal",
    "neighborhood": null,
    "street": "Bhimsenthan-7, Bhaktapur, Province 3",
    "city": "Bhaktapur",
    "postalCode": "44800",
    "state": null,
    "countryCode": "NP",
    "website": "http://www.smf.org.np/",
    "phone": "+977 1-6612945",
    "phoneUnformatted": "+97716612945",
    "claimThisBusiness": false,
    "location": {
      "lat": 27.6683346,
      "lng": 85.4326862
    },
    "totalScore": 3.6,
    "permanentlyClosed": false,
    "temporarilyClosed": false,
    "placeId": "ChIJjQOxAawa6zkR3c8cByBgaK4",
    "categories": [
      "Hospital"
    ],
    "fid": "0x39eb1aac01b1038d:0xae686020071ccfdd",
    "cid": "12567400450851917789",
    "reviewsCount": 78,
    "imagesCount": 223,
    "imageCategories": [],
    "scrapedAt": "2025-11-14T08:40:29.611Z",
    "googleFoodUrl": null,
    "hotelAds": [],
    "openingHours": [
      {
        "day": "Monday",
        "hours": "Open 24 hours"
      },
      {
        "day": "Tuesday",
        "hours": "Open 24 hours"
      },
      {
        "day": "Wednesday",
        "hours": "Open 24 hours"
      },
      {
        "day": "Thursday",
        "hours": "Open 24 hours"
      },
      {
        "day": "Friday",
        "hours": "Open 24 hours"
      },
      {
        "day": "Saturday",
        "hours": "Open 24 hours"
      },
      {
        "day": "Sunday",
        "hours": "Open 24 hours"
      }
    ],
    "peopleAlsoSearch": [],
    "placesTags": [],
    "reviewsTags": [],
    "additionalInfo": {
      "Accessibility": [
        {
          "Wheelchair accessible entrance": true
        },
        {
          "Wheelchair accessible parking lot": true
        },
        {
          "Wheelchair accessible seating": true
        }
      ],
      "Payments": [
        {
          "NFC mobile payments": true
        }
      ]
    },
    "gasPrices": [],
    "url": "https://www.google.com/maps/search/?api=1&query=Siddhi%20Memorial%20Women%20and%20Children%20Hospital&query_place_id=ChIJjQOxAawa6zkR3c8cByBgaK4",
    "searchPageUrl": "https://www.google.com/maps/search/children's%20hospital/@27.689813953235532,85.45446650592592,17z?hl=en",
    "searchString": "children's hospital",
    "language": "en",
    "rank": 1,
    "isAdvertisement": false,
    "imageUrl": "https://lh3.googleusercontent.com/p/AF1QipP0J6fzPvtoLjA91rx4v8aJSjHzEFOYIgYurAxv=w408-h306-k-no",
    "kgmid": "/g/1tfqpc3w"
  },
  {
    "title": "Khwopa Hospital",
    "subTitle": "ख्वप अस्पताल",
    "price": null,
    "categoryName": "Hospital",
    "address": "MCCQ+P67, Chyamhasingha Bhaktapur Minicipality ward-9, Garud Kundal Road, Bhaktapur 44800, Nepal",
    "neighborhood": null,
    "street": "MCCQ+P67, Chyamhasingha Bhaktapur Minicipality ward-9, Garud Kundal Road",
    "city": "Bhaktapur",
    "postalCode": "44800",
    "state": null,
    "countryCode": "NP",
    "phone": "+977 1-6610317",
    "phoneUnformatted": "+97716610317",
    "claimThisBusiness": true,
    "location": {
      "lat": 27.6742045,
      "lng": 85.4390592
    },
    "totalScore": 2.8,
    "permanentlyClosed": false,
    "temporarilyClosed": false,
    "placeId": "ChIJXQPeFMcF6zkRF6OLHjJyswk",
    "categories": [
      "Hospital"
    ],
    "fid": "0x39eb05c714de035d:0x9b372321e8ba317",
    "cid": "699027926758957847",
    "reviewsCount": 57,
    "imagesCount": 219,
    "imageCategories": [],
    "scrapedAt": "2025-11-14T08:40:29.611Z",
    "googleFoodUrl": null,
    "hotelAds": [],
    "openingHours": [
      {
        "day": "Monday",
        "hours": "Open 24 hours"
      },
      {
        "day": "Tuesday",
        "hours": "Open 24 hours"
      },
      {
        "day": "Wednesday",
        "hours": "Open 24 hours"
      },
      {
        "day": "Thursday",
        "hours": "Open 24 hours"
      },
      {
        "day": "Friday",
        "hours": "Open 24 hours"
      },
      {
        "day": "Saturday",
        "hours": "Open 24 hours"
      },
      {
        "day": "Sunday",
        "hours": "Open 24 hours"
      }
    ],
    "peopleAlsoSearch": [],
    "placesTags": [],
    "reviewsTags": [],
    "additionalInfo": {
      "Accessibility": [
        {
          "Wheelchair accessible entrance": true
        },
        {
          "Wheelchair accessible parking lot": true
        }
      ],
      "Offerings": [
        {
          "Medication disposal": true
        }
      ]
    },
    "gasPrices": [],
    "url": "https://www.google.com/maps/search/?api=1&query=Khwopa%20Hospital&query_place_id=ChIJXQPeFMcF6zkRF6OLHjJyswk",
    "searchPageUrl": "https://www.google.com/maps/search/children's%20hospital/@27.689813953235532,85.45446650592592,17z?hl=en",
    "searchString": "children's hospital",
    "language": "en",
    "rank": 18,
    "isAdvertisement": false,
    "imageUrl": "https://lh3.googleusercontent.com/gps-cs-s/AG0ilSzRU5Qb-snSJ2GQ4-zSPFrC8GVPmpkGopSsSFidYvndVnn1rvOMjE1YSgowtSqVH-CY0DUTxF1ITEmpJlP6sLADgQO2bHbLcBefUovTdWKi8t918sURSmy1Niv6KmLXAtfYsrmW=w408-h306-k-no",
    "kgmid": "/g/11h6nj6sqd"
  },
  {
    "title": "Bhaktapur Hospital भक्तपुर अस्पताल",
    "subTitle": "भक्तपुर अस्पताल",
    "price": null,
    "categoryName": "Hospital",
    "address": "Bhaktapur 44800, Nepal",
    "neighborhood": null,
    "street": null,
    "city": "Bhaktapur",
    "postalCode": "44800",
    "state": null,
    "countryCode": "NP",
    "website": "http://www.bhaktapurhospital.gov.np/",
    "phone": "+977 1-6610798",
    "phoneUnformatted": "+97716610798",
    "claimThisBusiness": false,
    "location": {
      "lat": 27.6719188,
      "lng": 85.4220317
    },
    "totalScore": 3.2,
    "permanentlyClosed": false,
    "temporarilyClosed": false,
    "placeId": "ChIJzwOjXqMa6zkRdEpmL-gU1S0",
    "categories": [
      "Hospital"
    ],
    "fid": "0x39eb1aa35ea303cf:0x2dd514e82f664a74",
    "cid": "3302568889206327924",
    "reviewsCount": 97,
    "imagesCount": 239,
    "imageCategories": [],
    "scrapedAt": "2025-11-14T08:40:32.384Z",
    "googleFoodUrl": null,
    "hotelAds": [],
    "openingHours": [
      {
        "day": "Monday",
        "hours": "Open 24 hours"
      },
      {
        "day": "Tuesday",
        "hours": "Open 24 hours"
      },
      {
        "day": "Wednesday",
        "hours": "Open 24 hours"
      },
      {
        "day": "Thursday",
        "hours": "Open 24 hours"
      },
      {
        "day": "Friday",
        "hours": "Open 24 hours"
      },
      {
        "day": "Saturday",
        "hours": "Open 24 hours"
      },
      {
        "day": "Sunday",
        "hours": "Open 24 hours"
      }
    ],
    "peopleAlsoSearch": [],
    "placesTags": [],
    "reviewsTags": [],
    "additionalInfo": {
      "Accessibility": [
        {
          "Wheelchair accessible entrance": true
        },
        {
          "Wheelchair accessible parking lot": true
        }
      ],
      "Payments": [
        {
          "Credit cards": true
        },
        {
          "Debit cards": true
        },
        {
          "NFC mobile payments": true
        }
      ]
    },
    "gasPrices": [],
    "url": "https://www.google.com/maps/search/?api=1&query=Bhaktapur%20Hospital%20%E0%A4%AD%E0%A4%95%E0%A5%8D%E0%A4%A4%E0%A4%AA%E0%A5%81%E0%A4%B0%20%E0%A4%85%E0%A4%B8%E0%A5%8D%E0%A4%AA%E0%A4%A4%E0%A4%BE%E0%A4%B2&query_place_id=ChIJzwOjXqMa6zkRdEpmL-gU1S0",
    "searchPageUrl": "https://www.google.com/maps/search/hospital/@27.689813953235532,85.45446650592592,17z?hl=en",
    "searchString": "hospital",
    "language": "en",
    "rank": 1,
    "isAdvertisement": false,
    "imageUrl": "https://lh3.googleusercontent.com/gps-cs-s/AG0ilSwKaKiEuhoPGfJbwjsmg33ev9o3Q4qSADqQ2Ghzmduna3Wy1e9NPqNiVKzIXUYmer0gCT9TzhL-Pnlf-JW4jL1Fcs11r7aHkD8xn45z9OGqYlpb5wDJDKmOPaenD4rgq6Ek9BVf=w408-h541-k-no",
    "kgmid": "/g/11c5rr_bs7"
  },
  {
    "title": "Changunarayan Hospital",
    "price": null,
    "categoryName": "Hospital",
    "address": "Changunarayan Rd, Changunarayan 44600, Nepal",
    "neighborhood": "Chhaling",
    "street": "Changunarayan Rd",
    "city": "Changunarayan",
    "postalCode": "44600",
    "state": null,
    "countryCode": "NP",
    "phone": "+977 1-5711012",
    "phoneUnformatted": "+97715711012",
    "claimThisBusiness": false,
    "location": {
      "lat": 27.707685,
      "lng": 85.4401354
    },
    "totalScore": 4.3,
    "permanentlyClosed": false,
    "temporarilyClosed": false,
    "placeId": "ChIJ0_Ea9SoF6zkR5ica-8MF_iE",
    "categories": [
      "Hospital"
    ],
    "fid": "0x39eb052af51af1d3:0x21fe05c3fb1a27e6",
    "cid": "2449401586625685478",
    "reviewsCount": 15,
    "imagesCount": 51,
    "imageCategories": [],
    "scrapedAt": "2025-11-14T08:40:32.384Z",
    "googleFoodUrl": null,
    "hotelAds": [],
    "openingHours": [
      {
        "day": "Monday",
        "hours": "Open 24 hours"
      },
      {
        "day": "Tuesday",
        "hours": "Open 24 hours"
      },
      {
        "day": "Wednesday",
        "hours": "Open 24 hours"
      },
      {
        "day": "Thursday",
        "hours": "Open 24 hours"
      },
      {
        "day": "Friday",
        "hours": "Open 24 hours"
      },
      {
        "day": "Saturday",
        "hours": "Open 24 hours"
      },
      {
        "day": "Sunday",
        "hours": "Open 24 hours"
      }
    ],
    "peopleAlsoSearch": [],
    "placesTags": [],
    "reviewsTags": [],
    "additionalInfo": {
      "Accessibility": [
        {
          "Wheelchair accessible entrance": true
        },
        {
          "Wheelchair accessible parking lot": true
        },
        {
          "Wheelchair accessible restroom": true
        }
      ],
      "Offerings": [
        {
          "Medication disposal": true
        }
      ]
    },
    "gasPrices": [],
    "url": "https://www.google.com/maps/search/?api=1&query=Changunarayan%20Hospital&query_place_id=ChIJ0_Ea9SoF6zkR5ica-8MF_iE",
    "searchPageUrl": "https://www.google.com/maps/search/hospital/@27.689813953235532,85.45446650592592,17z?hl=en",
    "searchString": "hospital",
    "language": "en",
    "rank": 2,
    "isAdvertisement": false,
    "imageUrl": "https://lh3.googleusercontent.com/gps-cs-s/AG0ilSz4EtL4OD4IVFbayc8oXzkXz_Ml1vdmjsfIIKjksK4rc9iAVpSzEhYcDFjZLaZsGFUjoIDamGW4DEdc3ie3dm2vl-E4jAxtlyJ4VsB4bONr3YV2ypg_E0iFQgMfmJhOp3WnaArJ1A=w408-h306-k-no",
    "kgmid": "/g/113j9ff14"
  },
  {
    "title": "Khwopa hospital wing 2",
    "price": null,
    "categoryName": "Hospital",
    "address": "MCFV+H65, Chyaamasing, Bhaktapur 44800, Nepal",
    "neighborhood": null,
    "street": "MCFV+H65, Chyaamasing",
    "city": "Bhaktapur",
    "postalCode": "44800",
    "state": null,
    "countryCode": "NP",
    "claimThisBusiness": true,
    "location": {
      "lat": 27.6738875,
      "lng": 85.4431094
    },
    "totalScore": 5,
    "permanentlyClosed": false,
    "temporarilyClosed": false,
    "placeId": "ChIJr77saQAF6zkRTi87NNSrXTA",
    "categories": [
      "Hospital"
    ],
    "fid": "0x39eb050069ecbeaf:0x305dabd4343b2f4e",
    "cid": "3485130614552342350",
    "reviewsCount": 1,
    "imagesCount": 1,
    "imageCategories": [],
    "scrapedAt": "2025-11-14T08:40:32.384Z",
    "googleFoodUrl": null,
    "hotelAds": [],
    "openingHours": [],
    "peopleAlsoSearch": [],
    "placesTags": [],
    "reviewsTags": [],
    "additionalInfo": {
      "Accessibility": [
        {
          "Wheelchair accessible entrance": true
        },
        {
          "Wheelchair accessible parking lot": true
        }
      ]
    },
    "gasPrices": [],
    "url": "https://www.google.com/maps/search/?api=1&query=Khwopa%20hospital%20wing%202&query_place_id=ChIJr77saQAF6zkRTi87NNSrXTA",
    "searchPageUrl": "https://www.google.com/maps/search/hospital/@27.689813953235532,85.45446650592592,17z?hl=en",
    "searchString": "hospital",
    "language": "en",
    "rank": 3,
    "isAdvertisement": false,
    "imageUrl": "https://streetviewpixels-pa.googleapis.com/v1/thumbnail?panoid=gBci7lfOUXS0SiIj5fWLew&cb_client=search.gws-prod.gps&w=408&h=240&yaw=188.57062&pitch=0&thumbfov=100",
    "kgmid": "/g/11wq2vhs_s"
  },
  {
    "title": "Suryabinayak Municipal Hospital",
    "price": null,
    "categoryName": "Hospital",
    "address": "MC8P+674, Araniko Highway, Bhaktapur 44800, Nepal",
    "neighborhood": "Sipadol",
    "street": "MC8P+674, Araniko Highway",
    "city": "Bhaktapur",
    "postalCode": "44800",
    "state": null,
    "countryCode": "NP",
    "website": "https://sbmh.bagamati.gov.np/",
    "phone": "+977 1-6618946",
    "phoneUnformatted": "+97716618946",
    "claimThisBusiness": false,
    "location": {
      "lat": 27.6654523,
      "lng": 85.435313
    },
    "totalScore": 3.9,
    "permanentlyClosed": false,
    "temporarilyClosed": false,
    "placeId": "ChIJacH6vwkb6zkRX_Q0wYPhRIA",
    "categories": [
      "Hospital"
    ],
    "fid": "0x39eb1b09bffac169:0x8044e183c134f45f",
    "cid": "9242760291269538911",
    "reviewsCount": 26,
    "imagesCount": 66,
    "imageCategories": [],
    "scrapedAt": "2025-11-14T08:40:47.250Z",
    "googleFoodUrl": null,
    "hotelAds": [],
    "openingHours": [
      {
        "day": "Monday",
        "hours": "Open 24 hours"
      },
      {
        "day": "Tuesday",
        "hours": "Open 24 hours"
      },
      {
        "day": "Wednesday",
        "hours": "Open 24 hours"
      },
      {
        "day": "Thursday",
        "hours": "Open 24 hours"
      },
      {
        "day": "Friday",
        "hours": "Open 24 hours"
      },
      {
        "day": "Saturday",
        "hours": "Open 24 hours"
      },
      {
        "day": "Sunday",
        "hours": "Open 24 hours"
      }
    ],
    "peopleAlsoSearch": [],
    "placesTags": [],
    "reviewsTags": [],
    "additionalInfo": {
      "Accessibility": [
        {
          "Wheelchair accessible entrance": true
        },
        {
          "Wheelchair accessible parking lot": true
        }
      ]
    },
    "gasPrices": [],
    "url": "https://www.google.com/maps/search/?api=1&query=Suryabinayak%20Municipal%20Hospital&query_place_id=ChIJacH6vwkb6zkRX_Q0wYPhRIA",
    "searchPageUrl": "https://www.google.com/maps/search/hospital/@27.63656511691115,85.43729330118518,17z?hl=en",
    "searchString": "hospital",
    "language": "en",
    "rank": 2,
    "isAdvertisement": false,
    "imageUrl": "https://lh3.googleusercontent.com/p/AF1QipPj38FwBO8UB3U7UwHLkMuKa8aw-WOp_3WGY9e9=w408-h243-k-no",
    "kgmid": "/g/11t16rwgxy"
  },
  {
    "title": "Suryabinayak Polyclinic",
    "price": null,
    "categoryName": "Hospital",
    "address": "MC7G+W2F, Suryabinayak 44800, Nepal",
    "neighborhood": "Katunje",
    "street": "MC7G+W2F",
    "city": "Suryabinayak",
    "postalCode": "44800",
    "state": null,
    "countryCode": "NP",
    "phone": "+977 1-6610695",
    "phoneUnformatted": "+97716610695",
    "claimThisBusiness": true,
    "location": {
      "lat": 27.6648182,
      "lng": 85.425057
    },
    "totalScore": 2.9,
    "permanentlyClosed": false,
    "temporarilyClosed": false,
    "placeId": "ChIJrQuYq6ca6zkR3sF-3oh52pQ",
    "categories": [
      "Hospital"
    ],
    "fid": "0x39eb1aa7ab980bad:0x94da7988de7ec1de",
    "cid": "10726019091291619806",
    "reviewsCount": 10,
    "reviewsDistribution": {
      "oneStar": 3,
      "twoStar": 1,
      "threeStar": 2,
      "fourStar": 2,
      "fiveStar": 2
    },
    "imagesCount": 8,
    "imageCategories": [],
    "scrapedAt": "2025-11-14T08:40:51.003Z",
    "googleFoodUrl": null,
    "hotelAds": [],
    "openingHours": [
      {
        "day": "Monday",
        "hours": "7 AM to 7 PM"
      },
      {
        "day": "Tuesday",
        "hours": "7 AM to 7 PM"
      },
      {
        "day": "Wednesday",
        "hours": "7 AM to 7 PM"
      },
      {
        "day": "Thursday",
        "hours": "7 AM to 7 PM"
      },
      {
        "day": "Friday",
        "hours": "7 AM to 7 PM"
      },
      {
        "day": "Saturday",
        "hours": "7 AM to 7 PM"
      },
      {
        "day": "Sunday",
        "hours": "7 AM to 7 PM"
      }
    ],
    "peopleAlsoSearch": [],
    "placesTags": [],
    "reviewsTags": [],
    "gasPrices": [],
    "url": "https://www.google.com/maps/search/?api=1&query=Suryabinayak%20Polyclinic&query_place_id=ChIJrQuYq6ca6zkR3sF-3oh52pQ",
    "searchPageUrl": "https://www.google.com/maps/search/hospital/@27.666993023382226,85.4287066988148,17z?hl=en",
    "searchString": "hospital",
    "language": "en",
    "rank": 23,
    "isAdvertisement": false,
    "imageUrl": "https://lh3.googleusercontent.com/gps-cs-s/AG0ilSw7NQG7uU7q7g74sRaHRkkLy1TSiuhtv8rxjmFrfzwg1bLUnfiGKwxEnMz1uUVZekew1IEjRjzKLYLi2Zg1eIS7ptRabAclMVeBaJaiM59TBtlujfOsQbivagtNHaWKb1mkdGbkcA=w408-h725-k-no",
    "kgmid": "/g/11c60_f33r"
  },
  {
    "title": "Tathali Health Post",
    "price": null,
    "categoryName": "Hospital",
    "address": "MC9G+6F7, Rammandir Rd, Suryabinayak 44800, Nepal",
    "neighborhood": null,
    "street": "MC9G+6F7, Rammandir Rd",
    "city": "Suryabinayak",
    "postalCode": "44800",
    "state": null,
    "countryCode": "NP",
    "claimThisBusiness": true,
    "location": {
      "lat": 27.6680403,
      "lng": 85.4261613
    },
    "permanentlyClosed": false,
    "temporarilyClosed": false,
    "placeId": "ChIJO7sf3qUa6zkRo-tqcGYxWx0",
    "categories": [
      "Hospital",
      "Health consultant"
    ],
    "fid": "0x39eb1aa5de1fbb3b:0x1d5b3166706aeba3",
    "cid": "2115338766023060387",
    "reviewsCount": 0,
    "imagesCount": 1,
    "imageCategories": [],
    "scrapedAt": "2025-11-14T08:40:51.003Z",
    "googleFoodUrl": null,
    "hotelAds": [],
    "openingHours": [
      {
        "day": "Monday",
        "hours": "10 AM to 5 PM"
      },
      {
        "day": "Tuesday",
        "hours": "10 AM to 5 PM"
      },
      {
        "day": "Wednesday",
        "hours": "10 AM to 5 PM"
      },
      {
        "day": "Thursday",
        "hours": "10 AM to 5 PM"
      },
      {
        "day": "Friday",
        "hours": "10 AM to 5 PM"
      },
      {
        "day": "Saturday",
        "hours": "Closed"
      },
      {
        "day": "Sunday",
        "hours": "10 AM to 5 PM"
      }
    ],
    "peopleAlsoSearch": [],
    "placesTags": [],
    "reviewsTags": [],
    "gasPrices": [],
    "url": "https://www.google.com/maps/search/?api=1&query=Tathali%20Health%20Post&query_place_id=ChIJO7sf3qUa6zkRo-tqcGYxWx0",
    "searchPageUrl": "https://www.google.com/maps/search/hospital/@27.666993023382226,85.4287066988148,17z?hl=en",
    "searchString": "hospital",
    "language": "en",
    "rank": 24,
    "isAdvertisement": false,
    "imageUrl": "https://streetviewpixels-pa.googleapis.com/v1/thumbnail?panoid=Z1w8kr0XPJAMQLhkWvb7ew&cb_client=search.gws-prod.gps&w=408&h=240&yaw=201.1417&pitch=0&thumbfov=100",
    "kgmid": "/g/11ckqj7gx_"
  },
  {
    "title": "Siddhi Pathology Lab",
    "price": null,
    "categoryName": "Hospital",
    "address": "MC8F+6V3, Suryabinayak 44800, Nepal",
    "neighborhood": "Katunje",
    "street": "MC8F+6V3",
    "city": "Suryabinayak",
    "postalCode": null,
    "state": null,
    "countryCode": "NP",
    "phone": "+977 981-8134485",
    "phoneUnformatted": "+9779818134485",
    "claimThisBusiness": true,
    "location": {
      "lat": 27.6655012,
      "lng": 85.4246681
    },
    "totalScore": 3,
    "permanentlyClosed": false,
    "temporarilyClosed": false,
    "placeId": "ChIJ3VJxOb0b6zkRedM2c8my2S8",
    "categories": [
      "Hospital"
    ],
    "fid": "0x39eb1bbd397152dd:0x2fd9b2c97336d379",
    "cid": "3447983568019968889",
    "reviewsCount": 2,
    "reviewsDistribution": {
      "oneStar": 1,
      "twoStar": 0,
      "threeStar": 0,
      "fourStar": 0,
      "fiveStar": 1
    },
    "imagesCount": 3,
    "imageCategories": [],
    "scrapedAt": "2025-11-14T08:40:51.003Z",
    "googleFoodUrl": null,
    "hotelAds": [],
    "openingHours": [
      {
        "day": "Monday",
        "hours": "7 AM to 7 PM"
      },
      {
        "day": "Tuesday",
        "hours": "7 AM to 7 PM"
      },
      {
        "day": "Wednesday",
        "hours": "7 AM to 7 PM"
      },
      {
        "day": "Thursday",
        "hours": "7 AM to 7 PM"
      },
      {
        "day": "Friday",
        "hours": "7 AM to 7 PM"
      },
      {
        "day": "Saturday",
        "hours": "7 AM to 7 PM"
      },
      {
        "day": "Sunday",
        "hours": "7 AM to 7 PM"
      }
    ],
    "peopleAlsoSearch": [],
    "placesTags": [],
    "reviewsTags": [],
    "gasPrices": [],
    "url": "https://www.google.com/maps/search/?api=1&query=Siddhi%20Pathology%20Lab&query_place_id=ChIJ3VJxOb0b6zkRedM2c8my2S8",
    "searchPageUrl": "https://www.google.com/maps/search/hospital/@27.666993023382226,85.4287066988148,17z?hl=en",
    "searchString": "hospital",
    "language": "en",
    "rank": 25,
    "isAdvertisement": false,
    "imageUrl": "https://lh3.googleusercontent.com/gps-cs-s/AG0ilSzlahIphfLHtxTxwtoG15bA8LWk6Z0mSov4qkYmsmO_TnkMw8gPgbf6kQMmW8wvDYD4E0r8J-lP56MloRmzfjaoUHxWFIafd5VmpBLNQh8HKeYc-HfWX_VRe8aed3k_h9VYsJm8=w408-h578-k-no",
    "kgmid": "/g/11j4kb7dyj"
  },
  {
    "title": "Charity Donation Department",
    "subTitle": "परोपकार दान विभाग",
    "price": null,
    "categoryName": "Hospital",
    "address": "MC9M+VHF, Araniko Highway, Bhaktapur 44800, Nepal",
    "neighborhood": null,
    "street": "MC9M+VHF, Araniko Highway",
    "city": "Bhaktapur",
    "postalCode": "44800",
    "state": null,
    "countryCode": "NP",
    "claimThisBusiness": true,
    "location": {
      "lat": 27.6696888,
      "lng": 85.4339208
    },
    "permanentlyClosed": false,
    "temporarilyClosed": false,
    "placeId": "ChIJH9H5aawa6zkRH_JxgVvJvcA",
    "categories": [
      "Hospital"
    ],
    "fid": "0x39eb1aac69f9d11f:0xc0bdc95b8171f21f",
    "cid": "13888478220731413023",
    "reviewsCount": 0,
    "imagesCount": 3,
    "imageCategories": [],
    "scrapedAt": "2025-11-14T08:40:51.003Z",
    "googleFoodUrl": null,
    "hotelAds": [],
    "openingHours": [
      {
        "day": "Monday",
        "hours": "6 AM to 6 PM"
      },
      {
        "day": "Tuesday",
        "hours": "6 AM to 6 PM"
      },
      {
        "day": "Wednesday",
        "hours": "6 AM to 6 PM"
      },
      {
        "day": "Thursday",
        "hours": "6 AM to 6 PM"
      },
      {
        "day": "Friday",
        "hours": "6 AM to 6 PM"
      },
      {
        "day": "Saturday",
        "hours": "6 AM to 6 PM"
      },
      {
        "day": "Sunday",
        "hours": "6 AM to 6 PM"
      }
    ],
    "peopleAlsoSearch": [],
    "placesTags": [],
    "reviewsTags": [],
    "gasPrices": [],
    "url": "https://www.google.com/maps/search/?api=1&query=Charity%20Donation%20Department&query_place_id=ChIJH9H5aawa6zkRH_JxgVvJvcA",
    "searchPageUrl": "https://www.google.com/maps/search/hospital/@27.666993023382226,85.4287066988148,17z?hl=en",
    "searchString": "hospital",
    "language": "en",
    "rank": 31,
    "isAdvertisement": false,
    "imageUrl": "https://lh3.googleusercontent.com/gps-proxy/ALd4DhFVfuHj5MwULXlcWOmXfaqFosCJ-aDzWOSIN-BidFcJ07o1nJhgD6ZgAtUbt9Nqh_4H69__sHNj-7Wo-CW2P-rLULTOesK-AoI4UUye8FaCkIeNzeUOfnYt0JtGPHyHWpyqs_jTybcZI2um2n7UNTGjTteUHn77eSQ4QcMyOxbeTN3CwtJBKwm_uXQo7sPKq3oEo6U=w408-h306-k-no",
    "kgmid": "/g/11b6qdn3x6"
  },
  {
    "title": "स्वास्थ्य चौकी (सूर्यविनायक नगरपालिका ०६) Health Post",
    "price": null,
    "categoryName": "Hospital",
    "address": "MC66+VVM, Suryabinayak 44800, Nepal",
    "neighborhood": "Katunje",
    "street": "MC66+VVM",
    "city": "Suryabinayak",
    "postalCode": "44800",
    "state": null,
    "countryCode": "NP",
    "claimThisBusiness": true,
    "location": {
      "lat": 27.6622237,
      "lng": 85.412165
    },
    "permanentlyClosed": false,
    "temporarilyClosed": false,
    "placeId": "ChIJFYFEawAb6zkReyP7l8-Qp7g",
    "categories": [
      "Hospital"
    ],
    "fid": "0x39eb1b006b448115:0xb8a790cf97fb237b",
    "cid": "13305762845371868027",
    "reviewsCount": 0,
    "imagesCount": 4,
    "imageCategories": [],
    "scrapedAt": "2025-11-14T08:41:23.248Z",
    "googleFoodUrl": null,
    "hotelAds": [],
    "openingHours": [],
    "peopleAlsoSearch": [],
    "placesTags": [],
    "reviewsTags": [],
    "gasPrices": [],
    "url": "https://www.google.com/maps/search/?api=1&query=%E0%A4%B8%E0%A5%8D%E0%A4%B5%E0%A4%BE%E0%A4%B8%E0%A5%8D%E0%A4%A5%E0%A5%8D%E0%A4%AF%20%E0%A4%9A%E0%A5%8C%E0%A4%95%E0%A5%80%20(%E0%A4%B8%E0%A5%82%E0%A4%B0%E0%A5%8D%E0%A4%AF%E0%A4%B5%E0%A4%BF%E0%A4%A8%E0%A4%BE%E0%A4%AF%E0%A4%95%20%E0%A4%A8%E0%A4%97%E0%A4%B0%E0%A4%AA%E0%A4%BE%E0%A4%B2%E0%A4%BF%E0%A4%95%E0%A4%BE%20%E0%A5%A6%E0%A5%AC)%20Health%20Post&query_place_id=ChIJFYFEawAb6zkReyP7l8-Qp7g",
    "searchPageUrl": "https://www.google.com/maps/search/hospital/@27.659386046764457,85.41153349407406,17z?hl=en",
    "searchString": "hospital",
    "language": "en",
    "rank": 21,
    "isAdvertisement": false,
    "imageUrl": "https://lh3.googleusercontent.com/gps-cs-s/AG0ilSwfm4j8PpMzxLMj_Vc597Vv1_EPqRdPZLbrTo9z9TlX6X8A3FBjH8D1vqKaQfdJUVwv0Ve9d8VdRuRb-6zaxY7T7OV-pQ_7pTiJqGqG1Dvzs1fyhBGfOxjvXJh-0LlblAII3DDd71yOk_DM=w408-h544-k-no",
    "kgmid": "/g/11yh4p_1yq"
  },
  {
    "title": "स्वास्थ्य चौकी (सूर्यविनायक न.पा.- ०६) Health post",
    "price": null,
    "categoryName": "Hospital",
    "address": "JCWV+23W, Banachaur, Suryabinayak 06, Nepal",
    "neighborhood": "Sipadol",
    "street": "JCWV+23W, Banachaur",
    "city": "Suryabinayak",
    "postalCode": "06",
    "state": null,
    "countryCode": "NP",
    "claimThisBusiness": true,
    "location": {
      "lat": 27.6451028,
      "lng": 85.4427153
    },
    "permanentlyClosed": false,
    "temporarilyClosed": false,
    "placeId": "ChIJwcpLVgAP6zkRXfW7Bfo0ByE",
    "categories": [
      "Hospital"
    ],
    "fid": "0x39eb0f00564bcac1:0x210734fa05bbf55d",
    "cid": "2379929176531268957",
    "reviewsCount": 0,
    "imagesCount": 1,
    "imageCategories": [],
    "scrapedAt": "2025-11-14T08:41:26.736Z",
    "googleFoodUrl": null,
    "hotelAds": [],
    "openingHours": [],
    "peopleAlsoSearch": [],
    "placesTags": [],
    "reviewsTags": [],
    "gasPrices": [],
    "url": "https://www.google.com/maps/search/?api=1&query=%E0%A4%B8%E0%A5%8D%E0%A4%B5%E0%A4%BE%E0%A4%B8%E0%A5%8D%E0%A4%A5%E0%A5%8D%E0%A4%AF%20%E0%A4%9A%E0%A5%8C%E0%A4%95%E0%A5%80%20(%E0%A4%B8%E0%A5%82%E0%A4%B0%E0%A5%8D%E0%A4%AF%E0%A4%B5%E0%A4%BF%E0%A4%A8%E0%A4%BE%E0%A4%AF%E0%A4%95%20%E0%A4%A8.%E0%A4%AA%E0%A4%BE.-%20%E0%A5%A6%E0%A5%AC)%20Health%20post&query_place_id=ChIJwcpLVgAP6zkRXfW7Bfo0ByE",
    "searchPageUrl": "https://www.google.com/maps/search/hospital/@27.64417209352892,85.44587990355555,17z?hl=en",
    "searchString": "hospital",
    "language": "en",
    "rank": 21,
    "isAdvertisement": false,
    "imageUrl": "https://streetviewpixels-pa.googleapis.com/v1/thumbnail?panoid=gSqp8N6vBh3aDuTOhf5EmQ&cb_client=search.gws-prod.gps&w=408&h=240&yaw=33.612236&pitch=0&thumbfov=100",
    "kgmid": "/g/11yh4n6qx5"
  },
  {
    "title": "Bandu ayurvedic",
    "price": null,
    "categoryName": "Hospital",
    "address": "JCWV+23W, Suryabinayak, Nepal",
    "neighborhood": "Sipadol",
    "street": "JCWV+23W",
    "city": "Suryabinayak",
    "postalCode": null,
    "state": null,
    "countryCode": "NP",
    "claimThisBusiness": true,
    "location": {
      "lat": 27.6451028,
      "lng": 85.4427153
    },
    "permanentlyClosed": false,
    "temporarilyClosed": false,
    "placeId": "ChIJwWkhnloP6zkRV0nl1HnlT1w",
    "categories": [
      "Hospital"
    ],
    "fid": "0x39eb0f5a9e2169c1:0x5c4fe579d4e54957",
    "cid": "6651787486075111767",
    "reviewsCount": 0,
    "imagesCount": 1,
    "imageCategories": [],
    "scrapedAt": "2025-11-14T08:41:26.736Z",
    "googleFoodUrl": null,
    "hotelAds": [],
    "openingHours": [],
    "peopleAlsoSearch": [],
    "placesTags": [],
    "reviewsTags": [],
    "gasPrices": [],
    "url": "https://www.google.com/maps/search/?api=1&query=Bandu%20ayurvedic&query_place_id=ChIJwWkhnloP6zkRV0nl1HnlT1w",
    "searchPageUrl": "https://www.google.com/maps/search/hospital/@27.64417209352892,85.44587990355555,17z?hl=en",
    "searchString": "hospital",
    "language": "en",
    "rank": 22,
    "isAdvertisement": false,
    "imageUrl": "https://streetviewpixels-pa.googleapis.com/v1/thumbnail?panoid=gSqp8N6vBh3aDuTOhf5EmQ&cb_client=search.gws-prod.gps&w=408&h=240&yaw=33.612236&pitch=0&thumbfov=100",
    "kgmid": "/g/11fm3yjj94"
  },
  {
    "title": "Nepal Medical College, Community Hospital.",
    "subTitle": "श्री चाँगु माध्यामिक बिद्यालय",
    "price": null,
    "categoryName": "Hospital",
    "address": "PC2G+36V, Changunarayan 44802, Nepal",
    "neighborhood": "Jhaukhel",
    "street": "PC2G+36V",
    "city": "Changunarayan",
    "postalCode": "44802",
    "state": null,
    "countryCode": "NP",
    "claimThisBusiness": true,
    "location": {
      "lat": 27.700238,
      "lng": 85.4255474
    },
    "permanentlyClosed": false,
    "temporarilyClosed": false,
    "placeId": "ChIJAQDAWNoa6zkRrcwQBKl12W0",
    "categories": [
      "Hospital"
    ],
    "fid": "0x39eb1ada58c00001:0x6dd975a90410ccad",
    "cid": "7915487188858490029",
    "reviewsCount": 0,
    "imagesCount": null,
    "imageCategories": [],
    "scrapedAt": "2025-11-14T08:41:31.347Z",
    "googleFoodUrl": null,
    "hotelAds": [],
    "openingHours": [],
    "peopleAlsoSearch": [],
    "placesTags": [],
    "reviewsTags": [],
    "additionalInfo": {
      "Accessibility": [
        {
          "Wheelchair accessible parking lot": true
        }
      ]
    },
    "gasPrices": [],
    "url": "https://www.google.com/maps/search/?api=1&query=Nepal%20Medical%20College%2C%20Community%20Hospital.&query_place_id=ChIJAQDAWNoa6zkRrcwQBKl12W0",
    "searchPageUrl": "https://www.google.com/maps/search/hospital/@27.6974209298533,85.4287066988148,17z?hl=en",
    "searchString": "hospital",
    "language": "en",
    "rank": 21,
    "isAdvertisement": false,
    "kgmid": "/g/11sscs2vwc"
  },
  {
    "title": "Kathmandu Cancer Center",
    "subTitle": "काठमाडौं अर्बुद रोग केन्द्र",
    "price": null,
    "categoryName": "Hospital",
    "address": "9 Nala Road, Changunarayan 19561, Nepal",
    "neighborhood": "Tathali",
    "street": "9 Nala Road",
    "city": "Changunarayan",
    "postalCode": "19561",
    "state": null,
    "countryCode": "NP",
    "website": "https://kccrc.org/",
    "phone": "+977 1-5091629",
    "phoneUnformatted": "+97715091629",
    "claimThisBusiness": false,
    "location": {
      "lat": 27.6690942,
      "lng": 85.46545
    },
    "totalScore": 4.3,
    "permanentlyClosed": false,
    "temporarilyClosed": false,
    "placeId": "ChIJq6qqqn0F6zkR_xgjTbeM-jI",
    "categories": [
      "Hospital",
      "Cancer treatment center"
    ],
    "fid": "0x39eb057daaaaaaab:0x32fa8cb74d2318ff",
    "cid": "3673403164975110399",
    "reviewsCount": 78,
    "reviewsDistribution": {
      "oneStar": 7,
      "twoStar": 2,
      "threeStar": 7,
      "fourStar": 5,
      "fiveStar": 57
    },
    "imagesCount": 330,
    "imageCategories": [],
    "scrapedAt": "2025-11-14T08:41:38.228Z",
    "googleFoodUrl": null,
    "hotelAds": [],
    "openingHours": [
      {
        "day": "Monday",
        "hours": "Open 24 hours"
      },
      {
        "day": "Tuesday",
        "hours": "Open 24 hours"
      },
      {
        "day": "Wednesday",
        "hours": "Open 24 hours"
      },
      {
        "day": "Thursday",
        "hours": "Open 24 hours"
      },
      {
        "day": "Friday",
        "hours": "Open 24 hours"
      },
      {
        "day": "Saturday",
        "hours": "Open 24 hours"
      },
      {
        "day": "Sunday",
        "hours": "Open 24 hours"
      }
    ],
    "peopleAlsoSearch": [],
    "placesTags": [],
    "reviewsTags": [],
    "additionalInfo": {
      "Service options": [
        {
          "Onsite services": true
        }
      ],
      "Accessibility": [
        {
          "Wheelchair accessible entrance": true
        },
        {
          "Wheelchair accessible parking lot": true
        },
        {
          "Wheelchair accessible restroom": true
        },
        {
          "Wheelchair accessible seating": true
        }
      ],
      "Amenities": [
        {
          "Gender-neutral restroom": true
        },
        {
          "Restroom": true
        }
      ],
      "Crowd": [
        {
          "LGBTQ+ friendly": true
        },
        {
          "Transgender safespace": true
        }
      ],
      "Planning": [
        {
          "Appointment required": true
        }
      ],
      "Payments": [
        {
          "Debit cards": true
        },
        {
          "Credit cards": true
        }
      ],
      "Children": [
        {
          "Nursing room": true
        }
      ],
      "Parking": [
        {
          "Free parking garage": true
        },
        {
          "Free parking lot": true
        },
        {
          "Free street parking": true
        },
        {
          "On-site parking": true
        }
      ]
    },
    "gasPrices": [],
    "url": "https://www.google.com/maps/search/?api=1&query=Kathmandu%20Cancer%20Center&query_place_id=ChIJq6qqqn0F6zkR_xgjTbeM-jI",
    "searchPageUrl": "https://www.google.com/maps/search/hospital/@27.666993023382226,85.4630531082963,17z?hl=en",
    "searchString": "hospital",
    "language": "en",
    "rank": 21,
    "isAdvertisement": false,
    "imageUrl": "https://lh3.googleusercontent.com/p/AF1QipPInZm4gBPrkUjF0CVPrQBrEtN2tMuYv2JtJ4Ls=w408-h272-k-no",
    "kgmid": "/g/1ptw091d6"
  },
  {
    "title": "Jhaukhel Health Post",
    "price": null,
    "categoryName": "Hospital",
    "address": "PC3G+9X7, Changunarayan 44600, Nepal",
    "neighborhood": "Jhaukhel",
    "street": "PC3G+9X7",
    "city": "Changunarayan",
    "postalCode": null,
    "state": null,
    "countryCode": "NP",
    "claimThisBusiness": true,
    "location": {
      "lat": 27.7034004,
      "lng": 85.427436
    },
    "totalScore": 3,
    "permanentlyClosed": false,
    "temporarilyClosed": false,
    "placeId": "ChIJFXLStoEb6zkRYrx9P-u7PRc",
    "categories": [
      "Hospital"
    ],
    "fid": "0x39eb1b81b6d27215:0x173dbbeb3f7dbc62",
    "cid": "1674701255508606050",
    "reviewsCount": 1,
    "reviewsDistribution": {
      "oneStar": 0,
      "twoStar": 0,
      "threeStar": 1,
      "fourStar": 0,
      "fiveStar": 0
    },
    "imagesCount": 7,
    "imageCategories": [],
    "scrapedAt": "2025-11-14T08:41:46.989Z",
    "googleFoodUrl": null,
    "hotelAds": [],
    "openingHours": [],
    "peopleAlsoSearch": [],
    "placesTags": [],
    "reviewsTags": [],
    "additionalInfo": {
      "Accessibility": [
        {
          "Wheelchair accessible entrance": true
        },
        {
          "Wheelchair accessible parking lot": true
        }
      ]
    },
    "gasPrices": [],
    "url": "https://www.google.com/maps/search/?api=1&query=Jhaukhel%20Health%20Post&query_place_id=ChIJFXLStoEb6zkRYrx9P-u7PRc",
    "searchPageUrl": "https://www.google.com/maps/search/hospital/@27.70502790647107,85.4287066988148,17z?hl=en",
    "searchString": "hospital",
    "language": "en",
    "rank": 21,
    "isAdvertisement": false,
    "imageUrl": "https://streetviewpixels-pa.googleapis.com/v1/thumbnail?panoid=Xrt55UyInG5vL0j6RfzVQA&cb_client=search.gws-prod.gps&w=408&h=240&yaw=16.059305&pitch=0&thumbfov=100",
    "kgmid": "/g/11fwh3p6ts"
  },
  {
    "title": "जनस्वास्थ्य केन्द्र Public Health Care Centre",
    "price": null,
    "categoryName": "Hospital",
    "address": "MCFQ+FF9, Chyamasing, Bhaktapur, Nepal",
    "neighborhood": null,
    "street": "MCFQ+FF9, Chyamasing",
    "city": "Bhaktapur",
    "postalCode": null,
    "state": null,
    "countryCode": "NP",
    "claimThisBusiness": true,
    "location": {
      "lat": 27.6736731,
      "lng": 85.4387421
    },
    "totalScore": 3.8,
    "permanentlyClosed": false,
    "temporarilyClosed": false,
    "placeId": "ChIJexk7KBQb6zkReFFZdPUVY-s",
    "categories": [
      "Hospital"
    ],
    "fid": "0x39eb1b14283b197b:0xeb6315f574595178",
    "cid": "16961424765570601336",
    "reviewsCount": 5,
    "imagesCount": 30,
    "imageCategories": [],
    "scrapedAt": "2025-11-14T08:41:55.969Z",
    "googleFoodUrl": null,
    "hotelAds": [],
    "openingHours": [],
    "peopleAlsoSearch": [],
    "placesTags": [],
    "reviewsTags": [],
    "additionalInfo": {
      "Accessibility": [
        {
          "Wheelchair accessible entrance": true
        },
        {
          "Wheelchair accessible parking lot": true
        }
      ]
    },
    "gasPrices": [],
    "url": "https://www.google.com/maps/search/?api=1&query=%E0%A4%9C%E0%A4%A8%E0%A4%B8%E0%A5%8D%E0%A4%B5%E0%A4%BE%E0%A4%B8%E0%A5%8D%E0%A4%A5%E0%A5%8D%E0%A4%AF%20%E0%A4%95%E0%A5%87%E0%A4%A8%E0%A5%8D%E0%A4%A6%E0%A5%8D%E0%A4%B0%20Public%20Health%20Care%20Centre&query_place_id=ChIJexk7KBQb6zkReFFZdPUVY-s",
    "searchPageUrl": "https://www.google.com/maps/search/hospital/@27.659386046764457,85.4630531082963,17z?hl=en",
    "searchString": "hospital",
    "language": "en",
    "rank": 5,
    "isAdvertisement": false,
    "imageUrl": "https://lh3.googleusercontent.com/gps-cs-s/AG0ilSzlAY-g8EKfW2N20y9GK2zi5hEqIhLXYhnMEm7SVnvcf_8n9z2gT8aZPL_Fv0DV5lQPkcTTIJQ60A2PJ9bruQ4ZskAM6Fz4gandGCDdA0Q_KhJ4fydX0XiyE0kcEDGAf9IVLvY=w408-h306-k-no",
    "kgmid": "/g/11fnv9n1z7"
  },
  {
    "title": "Gundu Health post",
    "subTitle": "गुण्डु स्वास्थ्य चौकी",
    "price": null,
    "categoryName": "Hospital",
    "address": "JCX5+4JC, Anantalingeshwar, Nepal",
    "neighborhood": "Gundu",
    "street": "JCX5+4JC",
    "city": "Anantalingeshwar",
    "postalCode": null,
    "state": null,
    "countryCode": "NP",
    "phone": "+977 1-5090175",
    "phoneUnformatted": "+97715090175",
    "claimThisBusiness": true,
    "location": {
      "lat": 27.6478113,
      "lng": 85.4090083
    },
    "totalScore": 4.3,
    "permanentlyClosed": false,
    "temporarilyClosed": false,
    "placeId": "ChIJp1nism8Q6zkRNIe_lfaQLEo",
    "categories": [
      "Hospital"
    ],
    "fid": "0x39eb106fb2e259a7:0x4a2c90f695bf8734",
    "cid": "5344806246530647860",
    "reviewsCount": 6,
    "reviewsDistribution": {
      "oneStar": 0,
      "twoStar": 0,
      "threeStar": 1,
      "fourStar": 2,
      "fiveStar": 3
    },
    "imagesCount": 25,
    "imageCategories": [],
    "scrapedAt": "2025-11-14T08:42:05.005Z",
    "googleFoodUrl": null,
    "hotelAds": [],
    "openingHours": [],
    "peopleAlsoSearch": [],
    "placesTags": [],
    "reviewsTags": [],
    "additionalInfo": {
      "Accessibility": [
        {
          "Wheelchair accessible entrance": true
        },
        {
          "Wheelchair accessible parking lot": true
        }
      ]
    },
    "gasPrices": [],
    "url": "https://www.google.com/maps/search/?api=1&query=Gundu%20Health%20post&query_place_id=ChIJp1nism8Q6zkRNIe_lfaQLEo",
    "searchPageUrl": "https://www.google.com/maps/search/hospital/@27.64417209352892,85.40294689170369,17z?hl=en",
    "searchString": "hospital",
    "language": "en",
    "rank": 21,
    "isAdvertisement": false,
    "imageUrl": "https://lh3.googleusercontent.com/gps-cs-s/AG0ilSxmueV61t4eIboxdzXOAaPl7V0Pr3xn8qa6TrbAQgBTQ3SHIKuvtneOeRBhI8acKH78SJfRbOX9IB8hHJeFHKPEwZTfXDiBSZvsXjOAilHaHybA4c6QSb2Gpd40BdX5kGSSqcAR=w408-h306-k-no",
    "kgmid": "/g/11csq030r2"
  },
  {
    "title": "Sipadol Health Post",
    "price": null,
    "categoryName": "Hospital",
    "address": "JCXJ+7XP, Bhaktapur, Nepal",
    "neighborhood": "Sipadol",
    "street": "JCXJ+7XP",
    "city": "Bhaktapur",
    "postalCode": null,
    "state": null,
    "countryCode": "NP",
    "claimThisBusiness": true,
    "location": {
      "lat": 27.6482054,
      "lng": 85.4324596
    },
    "totalScore": 5,
    "permanentlyClosed": false,
    "temporarilyClosed": false,
    "placeId": "ChIJfXliWwAR6zkRKGyO5BXW7Zg",
    "categories": [
      "Hospital"
    ],
    "fid": "0x39eb11005b62797d:0x98edd615e48e6c28",
    "cid": "11019699252762668072",
    "reviewsCount": 2,
    "reviewsDistribution": {
      "oneStar": 0,
      "twoStar": 0,
      "threeStar": 0,
      "fourStar": 0,
      "fiveStar": 2
    },
    "imagesCount": 1,
    "imageCategories": [],
    "scrapedAt": "2025-11-14T08:42:32.425Z",
    "googleFoodUrl": null,
    "hotelAds": [],
    "openingHours": [],
    "peopleAlsoSearch": [],
    "placesTags": [],
    "reviewsTags": [],
    "gasPrices": [],
    "url": "https://www.google.com/maps/search/?api=1&query=Sipadol%20Health%20Post&query_place_id=ChIJfXliWwAR6zkRKGyO5BXW7Zg",
    "searchPageUrl": "https://www.google.com/maps/search/hospital/@27.651779070146688,85.4287066988148,17z?hl=en",
    "searchString": "hospital",
    "language": "en",
    "rank": 21,
    "isAdvertisement": false,
    "imageUrl": "https://streetviewpixels-pa.googleapis.com/v1/thumbnail?panoid=gMtvLSwMkysOEB_o_8MpWg&cb_client=search.gws-prod.gps&w=408&h=240&yaw=89.87701&pitch=0&thumbfov=100",
    "kgmid": "/g/11wm_pzqhs"
  },
  {
    "title": "Khwopa Tilganga Eye Hospital, Bhaktapur",
    "subTitle": "ख्वप तिलगंगा आँखा अस्पताल ,भक्तपुर",
    "price": null,
    "categoryName": "Hospital",
    "address": "MCFQ+CMJ, Bhaktapur 44800, Nepal",
    "neighborhood": null,
    "street": "MCFQ+CMJ",
    "city": "Bhaktapur",
    "postalCode": "44800",
    "state": null,
    "countryCode": "NP",
    "phone": "+977 1-6618058",
    "phoneUnformatted": "+97716618058",
    "claimThisBusiness": true,
    "location": {
      "lat": 27.6735799,
      "lng": 85.4391378
    },
    "totalScore": 4.2,
    "permanentlyClosed": false,
    "temporarilyClosed": false,
    "placeId": "ChIJfQLCsLsa6zkR5k2_nxjxro0",
    "categories": [
      "Hospital"
    ],
    "fid": "0x39eb1abbb0c2027d:0x8daef1189fbf4de6",
    "cid": "10209362493357116902",
    "reviewsCount": 11,
    "reviewsDistribution": {
      "oneStar": 1,
      "twoStar": 0,
      "threeStar": 2,
      "fourStar": 1,
      "fiveStar": 7
    },
    "imagesCount": 26,
    "imageCategories": [],
    "scrapedAt": "2025-11-14T08:42:56.720Z",
    "googleFoodUrl": null,
    "hotelAds": [],
    "openingHours": [
      {
        "day": "Monday",
        "hours": "8 AM to 4:30 PM"
      },
      {
        "day": "Tuesday",
        "hours": "8 AM to 4:30 PM"
      },
      {
        "day": "Wednesday",
        "hours": "8 AM to 4:30 PM"
      },
      {
        "day": "Thursday",
        "hours": "8 AM to 4:30 PM"
      },
      {
        "day": "Friday",
        "hours": "8 AM to 4:30 PM"
      },
      {
        "day": "Saturday",
        "hours": "Closed"
      },
      {
        "day": "Sunday",
        "hours": "8 AM to 4:30 PM"
      }
    ],
    "peopleAlsoSearch": [],
    "placesTags": [],
    "reviewsTags": [],
    "additionalInfo": {
      "Accessibility": [
        {
          "Wheelchair-accessible car park": true
        },
        {
          "Wheelchair-accessible entrance": true
        }
      ]
    },
    "gasPrices": [],
    "url": "https://www.google.com/maps/search/?api=1&query=Khwopa%20Tilganga%20Eye%20Hospital%2C%20Bhaktapur&query_place_id=ChIJfQLCsLsa6zkR5k2_nxjxro0",
    "searchPageUrl": "https://www.google.com/maps/search/hospital/@27.674599999999995,85.43729330118518,17z?hl=en",
    "searchString": "hospital",
    "language": "en",
    "rank": 25,
    "isAdvertisement": false,
    "imageUrl": "https://lh3.googleusercontent.com/gps-cs-s/AG0ilSyj4l5UgO4Xgw7nWG2pFDFrHBWVF4JZK4MkYaYXI2bGnMNUzejYZB3U-3XS02aatKO1zSIGDKt5JQpQRu2u4ZgAMAKzZMYrpk8phK6oWb-ZMlw3NGQd1gnknrW5Db9PvJ1MRdc=w408-h544-k-no",
    "kgmid": "/g/1ptx911_1"
  },
  {
    "title": "Ayurveda and Alternative Hospital, Bhaktapur आयुर्वेद तथा वैकल्पिक चिकित्सालय, भक्तपुर",
    "price": null,
    "categoryName": "Hospital",
    "address": "Chowk Kamalvinayak - Dekocha Path, Bhaktapur 44800, Nepal",
    "neighborhood": null,
    "street": "Chowk Kamalvinayak - Dekocha Path",
    "city": "Bhaktapur",
    "postalCode": "44800",
    "state": null,
    "countryCode": "NP",
    "website": "http://dahcbhaktapur.bagamati.gov.np/",
    "phone": "+977 985-1315658",
    "phoneUnformatted": "+9779851315658",
    "claimThisBusiness": false,
    "location": {
      "lat": 27.6779766,
      "lng": 85.4377317
    },
    "totalScore": 5,
    "permanentlyClosed": false,
    "temporarilyClosed": false,
    "placeId": "ChIJaf0V9lUF6zkRXAqEIvhxhJc",
    "categories": [
      "Hospital"
    ],
    "fid": "0x39eb0555f615fd69:0x978471f822840a5c",
    "cid": "10917976707197831772",
    "reviewsCount": 2,
    "reviewsDistribution": {
      "oneStar": 0,
      "twoStar": 0,
      "threeStar": 0,
      "fourStar": 0,
      "fiveStar": 2
    },
    "imagesCount": 13,
    "imageCategories": [],
    "scrapedAt": "2025-11-14T08:42:56.720Z",
    "googleFoodUrl": null,
    "hotelAds": [],
    "openingHours": [
      {
        "day": "Monday",
        "hours": "10 AM to 5 PM"
      },
      {
        "day": "Tuesday",
        "hours": "10 AM to 5 PM"
      },
      {
        "day": "Wednesday",
        "hours": "10 AM to 5 PM"
      },
      {
        "day": "Thursday",
        "hours": "10 AM to 5 PM"
      },
      {
        "day": "Friday",
        "hours": "10 AM to 3 PM"
      },
      {
        "day": "Saturday",
        "hours": "Closed"
      },
      {
        "day": "Sunday",
        "hours": "10 AM to 5 PM"
      }
    ],
    "peopleAlsoSearch": [],
    "placesTags": [],
    "reviewsTags": [],
    "additionalInfo": {
      "Accessibility": [
        {
          "Wheelchair-accessible car park": true
        }
      ],
      "Amenities": [
        {
          "Gender-neutral toilets": true
        }
      ]
    },
    "gasPrices": [],
    "url": "https://www.google.com/maps/search/?api=1&query=Ayurveda%20and%20Alternative%20Hospital%2C%20Bhaktapur%20%E0%A4%86%E0%A4%AF%E0%A5%81%E0%A4%B0%E0%A5%8D%E0%A4%B5%E0%A5%87%E0%A4%A6%20%E0%A4%A4%E0%A4%A5%E0%A4%BE%20%E0%A4%B5%E0%A5%88%E0%A4%95%E0%A4%B2%E0%A5%8D%E0%A4%AA%E0%A4%BF%E0%A4%95%20%E0%A4%9A%E0%A4%BF%E0%A4%95%E0%A4%BF%E0%A4%A4%E0%A5%8D%E0%A4%B8%E0%A4%BE%E0%A4%B2%E0%A4%AF%2C%20%E0%A4%AD%E0%A4%95%E0%A5%8D%E0%A4%A4%E0%A4%AA%E0%A5%81%E0%A4%B0&query_place_id=ChIJaf0V9lUF6zkRXAqEIvhxhJc",
    "searchPageUrl": "https://www.google.com/maps/search/hospital/@27.674599999999995,85.43729330118518,17z?hl=en",
    "searchString": "hospital",
    "language": "en",
    "rank": 30,
    "isAdvertisement": false,
    "imageUrl": "https://lh3.googleusercontent.com/gps-cs-s/AG0ilSx9nZzYyTWDnBBK3VTexRuWmVLFo5zeNU7DHB-mbuaJUBRaU7MbxMrrRKsmBBVpRmGTBnhV0-43ozmp8DDTRExJgVT65GWVgsQx3RaRH-nQicy2DZQW6hZPPG6esTQEHFU4HQg=w408-h544-k-no",
    "kgmid": "/g/11j0bdyqb9"
  },
  {
    "title": "Shreejan Physiotherapy and Rehabilitation Centre",
    "price": null,
    "categoryName": "Hospital",
    "address": "Bramhayani, Nala Road, Bhaktapur 44800, Nepal",
    "neighborhood": null,
    "street": "Bramhayani, Nala Road",
    "city": "Bhaktapur",
    "postalCode": null,
    "state": null,
    "countryCode": "NP",
    "claimThisBusiness": false,
    "location": {
      "lat": 27.6745825,
      "lng": 85.4442666
    },
    "totalScore": 5,
    "permanentlyClosed": false,
    "temporarilyClosed": false,
    "placeId": "ChIJt3heT5kF6zkRjmPLC2Sb5ZU",
    "categories": [
      "Hospital",
      "Physical therapist",
      "Physical therapy clinic"
    ],
    "fid": "0x39eb05994f5e78b7:0x95e59b640bcb638e",
    "cid": "10801210135314916238",
    "reviewsCount": 1,
    "reviewsDistribution": {
      "oneStar": 0,
      "twoStar": 0,
      "threeStar": 0,
      "fourStar": 0,
      "fiveStar": 1
    },
    "imagesCount": 1,
    "imageCategories": [],
    "scrapedAt": "2025-11-14T08:42:56.720Z",
    "googleFoodUrl": null,
    "hotelAds": [],
    "openingHours": [
      {
        "day": "Monday",
        "hours": "5 to 10 PM"
      },
      {
        "day": "Tuesday",
        "hours": "5 to 10 PM"
      },
      {
        "day": "Wednesday",
        "hours": "5 to 10 PM"
      },
      {
        "day": "Thursday",
        "hours": "5 to 10 PM"
      },
      {
        "day": "Friday",
        "hours": "5 to 10 PM"
      },
      {
        "day": "Saturday",
        "hours": "Closed"
      },
      {
        "day": "Sunday",
        "hours": "5 to 10 PM"
      }
    ],
    "peopleAlsoSearch": [],
    "placesTags": [],
    "reviewsTags": [],
    "additionalInfo": {
      "Accessibility": [
        {
          "Wheelchair-accessible car park": true
        }
      ]
    },
    "gasPrices": [],
    "url": "https://www.google.com/maps/search/?api=1&query=Shreejan%20Physiotherapy%20and%20Rehabilitation%20Centre&query_place_id=ChIJt3heT5kF6zkRjmPLC2Sb5ZU",
    "searchPageUrl": "https://www.google.com/maps/search/hospital/@27.674599999999995,85.43729330118518,17z?hl=en",
    "searchString": "hospital",
    "language": "en",
    "rank": 38,
    "isAdvertisement": false,
    "imageUrl": "https://streetviewpixels-pa.googleapis.com/v1/thumbnail?panoid=77bunF--uPgJH3IwNEywqQ&cb_client=search.gws-prod.gps&w=408&h=240&yaw=163.09181&pitch=0&thumbfov=100",
    "kgmid": "/g/11sm6_k92n"
  },
  {
    "title": "MED VALLEY MULTISPECIALITY HOSPITAL",
    "price": null,
    "categoryName": "Hospital",
    "address": "MCG5+M73, Bhaktapur Road, Bhaktapur 44800, Nepal",
    "neighborhood": null,
    "street": "MCG5+M73, Bhaktapur Road",
    "city": "Bhaktapur",
    "postalCode": "44800",
    "state": null,
    "countryCode": "NP",
    "phone": "+977 984-9088733",
    "phoneUnformatted": "+9779849088733",
    "claimThisBusiness": true,
    "location": {
      "lat": 27.6767376,
      "lng": 85.408145
    },
    "totalScore": 4.2,
    "permanentlyClosed": false,
    "temporarilyClosed": false,
    "placeId": "ChIJJUROLwAb6zkRRJBCdqLD7QI",
    "categories": [
      "Hospital"
    ],
    "fid": "0x39eb1b002f4e4425:0x2edc3a276429044",
    "cid": "211039860092473412",
    "reviewsCount": 5,
    "reviewsDistribution": {
      "oneStar": 1,
      "twoStar": 0,
      "threeStar": 0,
      "fourStar": 0,
      "fiveStar": 4
    },
    "imagesCount": 7,
    "imageCategories": [],
    "scrapedAt": "2025-11-14T08:42:57.985Z",
    "googleFoodUrl": null,
    "hotelAds": [],
    "openingHours": [
      {
        "day": "Monday",
        "hours": "Open 24 hours"
      },
      {
        "day": "Tuesday",
        "hours": "Open 24 hours"
      },
      {
        "day": "Wednesday",
        "hours": "Open 24 hours"
      },
      {
        "day": "Thursday",
        "hours": "Open 24 hours"
      },
      {
        "day": "Friday",
        "hours": "Open 24 hours"
      },
      {
        "day": "Saturday",
        "hours": "Open 24 hours"
      },
      {
        "day": "Sunday",
        "hours": "Open 24 hours"
      }
    ],
    "peopleAlsoSearch": [],
    "placesTags": [],
    "reviewsTags": [],
    "additionalInfo": {
      "Accessibility": [
        {
          "Wheelchair accessible entrance": true
        },
        {
          "Wheelchair accessible parking lot": true
        }
      ]
    },
    "gasPrices": [],
    "url": "https://www.google.com/maps/search/?api=1&query=MED%20VALLEY%20MULTISPECIALITY%20HOSPITAL&query_place_id=ChIJJUROLwAb6zkRRJBCdqLD7QI",
    "searchPageUrl": "https://www.google.com/maps/search/hospital/@27.674599999999995,85.40294689170369,17z?hl=en",
    "searchString": "hospital",
    "language": "en",
    "rank": 21,
    "isAdvertisement": false,
    "imageUrl": "https://lh3.googleusercontent.com/gps-cs-s/AG0ilSwlarhdzJPlzXNNg7tFI9nxH_YFXBNbDMVvn-zGvQSM7oe-bQVJCMjhKhCx6wrXM1B_I2ZHgA0OXcKmlddyMnR1jFbiIId_3c-nU4uRssBvvy5OEdYWlbFxa4-H-h3yx470jbJd=w408-h544-k-no",
    "kgmid": "/g/11y6q20w08"
  },
  {
    "title": "Dr. Chakrabarty Super speciality Clinic",
    "price": null,
    "categoryName": "Hospital",
    "address": "Sirjanagar Near Shrijana Nagar Bus stand, Bhaktapur, Araniko Highway, Bhaktapur 1, Nepal",
    "neighborhood": null,
    "street": "Sirjanagar Near Shrijana Nagar Bus stand, Bhaktapur, Araniko Highway",
    "city": "Bhaktapur",
    "postalCode": "1",
    "state": null,
    "countryCode": "NP",
    "website": "https://www.drchakrabarty.com/",
    "phone": "+977 985-1319195",
    "phoneUnformatted": "+9779851319195",
    "claimThisBusiness": false,
    "location": {
      "lat": 27.6733872,
      "lng": 85.4032087
    },
    "permanentlyClosed": false,
    "temporarilyClosed": false,
    "placeId": "ChIJTZoVLd4f6zkRbJX5a3_esCY",
    "categories": [
      "Hospital"
    ],
    "fid": "0x39eb1fde2d159a4d:0x26b0de7f6bf9956c",
    "cid": "2787972808196068716",
    "reviewsCount": 0,
    "imagesCount": 12,
    "imageCategories": [],
    "scrapedAt": "2025-11-14T08:42:57.985Z",
    "googleFoodUrl": null,
    "hotelAds": [],
    "openingHours": [
      {
        "day": "Monday",
        "hours": "7 AM to 8 PM"
      },
      {
        "day": "Tuesday",
        "hours": "7:30 AM to 8 PM"
      },
      {
        "day": "Wednesday",
        "hours": "7 AM to 8 PM"
      },
      {
        "day": "Thursday",
        "hours": "7 AM to 8 PM"
      },
      {
        "day": "Friday",
        "hours": "7 AM to 8 PM"
      },
      {
        "day": "Saturday",
        "hours": "9 AM to 2 PM"
      },
      {
        "day": "Sunday",
        "hours": "7 AM to 8 PM"
      }
    ],
    "peopleAlsoSearch": [],
    "placesTags": [],
    "reviewsTags": [],
    "gasPrices": [],
    "url": "https://www.google.com/maps/search/?api=1&query=Dr.%20Chakrabarty%20Super%20speciality%20Clinic&query_place_id=ChIJTZoVLd4f6zkRbJX5a3_esCY",
    "searchPageUrl": "https://www.google.com/maps/search/hospital/@27.674599999999995,85.40294689170369,17z?hl=en",
    "searchString": "hospital",
    "language": "en",
    "rank": 22,
    "isAdvertisement": false,
    "imageUrl": "https://lh3.googleusercontent.com/p/AF1QipPio_-Yv2ZidhIOvVXG605yDEv4Q-Z9mj8IOI1S=w426-h240-k-no",
    "kgmid": "/g/11wxffs11b"
  },
  {
    "title": "Pandey Medical Hall",
    "price": null,
    "categoryName": "Hospital",
    "address": "MCH4+4X2, Changunarayan 44800, Nepal",
    "neighborhood": "Duwakot",
    "street": "MCH4+4X2",
    "city": "Changunarayan",
    "postalCode": null,
    "state": null,
    "countryCode": "NP",
    "claimThisBusiness": true,
    "location": {
      "lat": 27.6777732,
      "lng": 85.4073957
    },
    "permanentlyClosed": false,
    "temporarilyClosed": false,
    "placeId": "ChIJN1q-aAAb6zkRMWJ16FlaN-4",
    "categories": [
      "Hospital"
    ],
    "fid": "0x39eb1b0068be5a37:0xee375a59e8756231",
    "cid": "17165287846944530993",
    "reviewsCount": 0,
    "imagesCount": 1,
    "imageCategories": [],
    "scrapedAt": "2025-11-14T08:42:57.985Z",
    "googleFoodUrl": null,
    "hotelAds": [],
    "openingHours": [
      {
        "day": "Monday",
        "hours": "Open 24 hours"
      },
      {
        "day": "Tuesday",
        "hours": "Open 24 hours"
      },
      {
        "day": "Wednesday",
        "hours": "Open 24 hours"
      },
      {
        "day": "Thursday",
        "hours": "Open 24 hours"
      },
      {
        "day": "Friday",
        "hours": "Open 24 hours"
      },
      {
        "day": "Saturday",
        "hours": "Open 24 hours"
      },
      {
        "day": "Sunday",
        "hours": "Open 24 hours"
      }
    ],
    "peopleAlsoSearch": [],
    "placesTags": [],
    "reviewsTags": [],
    "gasPrices": [],
    "url": "https://www.google.com/maps/search/?api=1&query=Pandey%20Medical%20Hall&query_place_id=ChIJN1q-aAAb6zkRMWJ16FlaN-4",
    "searchPageUrl": "https://www.google.com/maps/search/hospital/@27.674599999999995,85.40294689170369,17z?hl=en",
    "searchString": "hospital",
    "language": "en",
    "rank": 23,
    "isAdvertisement": false,
    "imageUrl": "https://streetviewpixels-pa.googleapis.com/v1/thumbnail?panoid=awPBD089-SaKFS24zaDBMw&cb_client=search.gws-prod.gps&w=408&h=240&yaw=234.62398&pitch=0&thumbfov=100",
    "kgmid": "/g/11vpl7f537"
  },
  {
    "title": "Sahara Care Center",
    "subTitle": "सहारा हेरचाह केन्द्र",
    "price": null,
    "categoryName": "Hospital",
    "address": "Shyama Shyam Dham, Nikosera, Madhyapur Thimi 44811 Araniko Highway, Madhyapur Thimi 44811, Nepal",
    "neighborhood": null,
    "street": "Shyama Shyam Dham, Nikosera, Madhyapur Thimi 44811 Araniko Highway",
    "city": "Madhyapur Thimi",
    "postalCode": "44811",
    "state": null,
    "countryCode": "NP",
    "phone": "+977 6614275",
    "phoneUnformatted": null,
    "claimThisBusiness": true,
    "location": {
      "lat": 27.6744822,
      "lng": 85.403841
    },
    "totalScore": 4.4,
    "permanentlyClosed": false,
    "temporarilyClosed": false,
    "placeId": "ChIJS9bTdI8a6zkREDWKJjNOje4",
    "categories": [
      "Hospital"
    ],
    "fid": "0x39eb1a8f74d3d64b:0xee8d4e33268a3510",
    "cid": "17189481334339941648",
    "reviewsCount": 12,
    "reviewsDistribution": {
      "oneStar": 0,
      "twoStar": 0,
      "threeStar": 1,
      "fourStar": 5,
      "fiveStar": 6
    },
    "imagesCount": 8,
    "imageCategories": [],
    "scrapedAt": "2025-11-14T08:42:57.985Z",
    "googleFoodUrl": null,
    "hotelAds": [],
    "openingHours": [
      {
        "day": "Monday",
        "hours": "Open 24 hours"
      },
      {
        "day": "Tuesday",
        "hours": "Open 24 hours"
      },
      {
        "day": "Wednesday",
        "hours": "Open 24 hours"
      },
      {
        "day": "Thursday",
        "hours": "Open 24 hours"
      },
      {
        "day": "Friday",
        "hours": "Open 24 hours"
      },
      {
        "day": "Saturday",
        "hours": "Open 24 hours"
      },
      {
        "day": "Sunday",
        "hours": "Open 24 hours"
      }
    ],
    "peopleAlsoSearch": [],
    "placesTags": [],
    "reviewsTags": [],
    "additionalInfo": {
      "Accessibility": [
        {
          "Wheelchair accessible entrance": true
        },
        {
          "Wheelchair accessible parking lot": true
        }
      ]
    },
    "gasPrices": [],
    "url": "https://www.google.com/maps/search/?api=1&query=Sahara%20Care%20Center&query_place_id=ChIJS9bTdI8a6zkREDWKJjNOje4",
    "searchPageUrl": "https://www.google.com/maps/search/hospital/@27.674599999999995,85.40294689170369,17z?hl=en",
    "searchString": "hospital",
    "language": "en",
    "rank": 24,
    "isAdvertisement": false,
    "imageUrl": "https://lh3.googleusercontent.com/gps-cs-s/AG0ilSzdgG7bYLYIwh79UMHWJp2y3FfaXEW0R9LPF-3xzjlGyXljHEnrDb-ZDXKet9buyn-gf9nDDO1UY2D3vHXM5aCmNu_J12kZyVXTqHF3cxi8zD5yVoxAw8j23FZDfAzdMXEWdYdt=w426-h240-k-no",
    "kgmid": "/g/11c604h0zm"
  },
  {
    "title": "Janta Clinic Pathology",
    "price": null,
    "categoryName": "Hospital",
    "address": "MCCH+9WW near bkhatapur cancer hospital, Bhaktapur 2, Nepal",
    "neighborhood": null,
    "street": "MCCH+9WW near bkhatapur cancer hospital",
    "city": "Bhaktapur",
    "postalCode": "2",
    "state": null,
    "countryCode": "NP",
    "phone": "+977 984-9858658",
    "phoneUnformatted": "+9779849858658",
    "claimThisBusiness": true,
    "location": {
      "lat": 27.6709939,
      "lng": 85.4298429
    },
    "permanentlyClosed": false,
    "temporarilyClosed": false,
    "placeId": "ChIJh6mjnxIb6zkRzMEDzlI0ASY",
    "categories": [
      "Hospital"
    ],
    "fid": "0x39eb1b129fa3a987:0x26013452ce03c1cc",
    "cid": "2738527578666287564",
    "reviewsCount": 0,
    "imagesCount": 1,
    "imageCategories": [],
    "scrapedAt": "2025-11-14T08:43:04.112Z",
    "googleFoodUrl": null,
    "hotelAds": [],
    "openingHours": [
      {
        "day": "Monday",
        "hours": "7 AM to 5 PM"
      },
      {
        "day": "Tuesday",
        "hours": "7 AM to 5 PM"
      },
      {
        "day": "Wednesday",
        "hours": "7 AM to 5 PM"
      },
      {
        "day": "Thursday",
        "hours": "7 AM to 5 PM"
      },
      {
        "day": "Friday",
        "hours": "7 AM to 5 PM"
      },
      {
        "day": "Saturday",
        "hours": "Closed"
      },
      {
        "day": "Sunday",
        "hours": "7 AM to 5 PM"
      }
    ],
    "peopleAlsoSearch": [],
    "placesTags": [],
    "reviewsTags": [],
    "gasPrices": [],
    "url": "https://www.google.com/maps/search/?api=1&query=Janta%20Clinic%20Pathology&query_place_id=ChIJh6mjnxIb6zkRzMEDzlI0ASY",
    "searchPageUrl": "https://www.google.com/maps/search/clinic/@27.674599999999995,85.4287066988148,17z?hl=en",
    "searchString": "clinic",
    "language": "en",
    "rank": 33,
    "isAdvertisement": false,
    "imageUrl": "https://streetviewpixels-pa.googleapis.com/v1/thumbnail?panoid=Xiwkb2LIzRqxgf6gIkv8Jw&cb_client=search.gws-prod.gps&w=408&h=240&yaw=356.44382&pitch=0&thumbfov=100",
    "kgmid": "/g/11f631pqv6"
  },
  {
    "title": "लक्ष्मी ओप्टिकल",
    "subTitle": "लक्ष्मी ऑप्टिकल्स",
    "price": null,
    "categoryName": "Hospital",
    "address": "Bhaktapur 44800, Nepal",
    "neighborhood": "Itachhen",
    "street": null,
    "city": "Bhaktapur",
    "postalCode": "44800",
    "state": null,
    "countryCode": "NP",
    "phone": "+977 1-6612012",
    "phoneUnformatted": "+97716612012",
    "claimThisBusiness": false,
    "location": {
      "lat": 27.6726633,
      "lng": 85.4249792
    },
    "totalScore": 1.8,
    "permanentlyClosed": false,
    "temporarilyClosed": false,
    "placeId": "ChIJbQAAOaUa6zkRRYgyygD4MTQ",
    "categories": [
      "Hospital"
    ],
    "fid": "0x39eb1aa53900006d:0x3431f800ca328845",
    "cid": "3761059846107072581",
    "reviewsCount": 9,
    "reviewsDistribution": {
      "oneStar": 6,
      "twoStar": 0,
      "threeStar": 2,
      "fourStar": 1,
      "fiveStar": 0
    },
    "imagesCount": 2,
    "imageCategories": [],
    "scrapedAt": "2025-11-14T08:43:04.929Z",
    "googleFoodUrl": null,
    "hotelAds": [],
    "openingHours": [
      {
        "day": "Monday",
        "hours": "7 AM to 8 PM"
      },
      {
        "day": "Tuesday",
        "hours": "7 AM to 8 PM"
      },
      {
        "day": "Wednesday",
        "hours": "7 AM to 8 PM"
      },
      {
        "day": "Thursday",
        "hours": "7 AM to 8 PM"
      },
      {
        "day": "Friday",
        "hours": "7 AM to 8 PM"
      },
      {
        "day": "Saturday",
        "hours": "7 AM to 8 PM"
      },
      {
        "day": "Sunday",
        "hours": "7 AM to 8 PM"
      }
    ],
    "peopleAlsoSearch": [],
    "placesTags": [],
    "reviewsTags": [],
    "gasPrices": [],
    "url": "https://www.google.com/maps/search/?api=1&query=%E0%A4%B2%E0%A4%95%E0%A5%8D%E0%A4%B7%E0%A5%8D%E0%A4%AE%E0%A5%80%20%E0%A4%93%E0%A4%AA%E0%A5%8D%E0%A4%9F%E0%A4%BF%E0%A4%95%E0%A4%B2&query_place_id=ChIJbQAAOaUa6zkRRYgyygD4MTQ",
    "searchPageUrl": "https://www.google.com/maps/search/clinic/@27.674599999999995,85.4287066988148,17z?hl=en",
    "searchString": "clinic",
    "language": "en",
    "rank": 44,
    "isAdvertisement": false,
    "imageUrl": "https://lh3.googleusercontent.com/p/AF1QipNJ8SuyUoLLMiUOzgvEz6NMwcvYLG8dZAPPTgo-=w408-h725-k-no",
    "kgmid": "/g/11c2r412q0"
  },
  {
    "title": "Human Organ Transplant Centre (Shahid Dharma Bhakta Hospital)",
    "subTitle": "शहिद धर्मभक्त मानव अङ्ग प्रत्यारोपण केन्द्र",
    "price": null,
    "categoryName": "Hospital",
    "address": "भक्तपुर अस्पताल तथा मानव अङग प्रत्यारोपण केन्द्र, Bhaktapur 44800, Nepal",
    "neighborhood": null,
    "street": "भक्तपुर अस्पताल तथा मानव अङग प्रत्यारोपण केन्द्र",
    "city": "Bhaktapur",
    "postalCode": "44800",
    "state": null,
    "countryCode": "NP",
    "website": "http://www.hotc.org.np/",
    "phone": "+977 1-6614709",
    "phoneUnformatted": "+97716614709",
    "claimThisBusiness": true,
    "location": {
      "lat": 27.6727526,
      "lng": 85.4219096
    },
    "totalScore": 3.8,
    "permanentlyClosed": false,
    "temporarilyClosed": false,
    "placeId": "ChIJMSrsWaMa6zkR8Q9vJt1c1e0",
    "categories": [
      "Hospital"
    ],
    "fid": "0x39eb1aa359ec2a31:0xedd55cdd266f0ff1",
    "cid": "17137706061930631153",
    "reviewsCount": 67,
    "reviewsDistribution": {
      "oneStar": 12,
      "twoStar": 3,
      "threeStar": 8,
      "fourStar": 10,
      "fiveStar": 34
    },
    "imagesCount": 127,
    "imageCategories": [],
    "scrapedAt": "2025-11-14T08:43:04.929Z",
    "googleFoodUrl": null,
    "hotelAds": [],
    "openingHours": [
      {
        "day": "Monday",
        "hours": "Open 24 hours"
      },
      {
        "day": "Tuesday",
        "hours": "Open 24 hours"
      },
      {
        "day": "Wednesday",
        "hours": "Open 24 hours"
      },
      {
        "day": "Thursday",
        "hours": "Open 24 hours"
      },
      {
        "day": "Friday",
        "hours": "Open 24 hours"
      },
      {
        "day": "Saturday",
        "hours": "Open 24 hours"
      },
      {
        "day": "Sunday",
        "hours": "Open 24 hours"
      }
    ],
    "peopleAlsoSearch": [],
    "placesTags": [],
    "reviewsTags": [],
    "additionalInfo": {
      "Accessibility": [
        {
          "Wheelchair accessible entrance": true
        },
        {
          "Wheelchair accessible parking lot": true
        }
      ]
    },
    "gasPrices": [],
    "url": "https://www.google.com/maps/search/?api=1&query=Human%20Organ%20Transplant%20Centre%20(Shahid%20Dharma%20Bhakta%20Hospital)&query_place_id=ChIJMSrsWaMa6zkR8Q9vJt1c1e0",
    "searchPageUrl": "https://www.google.com/maps/search/clinic/@27.674599999999995,85.4287066988148,17z?hl=en",
    "searchString": "clinic",
    "language": "en",
    "rank": 45,
    "isAdvertisement": false,
    "imageUrl": "https://lh3.googleusercontent.com/gps-cs-s/AG0ilSyB6kHhxT7Phq_GqjmwrkJpYTsCVwH3Da4Uyrs9nMYJUG5Wdi8YLIq8hM8ShcpJRjKl6KEKIVOCcYkNQ_mV9MCcPSIjfTgEZ20HZCi2SL4-nVvJBKtVI_NMpHcdaDk8zfWJ9u1a=w408-h544-k-no",
    "kgmid": "/g/1pp2xb1g_"
  },
  {
    "title": "Dr.Lalpathlabs CC Bhaktapur",
    "price": null,
    "categoryName": "Hospital",
    "address": "Bhaktapur 2 near Bkhatapur cancer hospital, Bhaktapur, Nepal",
    "neighborhood": null,
    "street": "Bhaktapur 2 near Bkhatapur cancer hospital",
    "city": "Bhaktapur",
    "postalCode": null,
    "state": null,
    "countryCode": "NP",
    "phone": "+977 1-6610949",
    "phoneUnformatted": "+97716610949",
    "claimThisBusiness": false,
    "location": {
      "lat": 27.6732109,
      "lng": 85.4227645
    },
    "totalScore": 5,
    "permanentlyClosed": false,
    "temporarilyClosed": false,
    "placeId": "ChIJ9V2zkoUb6zkRdBsk6DBdTTQ",
    "categories": [
      "Hospital"
    ],
    "fid": "0x39eb1b8592b35df5:0x344d5d30e8241b74",
    "cid": "3768770927813466996",
    "reviewsCount": 1,
    "reviewsDistribution": {
      "oneStar": 0,
      "twoStar": 0,
      "threeStar": 0,
      "fourStar": 0,
      "fiveStar": 1
    },
    "imagesCount": 7,
    "imageCategories": [],
    "scrapedAt": "2025-11-14T08:43:27.181Z",
    "googleFoodUrl": null,
    "hotelAds": [],
    "openingHours": [
      {
        "day": "Monday",
        "hours": "10 AM to 5 PM"
      },
      {
        "day": "Tuesday",
        "hours": "10 AM to 5 PM"
      },
      {
        "day": "Wednesday",
        "hours": "10 AM to 5 PM"
      },
      {
        "day": "Thursday",
        "hours": "10 AM to 5 PM"
      },
      {
        "day": "Friday",
        "hours": "10 AM to 3 PM"
      },
      {
        "day": "Saturday",
        "hours": "Closed"
      },
      {
        "day": "Sunday",
        "hours": "10 AM to 5 PM"
      }
    ],
    "peopleAlsoSearch": [],
    "placesTags": [],
    "reviewsTags": [],
    "gasPrices": [],
    "url": "https://www.google.com/maps/search/?api=1&query=Dr.Lalpathlabs%20CC%20Bhaktapur&query_place_id=ChIJ9V2zkoUb6zkRdBsk6DBdTTQ",
    "searchPageUrl": "https://www.google.com/maps/search/hospital/@27.674599999999995,85.4287066988148,17z?hl=en",
    "searchString": "hospital",
    "language": "en",
    "rank": 25,
    "isAdvertisement": false,
    "imageUrl": "https://lh3.googleusercontent.com/gps-cs-s/AG0ilSz_a0XrN9j9FCrT24qnHUfp6qBt7grnRHsQu6YBZYoj6CS96Dc7UFsQlWaJXeq0hwHVl098P4LYa9gBop4fwY7itySIvetwZ-MeV3W00pN5mYPnwAMVJyoP30o92MEaHjAvp8wjQw=w425-h240-k-no",
    "kgmid": "/g/11ghq646vs"
  },
  {
    "title": "National Center for Rheumatic Diseases",
    "price": null,
    "categoryName": "Hospital",
    "address": "MCCF+HMV, Bhaktapur 44800, Nepal",
    "neighborhood": null,
    "street": "MCCF+HMV",
    "city": "Bhaktapur",
    "postalCode": null,
    "state": null,
    "countryCode": "NP",
    "website": "http://www.ncrd.com.np/",
    "phone": "+977 1-6615164",
    "phoneUnformatted": "+97716615164",
    "claimThisBusiness": true,
    "location": {
      "lat": 27.6714791,
      "lng": 85.4241699
    },
    "permanentlyClosed": false,
    "temporarilyClosed": false,
    "placeId": "ChIJuSMFgsob6zkRMiv9M_9Nlgk",
    "categories": [
      "Hospital"
    ],
    "fid": "0x39eb1bca820523b9:0x9964dff33fd2b32",
    "cid": "690825351332178738",
    "reviewsCount": 0,
    "imagesCount": 1,
    "imageCategories": [],
    "scrapedAt": "2025-11-14T08:43:27.181Z",
    "googleFoodUrl": null,
    "hotelAds": [],
    "openingHours": [
      {
        "day": "Monday",
        "hours": "7 AM to 7 PM"
      },
      {
        "day": "Tuesday",
        "hours": "7 AM to 7 PM"
      },
      {
        "day": "Wednesday",
        "hours": "7 AM to 7 PM"
      },
      {
        "day": "Thursday",
        "hours": "7 AM to 7 PM"
      },
      {
        "day": "Friday",
        "hours": "7 AM to 7 PM"
      },
      {
        "day": "Saturday",
        "hours": "7 AM to 7 PM"
      },
      {
        "day": "Sunday",
        "hours": "7 AM to 7 PM"
      }
    ],
    "peopleAlsoSearch": [],
    "placesTags": [],
    "reviewsTags": [],
    "gasPrices": [],
    "url": "https://www.google.com/maps/search/?api=1&query=National%20Center%20for%20Rheumatic%20Diseases&query_place_id=ChIJuSMFgsob6zkRMiv9M_9Nlgk",
    "searchPageUrl": "https://www.google.com/maps/search/hospital/@27.674599999999995,85.4287066988148,17z?hl=en",
    "searchString": "hospital",
    "language": "en",
    "rank": 27,
    "isAdvertisement": false,
    "imageUrl": "https://streetviewpixels-pa.googleapis.com/v1/thumbnail?panoid=l6dXTnLS0CAsd4ptXyiXJg&cb_client=search.gws-prod.gps&w=408&h=240&yaw=327.2579&pitch=0&thumbfov=100",
    "kgmid": "/g/11h8ff5rpk"
  },
  {
    "title": "Koju Ayurveda Pharma PILES PATHARI UPACHAR KENDRA",
    "price": null,
    "categoryName": "Hospital",
    "address": "MCCC+MQQ, Bhaktapur 44800, Nepal",
    "neighborhood": null,
    "street": "MCCC+MQQ",
    "city": "Bhaktapur",
    "postalCode": "44800",
    "state": null,
    "countryCode": "NP",
    "phone": "+977 976-7238555",
    "phoneUnformatted": "+9779767238555",
    "claimThisBusiness": true,
    "location": {
      "lat": 27.6717015,
      "lng": 85.4219782
    },
    "permanentlyClosed": false,
    "temporarilyClosed": false,
    "placeId": "ChIJE9wz410b6zkR43UyMGItdB0",
    "categories": [
      "Hospital"
    ],
    "fid": "0x39eb1b5de333dc13:0x1d742d62303275e3",
    "cid": "2122371224137004515",
    "reviewsCount": 0,
    "imagesCount": 7,
    "imageCategories": [],
    "scrapedAt": "2025-11-14T08:43:27.181Z",
    "googleFoodUrl": null,
    "hotelAds": [],
    "openingHours": [
      {
        "day": "Monday",
        "hours": "7 AM to 7 PM"
      },
      {
        "day": "Tuesday",
        "hours": "7 AM to 7 PM"
      },
      {
        "day": "Wednesday",
        "hours": "7 AM to 7 PM"
      },
      {
        "day": "Thursday",
        "hours": "7 AM to 7 PM"
      },
      {
        "day": "Friday",
        "hours": "7 AM to 7 PM"
      },
      {
        "day": "Saturday",
        "hours": "Closed"
      },
      {
        "day": "Sunday",
        "hours": "10 AM to 5 PM"
      }
    ],
    "peopleAlsoSearch": [],
    "placesTags": [],
    "reviewsTags": [],
    "gasPrices": [],
    "url": "https://www.google.com/maps/search/?api=1&query=Koju%20Ayurveda%20Pharma%20PILES%20PATHARI%20UPACHAR%20KENDRA&query_place_id=ChIJE9wz410b6zkR43UyMGItdB0",
    "searchPageUrl": "https://www.google.com/maps/search/hospital/@27.674599999999995,85.4287066988148,17z?hl=en",
    "searchString": "hospital",
    "language": "en",
    "rank": 34,
    "isAdvertisement": false,
    "imageUrl": "https://lh3.googleusercontent.com/gps-cs-s/AG0ilSzHjIwu9iAE5epWhnn_E1sgcXnlSx0jV-hdxXtxDWOea7pyTLccC7YCAunFYWC46UMFmSNzsorp2qSHU4LBiAcJQ6LM8z___RHkAcBWWCF3xah-hYlF_vWugorK80aUw9KWunyYdgqN05o=w493-h240-k-no",
    "kgmid": "/g/11q26mmtl0"
  },
  {
    "title": "Spark Ortho Neuro Center",
    "price": null,
    "categoryName": "Hospital",
    "address": "Suryabinayak 44800, Nepal",
    "neighborhood": "Katunje",
    "street": null,
    "city": "Suryabinayak",
    "postalCode": "44800",
    "state": null,
    "countryCode": "NP",
    "phone": "+977 1-5092256",
    "phoneUnformatted": "+97715092256",
    "claimThisBusiness": false,
    "location": {
      "lat": 27.6659344,
      "lng": 85.4192158
    },
    "permanentlyClosed": false,
    "temporarilyClosed": false,
    "placeId": "ChIJjxPS5aUb6zkRvhe5AWGZbCM",
    "categories": [
      "Hospital"
    ],
    "fid": "0x39eb1ba5e5d2138f:0x236c996101b917be",
    "cid": "2552583730732013502",
    "reviewsCount": 0,
    "imagesCount": 3,
    "imageCategories": [],
    "scrapedAt": "2025-11-14T08:43:27.732Z",
    "googleFoodUrl": null,
    "hotelAds": [],
    "openingHours": [
      {
        "day": "Monday",
        "hours": "6:45 AM to 6 PM"
      },
      {
        "day": "Tuesday",
        "hours": "6:45 AM to 6 PM"
      },
      {
        "day": "Wednesday",
        "hours": "6:45 AM to 6 PM"
      },
      {
        "day": "Thursday",
        "hours": "6:45 AM to 6 PM"
      },
      {
        "day": "Friday",
        "hours": "6:45 AM to 6 PM"
      },
      {
        "day": "Saturday",
        "hours": "6:45 AM to 6 PM"
      },
      {
        "day": "Sunday",
        "hours": "6:45 AM to 6 PM"
      }
    ],
    "peopleAlsoSearch": [],
    "placesTags": [],
    "reviewsTags": [],
    "gasPrices": [],
    "url": "https://www.google.com/maps/search/?api=1&query=Spark%20Ortho%20Neuro%20Center&query_place_id=ChIJjxPS5aUb6zkRvhe5AWGZbCM",
    "searchPageUrl": "https://www.google.com/maps/search/hospital/@27.666993023382226,85.42012009644444,17z?hl=en",
    "searchString": "hospital",
    "language": "en",
    "rank": 21,
    "isAdvertisement": false,
    "imageUrl": "https://lh3.googleusercontent.com/p/AF1QipNnfxkayCiKPax0wN4-u9MlgGlzNh3C2k7zZ45B=w408-h725-k-no",
    "kgmid": "/g/11h3b277b9"
  }
]