[
  {
    "title": "Nirvana Physiotherapy & Wellness Center, Bhaktapur | Ayurvedic Therapy | Osteopathy | Naturopathy",
    "price": null,
    "categoryName": "Physical therapy clinic",
    "address": "Balanko-06 Opposite of Laxmi Market, Suryabinayak 44800, Nepal",
    "neighborhood": "Sipadol",
    "street": "Balanko-06 Opposite of Laxmi Market",
    "city": "Suryabinayak",
    "postalCode": "44800",
    "state": null,
    "countryCode": "NP",
    "website": "https://www.npwc.com.np/",
    "phone": "+977 970-5815374",
    "phoneUnformatted": "+9779705815374",
    "claimThisBusiness": false,
    "location": {
      "lat": 27.6644186,
      "lng": 85.425808
    },
    "totalScore": 4.9,
    "permanentlyClosed": false,
    "temporarilyClosed": false,
    "placeId": "ChIJTabKen8b6zkR3EL7qQ6MFwY",
    "categories": [
      "Physical therapy clinic",
      "Ayurvedic clinic",
      "Chiropractor",
      "Naturopathic practitioner",
      "Osteopath",
      "Physical fitness program",
      "Physical rehabilitation center",
      "Physical therapist"
    ],
    "fid": "0x39eb1b7f7acaa64d:0x6178c0ea9fb42dc",
    "cid": "438973483301159644",
    "reviewsCount": 25,
    "imagesCount": 243,
    "imageCategories": [],
    "scrapedAt": "2025-11-14T08:13:28.439Z",
    "googleFoodUrl": null,
    "hotelAds": [],
    "openingHours": [
      {
        "day": "Monday",
        "hours": "7 AM to 5 PM"
      },
      {
        "day": "Tuesday",
        "hours": "7 AM to 5 PM"
      },
      {
        "day": "Wednesday",
        "hours": "7 AM to 5 PM"
      },
      {
        "day": "Thursday",
        "hours": "7 AM to 5 PM"
      },
      {
        "day": "Friday",
        "hours": "7 AM to 5 PM"
      },
      {
        "day": "Saturday",
        "hours": "7 AM to 12 PM"
      },
      {
        "day": "Sunday",
        "hours": "7 AM to 5 PM"
      }
    ],
    "peopleAlsoSearch": [],
    "placesTags": [],
    "reviewsTags": [],
    "additionalInfo": {
      "Accessibility": [
        {
          "Wheelchair accessible restroom": true
        }
      ],
      "Amenities": [
        {
          "Restroom": true
        }
      ],
      "Planning": [
        {
          "Appointments recommended": true
        }
      ],
      "Payments": [
        {
          "NFC mobile payments": true
        }
      ],
      "Parking": [
        {
          "Free parking lot": true
        },
        {
          "On-site parking": true
        }
      ]
    },
    "gasPrices": [],
    "url": "https://www.google.com/maps/search/?api=1&query=Nirvana%20Physiotherapy%20%26%20Wellness%20Center%2C%20Bhaktapur%20%7C%20Ayurvedic%20Therapy%20%7C%20Osteopathy%20%7C%20Naturopathy&query_place_id=ChIJTabKen8b6zkR3EL7qQ6MFwY",
    "searchPageUrl": "https://www.google.com/maps/search/acupuncturist/@27.67530454090198,85.43009086349416,17z?hl=en",
    "searchString": "acupuncturist",
    "language": "en",
    "rank": 2,
    "isAdvertisement": false,
    "imageUrl": "https://lh3.googleusercontent.com/p/AF1QipM-lew3iN4sUuMv661OQQvDRkX5leEP_a5-NxNP=w408-h272-k-no",
    "kgmid": "/g/11h0mhcghm"
  },
  {
    "title": "Namaste Khwopa Physiotherapy Clinic",
    "price": null,
    "categoryName": "Physical therapy clinic",
    "address": "school, Tathali Nala Bus Stop, libali 44800, Nepal",
    "neighborhood": "Bageshwori",
    "street": "school, Tathali Nala Bus Stop",
    "city": "libali",
    "postalCode": "44800",
    "state": null,
    "countryCode": "NP",
    "phone": "+977 986-0896974",
    "phoneUnformatted": "+9779860896974",
    "claimThisBusiness": false,
    "location": {
      "lat": 27.6728628,
      "lng": 85.4396822
    },
    "totalScore": 5,
    "permanentlyClosed": false,
    "temporarilyClosed": false,
    "placeId": "ChIJNepe5iEF6zkRVcy0MuIzEk4",
    "categories": [
      "Physical therapy clinic"
    ],
    "fid": "0x39eb0521e65eea35:0x4e1233e232b4cc55",
    "cid": "5625615931145505877",
    "reviewsCount": 6,
    "imagesCount": 13,
    "imageCategories": [],
    "scrapedAt": "2025-11-14T08:40:32.947Z",
    "googleFoodUrl": null,
    "hotelAds": [],
    "openingHours": [
      {
        "day": "Monday",
        "hours": "7:30 to 10:30 AM, 2 to 7 PM"
      },
      {
        "day": "Tuesday",
        "hours": "7:30 to 10:30 AM, 2 to 7 PM"
      },
      {
        "day": "Wednesday",
        "hours": "7:30 to 10:30 AM, 2 to 7 PM"
      },
      {
        "day": "Thursday",
        "hours": "7:30 to 10:30 AM, 2 to 7 PM"
      },
      {
        "day": "Friday",
        "hours": "7:30 to 10:30 AM, 2 to 7 PM"
      },
      {
        "day": "Saturday",
        "hours": "Closed"
      },
      {
        "day": "Sunday",
        "hours": "7 to 11 AM, 3 to 7 PM"
      }
    ],
    "peopleAlsoSearch": [],
    "placesTags": [],
    "reviewsTags": [],
    "additionalInfo": {
      "Accessibility": [
        {
          "Wheelchair accessible parking lot": true
        }
      ],
      "Amenities": [
        {
          "Restroom": true
        }
      ],
      "Planning": [
        {
          "Appointments recommended": true
        }
      ],
      "Payments": [
        {
          "NFC mobile payments": true
        }
      ]
    },
    "gasPrices": [],
    "url": "https://www.google.com/maps/search/?api=1&query=Namaste%20Khwopa%20Physiotherapy%20Clinic&query_place_id=ChIJNepe5iEF6zkRVcy0MuIzEk4",
    "searchPageUrl": "https://www.google.com/maps/search/clinic/@27.689813953235532,85.45446650592592,17z?hl=en",
    "searchString": "clinic",
    "language": "en",
    "rank": 19,
    "isAdvertisement": false,
    "imageUrl": "https://lh3.googleusercontent.com/gps-cs-s/AG0ilSxsPrBd8AasHdsjJXEYn2hPZ0uT1Zl-LVv9X4mReANOFywLs_aCEWVNFJDve-bjgdP_HpiqC6WeBlSGhlPZaqr5OPl75tZm-nIBzHfeFy8uGzkAUJV0cBRIwWP9aAGwQb0HUQ0=w408-h306-k-no",
    "kgmid": "/g/11fnbby8j9"
  },
  {
    "title": "Nirvana Physiotherapy & Wellness Center, Bhaktapur | Ayurvedic Therapy | Osteopathy | Naturopathy",
    "price": null,
    "categoryName": "Physical therapy clinic",
    "address": "Balanko-06 Opposite of Laxmi Market, Suryabinayak 44800, Nepal",
    "neighborhood": "Sipadol",
    "street": "Balanko-06 Opposite of Laxmi Market",
    "city": "Suryabinayak",
    "postalCode": "44800",
    "state": null,
    "countryCode": "NP",
    "website": "https://www.npwc.com.np/",
    "phone": "+977 970-5815374",
    "phoneUnformatted": "+9779705815374",
    "claimThisBusiness": false,
    "location": {
      "lat": 27.6644186,
      "lng": 85.425808
    },
    "totalScore": 4.9,
    "permanentlyClosed": false,
    "temporarilyClosed": false,
    "placeId": "ChIJTabKen8b6zkR3EL7qQ6MFwY",
    "categories": [
      "Physical therapy clinic",
      "Ayurvedic clinic",
      "Chiropractor",
      "Naturopathic practitioner",
      "Osteopath",
      "Physical fitness program",
      "Physical rehabilitation center",
      "Physical therapist"
    ],
    "fid": "0x39eb1b7f7acaa64d:0x6178c0ea9fb42dc",
    "cid": "438973483301159644",
    "reviewsCount": 25,
    "reviewsDistribution": {
      "oneStar": 0,
      "twoStar": 0,
      "threeStar": 0,
      "fourStar": 3,
      "fiveStar": 22
    },
    "imagesCount": 243,
    "imageCategories": [],
    "scrapedAt": "2025-11-14T08:40:52.253Z",
    "googleFoodUrl": null,
    "hotelAds": [],
    "openingHours": [
      {
        "day": "Monday",
        "hours": "7 AM to 5 PM"
      },
      {
        "day": "Tuesday",
        "hours": "7 AM to 5 PM"
      },
      {
        "day": "Wednesday",
        "hours": "7 AM to 5 PM"
      },
      {
        "day": "Thursday",
        "hours": "7 AM to 5 PM"
      },
      {
        "day": "Friday",
        "hours": "7 AM to 5 PM"
      },
      {
        "day": "Saturday",
        "hours": "7 AM to 12 PM"
      },
      {
        "day": "Sunday",
        "hours": "7 AM to 5 PM"
      }
    ],
    "peopleAlsoSearch": [],
    "placesTags": [],
    "reviewsTags": [],
    "additionalInfo": {
      "Accessibility": [
        {
          "Wheelchair accessible restroom": true
        }
      ],
      "Amenities": [
        {
          "Restroom": true
        }
      ],
      "Planning": [
        {
          "Appointments recommended": true
        }
      ],
      "Payments": [
        {
          "NFC mobile payments": true
        }
      ],
      "Parking": [
        {
          "Free parking lot": true
        },
        {
          "On-site parking": true
        }
      ]
    },
    "gasPrices": [],
    "url": "https://www.google.com/maps/search/?api=1&query=Nirvana%20Physiotherapy%20%26%20Wellness%20Center%2C%20Bhaktapur%20%7C%20Ayurvedic%20Therapy%20%7C%20Osteopathy%20%7C%20Naturopathy&query_place_id=ChIJTabKen8b6zkR3EL7qQ6MFwY",
    "searchPageUrl": "https://www.google.com/maps/search/hospital/@27.666993023382226,85.4287066988148,17z?hl=en",
    "searchString": "hospital",
    "language": "en",
    "rank": 47,
    "isAdvertisement": false,
    "imageUrl": "https://lh3.googleusercontent.com/p/AF1QipOv4XTM6eKzzEh5G38GgJx9L-GvzCBRIxAmZvA0=w408-h272-k-no",
    "kgmid": "/g/11h0mhcghm"
  },
  {
    "title": "Devaki Physiotherapy And Rehabilitation Centre Pvt Ltd",
    "price": null,
    "categoryName": "Physical therapy clinic",
    "address": "Chymasingha -9 Next to Khwopa Hospital Parking Entrance, Bhaktapur 44800, Nepal",
    "neighborhood": null,
    "street": "Chymasingha -9 Next to Khwopa Hospital Parking Entrance",
    "city": "Bhaktapur",
    "postalCode": "44800",
    "state": null,
    "countryCode": "NP",
    "phone": "+977 985-1400861",
    "phoneUnformatted": "+9779851400861",
    "claimThisBusiness": false,
    "location": {
      "lat": 27.6739544,
      "lng": 85.439454
    },
    "totalScore": 4.3,
    "permanentlyClosed": false,
    "temporarilyClosed": false,
    "placeId": "ChIJJWwpJwAF6zkRHMQAzpulgdk",
    "categories": [
      "Physical therapy clinic"
    ],
    "fid": "0x39eb050027296c25:0xd981a59bce00c41c",
    "cid": "15672990266820707356",
    "reviewsCount": 7,
    "imagesCount": 12,
    "imageCategories": [],
    "scrapedAt": "2025-11-14T08:42:28.016Z",
    "googleFoodUrl": null,
    "hotelAds": [],
    "openingHours": [
      {
        "day": "Monday",
        "hours": "9 AM to 8:30 PM"
      },
      {
        "day": "Tuesday",
        "hours": "9 AM to 8:30 PM"
      },
      {
        "day": "Wednesday",
        "hours": "9 AM to 8:30 PM"
      },
      {
        "day": "Thursday",
        "hours": "9 AM to 8:30 PM"
      },
      {
        "day": "Friday",
        "hours": "9 AM to 8:30 PM"
      },
      {
        "day": "Saturday",
        "hours": "10 AM to 6 PM"
      },
      {
        "day": "Sunday",
        "hours": "9 AM to 8:30 PM"
      }
    ],
    "peopleAlsoSearch": [],
    "placesTags": [],
    "reviewsTags": [],
    "additionalInfo": {
      "Service options": [
        {
          "Onsite services": true
        }
      ],
      "Accessibility": [
        {
          "Wheelchair accessible seating": true
        },
        {
          "Wheelchair accessible restroom": false
        }
      ],
      "Amenities": [
        {
          "Restroom": true
        }
      ],
      "Planning": [
        {
          "Appointment required": true
        }
      ],
      "Parking": [
        {
          "On-site parking": true
        }
      ]
    },
    "gasPrices": [],
    "url": "https://www.google.com/maps/search/?api=1&query=Devaki%20Physiotherapy%20And%20Rehabilitation%20Centre%20Pvt%20Ltd&query_place_id=ChIJJWwpJwAF6zkRHMQAzpulgdk",
    "searchPageUrl": "https://www.google.com/maps/search/clinic/@27.666993023382226,85.44587990355555,17z?hl=en",
    "searchString": "clinic",
    "language": "en",
    "rank": 8,
    "isAdvertisement": false,
    "imageUrl": "https://lh3.googleusercontent.com/p/AF1QipO37BsE7w8rgNY8cB_lSzI4_p5x7FrtFHoe2gkl=w426-h240-k-no",
    "kgmid": "/g/11wqyfpk8z"
  },
  {
    "title": "Bhaktapur Physiotherapy Clinic",
    "price": null,
    "categoryName": "Physical therapy clinic",
    "address": "Maheshwari, Jagati-KamalBinayak Rd, Bhaktapur 44800, Nepal",
    "neighborhood": null,
    "street": "Maheshwari, Jagati-KamalBinayak Rd",
    "city": "Bhaktapur",
    "postalCode": "44800",
    "state": null,
    "countryCode": "NP",
    "website": "http://www.instagram.com/bhaktapurphysiotherapyclinic",
    "phone": "+977 985-1191921",
    "phoneUnformatted": "+9779851191921",
    "claimThisBusiness": false,
    "location": {
      "lat": 27.6691227,
      "lng": 85.4376187
    },
    "totalScore": 4.7,
    "permanentlyClosed": false,
    "temporarilyClosed": false,
    "placeId": "ChIJpVOOzjkb6zkRRHmMJVYWhQQ",
    "categories": [
      "Physical therapy clinic",
      "Physical therapist"
    ],
    "fid": "0x39eb1b39ce8e53a5:0x4851656258c7944",
    "cid": "325691107307190596",
    "reviewsCount": 10,
    "imagesCount": 12,
    "imageCategories": [],
    "scrapedAt": "2025-11-14T08:42:28.016Z",
    "googleFoodUrl": null,
    "hotelAds": [],
    "openingHours": [
      {
        "day": "Monday",
        "hours": "7 to 10 AM, 3 to 6 PM"
      },
      {
        "day": "Tuesday",
        "hours": "7 to 10 AM, 3 to 6 PM"
      },
      {
        "day": "Wednesday",
        "hours": "7 to 10 AM, 3 to 6 PM"
      },
      {
        "day": "Thursday",
        "hours": "7 to 10 AM, 3 to 6 PM"
      },
      {
        "day": "Friday",
        "hours": "7 to 10 AM, 3 to 6 PM"
      },
      {
        "day": "Saturday",
        "hours": "7 to 9 AM"
      },
      {
        "day": "Sunday",
        "hours": "7 to 10 AM, 3 to 6 PM"
      }
    ],
    "peopleAlsoSearch": [],
    "placesTags": [],
    "reviewsTags": [],
    "additionalInfo": {
      "Accessibility": [
        {
          "Wheelchair accessible parking lot": true
        },
        {
          "Wheelchair accessible restroom": true
        }
      ],
      "Amenities": [
        {
          "Restroom": true
        }
      ]
    },
    "gasPrices": [],
    "url": "https://www.google.com/maps/search/?api=1&query=Bhaktapur%20Physiotherapy%20Clinic&query_place_id=ChIJpVOOzjkb6zkRRHmMJVYWhQQ",
    "searchPageUrl": "https://www.google.com/maps/search/clinic/@27.666993023382226,85.44587990355555,17z?hl=en",
    "searchString": "clinic",
    "language": "en",
    "rank": 16,
    "isAdvertisement": false,
    "imageUrl": "https://lh3.googleusercontent.com/gps-cs-s/AG0ilSxE6kYIoEEkJCd_9NuP_8O0GkXH17yXROVUiy585Wb3gu3wEYmvlQFfwj94HIRdaRUPV3kFo55cIdg3G401vuOVfXqvA3u38NrhhC4LHvytoZ_oL7PXlx0WZcwbAGZNamDSoGY=w523-h240-k-no",
    "kgmid": "/g/11g07sxm54"
  }
]