name,main_category,category,address,city,lat,lng,rating,reviews_count,reviewsDistribution_oneStar,reviewsDistribution_twoStar,reviewsDistribution_threeStar,reviewsDistribution_fourStar,reviewsDistribution_fiveStar,weekly_hours,imageUrl,url
Chautari,Community garden,Community garden,"MCM5+V6P, Atharvanagar Rd, Changunarayan, Nepal",Changunarayan,27.6847158,85.4080922,4.1,22,0,0,0,0,0,0.0,https://lh3.googleusercontent.com/gps-cs-s/AG0ilSyzvDS5tHuluI-DpZqb3qrNS8j3-7-YKh7MLh3x6PEP1mAwRc75IZwHs07YLDDcxmD3REGD4GuSEbVmCfOG5o4MGvRy6rBOloNOhOPYnhlPXwdestNsWqFpPP37crWQr6Eiotym=w408-h306-k-no,https://www.google.com/maps/search/?api=1&query=Chautari&query_place_id=ChIJta54Ppcb6zkRuJoFDUMsuao
Banglamukhi Savings And Credit Cooperative Ltd.,Financial institution,Financial institution,"M99F+W2Q, Anantalingeshwar 44600, Nepal",Anantalingeshwar,27.6698454,85.3726057,3.5,2,0,1,0,0,1,42.0,https://streetviewpixels-pa.googleapis.com/v1/thumbnail?panoid=xNIzipYxePhSmUMJyOVZ6Q&cb_client=search.gws-prod.gps&w=408&h=240&yaw=115.57471&pitch=0&thumbfov=100,https://www.google.com/maps/search/?api=1&query=Banglamukhi%20Savings%20And%20Credit%20Cooperative%20Ltd.&query_place_id=ChIJC9J8rw0a6zkRciSHEgcRr3A
Sindhu Container Saving & Credit Co-operative Ltd.,Financial institution,Financial institution,"Araniko Highway, Madhyapur Thimi 44600, Nepal",Madhyapur Thimi,27.6737891,85.3704257,5.0,2,0,0,0,0,2,40.0,https://lh3.googleusercontent.com/p/AF1QipOTiMNWEQmXeCFdE79B1bEpMBvz_zbgehvrZiTJ=w426-h240-k-no,https://www.google.com/maps/search/?api=1&query=Sindhu%20Container%20Saving%20%26%20Credit%20Co-operative%20Ltd.&query_place_id=ChIJsaoulxEa6zkRwtZkkwSredA
Sahid Smriti Udyan,Park,Park,"MCFF+CXP, Unnamed Road, Bhaktapur 44800, Nepal",Bhaktapur,27.6735852,85.4249554,4.4,16,0,0,0,0,0,0.0,https://lh3.googleusercontent.com/gps-cs-s/AG0ilSwcHLEu3Z3HyjoVMrhlM8jGmPv8LzZl6IX8jLyDRnwqni4QpxD5EPA3t0fUXRYUFamYjzLI1mitv_prMXRRmH4GUR61Tfkr23bRKvS2kKyfEmPTidW4vNrzXrDRxuYSwWVC1WyE=w426-h240-k-no,https://www.google.com/maps/search/?api=1&query=Sahid%20Smriti%20Udyan&query_place_id=ChIJd03WBTIb6zkRKtRlpaCJCes
Changu Narayan,Park,Park,"MCFG+WX2, Bhaktapur 44800, Nepal",Bhaktapur,27.674766,85.4273979,5.0,1,0,0,0,0,0,0.0,https://streetviewpixels-pa.googleapis.com/v1/thumbnail?panoid=y_M10KsmajGRI-lSxwUKMw&cb_client=search.gws-prod.gps&w=408&h=240&yaw=136.01321&pitch=0&thumbfov=100,https://www.google.com/maps/search/?api=1&query=Changu%20Narayan&query_place_id=ChIJx_xpDQAb6zkR23CI_vkzETc
Bhoula pukhu,Park,Park,"MCFJ+WMG Bholachhen Pond, Bhaktapur 44800, Nepal",Bhaktapur,27.6748115,85.4317032,4.7,3,0,0,0,0,0,0.0,https://lh3.googleusercontent.com/gps-cs-s/AG0ilSxT_alY7pRDRaxEYlv0YrAodwEZ8o9TYACj0Jxwchfc_aXX5tw38lOSEwe5ZOspkgNGXvZWPcq_zUyjQ9R0lV7_F4dyisgJ03eSP9Qn959kKIq9doxkxuQEj9Kch4Ds0KY1HGHLYw=w408-h725-k-no,https://www.google.com/maps/search/?api=1&query=Bhoula%20pukhu&query_place_id=ChIJ07c4RQAb6zkRVtmtpyxSrSQ
Single Bar,Park,Park,"MCGJ+MHM, Bhaktapur 44800, Nepal",Bhaktapur,27.6767052,85.4314316,0.0,0,0,0,0,0,0,0.0,https://streetviewpixels-pa.googleapis.com/v1/thumbnail?panoid=J_qeX9YN02vaVmUSy4hplg&cb_client=search.gws-prod.gps&w=408&h=240&yaw=65.47875&pitch=0&thumbfov=100,https://www.google.com/maps/search/?api=1&query=Single%20Bar&query_place_id=ChIJH52aBwAb6zkRJQtG7o_P0nc
Temple park,Park,Park,"MCF4+RVW, Bhaktapur 44800, Nepal",Bhaktapur,27.6745439,85.4074859,0.0,0,0,0,0,0,0,0.0,https://streetviewpixels-pa.googleapis.com/v1/thumbnail?panoid=lsM6R7MEOI33Fx_UXrurfw&cb_client=search.gws-prod.gps&w=408&h=240&yaw=158.7467&pitch=0&thumbfov=100,https://www.google.com/maps/search/?api=1&query=Temple%20park&query_place_id=ChIJty3VMQAb6zkRsy0yFViPQ4g
Nag Pokhari,Park,Park,"MCFM+M8H, Bhaktapur 44800, Nepal",Bhaktapur,27.6741945,85.4333464,4.1,162,8,14,21,29,90,0.0,https://lh3.googleusercontent.com/gps-cs-s/AG0ilSw6TlGqX7DI7Fa-pLWyAbeTDqBEkHbCnr6MAb91lrMXmkwNUpjieqs6ODdzGS2gvwwDAzkKN3ixxQO3lIQSV5gfzRVjgutI62rlU84XN3cIFuQv8DgRiKyYeXM42mIkUSEDTUtT=w408-h306-k-no,https://www.google.com/maps/search/?api=1&query=Nag%20Pokhari&query_place_id=ChIJq_YYBLIa6zkRCblapYBL3gg
Radhe Marg (राधे मार्ग),Park,Park,"MCGF+XR6, Bhaktapur 44800, Nepal",Bhaktapur,27.6776639,85.4237779,0.0,0,0,0,0,0,0,0.0,,https://www.google.com/maps/search/?api=1&query=Radhe%20Marg%20(%E0%A4%B0%E0%A4%BE%E0%A4%A7%E0%A5%87%20%E0%A4%AE%E0%A4%BE%E0%A4%B0%E0%A5%8D%E0%A4%97)&query_place_id=ChIJe7jVPwAb6zkRFth4Fl9K0qs
Guna Chwok (गुण चोक),Park,Park,"MCGF+XR6, Bhaktapur 44800, Nepal",Bhaktapur,27.6774125,85.4245156,0.0,0,0,0,0,0,0,0.0,,https://www.google.com/maps/search/?api=1&query=Guna%20Chwok%20(%E0%A4%97%E0%A5%81%E0%A4%A3%20%E0%A4%9A%E0%A5%8B%E0%A4%95)&query_place_id=ChIJucukLAAb6zkRSl_CY3rzOjo
Gankhu kharibot chowk (गाँखु खरीबाेट चाेक),Park,Park,"M9QV+6MG, Gankhu Marg rajkulo road, Madhyapur Thimi 44811, Nepal",Madhyapur Thimi,27.6880666,85.3941968,5.0,1,0,0,0,0,0,0.0,https://lh3.googleusercontent.com/gps-cs-s/AG0ilSx1CPl9rK_BEggcLXJuun-Hw7EszYQscGjUtJ91H7AWiXdsXH_HihXUg_9M8SrZBA-QKGv6JHDLrSlVlIWZNiqNJLXaUxHclQnprbNQFKW4SgmnBnr0I1MD6iLz6dDqR2Owed6VNA=w408-h725-k-no,https://www.google.com/maps/search/?api=1&query=Gankhu%20kharibot%20chowk%20(%E0%A4%97%E0%A4%BE%E0%A4%81%E0%A4%96%E0%A5%81%20%E0%A4%96%E0%A4%B0%E0%A5%80%E0%A4%AC%E0%A4%BE%E0%A5%87%E0%A4%9F%20%E0%A4%9A%E0%A4%BE%E0%A5%87%E0%A4%95)&query_place_id=ChIJew5gESEb6zkRmqHUQ0OnEx8
Basipukhu Peace Park,Park,Park,"M9JM+JVM, Madhyapur Thimi 44600, Nepal",Madhyapur Thimi,27.6815876,85.3846733,3.6,14,0,0,0,0,0,168.0,https://lh3.googleusercontent.com/gps-cs-s/AG0ilSxGG0W5suTuiGFXQa6Ji87mDEI6HC5-hYdes-Eqjo2Qixt_1ZOC7qtMewqgDr64hAG-LYMr3hxP9ndSrYoG6tzKgUYwOBFg47XG39vuoOyaJW4U785EYojjOIKI2Yow4YKBES0=w408-h549-k-no,https://www.google.com/maps/search/?api=1&query=Basipukhu%20Peace%20Park&query_place_id=ChIJWbCrYGga6zkRLonvWNCzvUk
Shankhadhar Park,Park,Park,"M9FP+69F Shankadhar Chowk, Araniko Highway, Madhyapur Thimi, Nepal",Madhyapur Thimi,27.6738091,85.3850039,4.1,37,0,0,0,0,0,0.0,https://lh3.googleusercontent.com/gps-cs-s/AG0ilSzUQ8lmdtZpFjTVSkxdaeZk1137a76OgMCoQQ5pcxWJs0S04RzsEH0dCPnjxbgoX58_tOo51_Z5XXfWrNXSlB3XBmPHGoDHg7g5nyqXrzKgXLqOwYdmuI9xkawJbik6QYIukB9a=w408-h305-k-no,https://www.google.com/maps/search/?api=1&query=Shankhadhar%20Park&query_place_id=ChIJ2WrSe2wb6zkR5ZKT4B7DH8E
Buddha Park Sanothimi,Park,Park,"M9JJ+R48, Bhaktapur Road, Madhyapur Thimi 44600, Nepal",Madhyapur Thimi,27.6820433,85.3803174,5.0,1,0,0,0,0,0,0.0,https://lh3.googleusercontent.com/gps-cs-s/AG0ilSw7Bj6gG2FwxTuc5ttC_p3-xrVIwVFt1f-CdUYknthI0vqwIJyII4tSAp_1vX2f4Agq8oqoiZ9BRsZcsNrat9RklZxKGMxa9HWAVJWpH8jEiibjOfA5YJbainnNDCsqes5br3I=w408-h307-k-no,https://www.google.com/maps/search/?api=1&query=Buddha%20Park%20Sanothimi&query_place_id=ChIJB6dmQwAb6zkR6bi7JDpJGhs
Gaahiti Park,Park,Park,"M9MM+G5C, Madhyapur Thimi 44600, Nepal",Madhyapur Thimi,27.683824,85.3828911,0.0,0,0,0,0,0,0,0.0,https://streetviewpixels-pa.googleapis.com/v1/thumbnail?panoid=v-ALR-VVIZWhPjMUkbHzSQ&cb_client=search.gws-prod.gps&w=408&h=240&yaw=206.38004&pitch=0&thumbfov=100,https://www.google.com/maps/search/?api=1&query=Gaahiti%20Park&query_place_id=ChIJyVWhKAAb6zkRK1tsI-66qyE
Sanothimi Park,Park,Park,"M9JF+VPV, Bhaktapur Road, Madhyapur Thimi 44600, Nepal",Madhyapur Thimi,27.6825845,85.3752232,0.0,0,0,0,0,0,0,0.0,https://lh3.googleusercontent.com/gps-cs-s/AG0ilSw5bxPfwEFpYY4cuH-N9k4DDIpP_fg9IkFIVNX3eEuL3M62PmrhO_XYgithXdKzPkh9lB4jPpKsT0HTi469rBZZgShRFveR5gGbJac49ZhleD8adRMpeL5ZoT8-h9LtSZhX3IRi=w408-h725-k-no,https://www.google.com/maps/search/?api=1&query=Sanothimi%20Park&query_place_id=ChIJ37FrbwAb6zkR1RTS95T7x9U
Bandevi park बन्देवी पार्क,Park,Park,"M9FP+J98, Madhyapur Thimi, Nepal",Madhyapur Thimi,27.6740442,85.3859618,4.0,3,0,0,0,0,0,0.0,https://lh3.googleusercontent.com/gps-cs-s/AG0ilSwexusmyLazzZpPEI_sNkajlhheSKsJlV_3svoV6jeFcJpp90uoBVkOervblwF--xALNkhXZXA0dHf0LfENmnUTdSgaeJJhkHzYRdZ5fJglYPj4rlNwq9VSLfmYhGjSPwzyC-rD=w408-h306-k-no,https://www.google.com/maps/search/?api=1&query=Bandevi%20park%20%E0%A4%AC%E0%A4%A8%E0%A5%8D%E0%A4%A6%E0%A5%87%E0%A4%B5%E0%A5%80%20%E0%A4%AA%E0%A4%BE%E0%A4%B0%E0%A5%8D%E0%A4%95&query_place_id=ChIJgfpfP0Ib6zkRsF4xeZisQTo
Dakshin Barahi Park,Park,Park,"M99P+29Q, Anantalingeshwar, Nepal",Anantalingeshwar,27.6675878,85.3859708,4.3,72,0,0,0,0,0,168.0,https://lh3.googleusercontent.com/gps-cs-s/AG0ilSwwtzJhhdO5F7zNh3D4a-fpRn5qQqGsjZNY7s9OCDqV4jaAbdTs9TAKJnXrR1erq_lvoNF8tT6xLXxp960YjKTdT8jFjIxcdkHZcFvCn8zdJWrxPUPk6TxQuMZ05Esb8mq1u7FQ=w408-h545-k-no,https://www.google.com/maps/search/?api=1&query=Dakshin%20Barahi%20Park&query_place_id=ChIJdyjgY3ob6zkRap1vOgU2Eqo
Chundevi chagunarayan 9 pani tanki,Park,Park,"MF82+JRH, Mahamanjushree Nagarkot, Nepal",Mahamanjushree Nagarkot,27.666571,85.4521208,0.0,0,0,0,0,0,0,0.0,,https://www.google.com/maps/search/?api=1&query=Chundevi%20chagunarayan%209%20pani%20tanki&query_place_id=ChIJ1cjUYQAF6zkRxRibKl71Tzo
Jorpati Park ️,Park,Park,"MF27+53F, Suryabinayak, Nepal",Suryabinayak,27.6507737,85.4623883,0.0,0,0,0,0,0,0,0.0,https://streetviewpixels-pa.googleapis.com/v1/thumbnail?panoid=cek-E8P4ehTGaDvMOlh6iw&cb_client=search.gws-prod.gps&w=408&h=240&yaw=69.56514&pitch=0&thumbfov=100,https://www.google.com/maps/search/?api=1&query=Jorpati%20Park%20%EF%B8%8F&query_place_id=ChIJd8U-QsAP6zkRtvEdYDXQuTI
Ganesh Calisthenics Park,Park,Park,"MC4F+C4J, F099, Suryabinayak, Nepal",Suryabinayak,27.6565663,85.4221475,5.0,2,0,0,0,0,0,168.0,https://lh3.googleusercontent.com/gps-cs-s/AG0ilSzVhOqCQCvF42_D5b44ggEqiviFxt6QKggCYe5_wFUjf4VEkba6qVpICNoregYQMvI2AqvjuVzBPQ2Iaox6NH11P_kId_uEqZQspKkCegttju8zPNLNITXHFVW_xSZpqvgf-rpgGkjDE6o=w408-h543-k-no,https://www.google.com/maps/search/?api=1&query=Ganesh%20Calisthenics%20Park&query_place_id=ChIJyVUULwAR6zkRkngy1Dym1EI
Ithuli pipalbot tathali bhaktapur,Park,Park,"MC8X+MVG, Changunarayan, Nepal",Changunarayan,27.6666865,85.4497031,4.1,11,1,0,3,0,7,0.0,https://lh3.googleusercontent.com/gps-cs-s/AG0ilSxciOFZkXj6m2jehAOLI6fSyh3fDVLMghuTBRQzvxOHBG9vNXLws0PnYHeV-tG16Desc0vmlRdnub4CSkuT8jIkt3qUE9Pf8u1D4SHmgkOv3Q1BhUrSLbACXv6rpl5YKD0LE7M=w426-h240-k-no,https://www.google.com/maps/search/?api=1&query=Ithuli%20pipalbot%20tathali%20bhaktapur&query_place_id=ChIJ4aqiWR8F6zkR_2UD89Ng8Vo
Ghumti,Park,Park,"JCWV+23W, Suryabinayak, Nepal",Suryabinayak,27.6451028,85.4427153,0.0,0,0,0,0,0,0,0.0,https://streetviewpixels-pa.googleapis.com/v1/thumbnail?panoid=gSqp8N6vBh3aDuTOhf5EmQ&cb_client=search.gws-prod.gps&w=408&h=240&yaw=33.612236&pitch=0&thumbfov=100,https://www.google.com/maps/search/?api=1&query=Ghumti&query_place_id=ChIJUYLDtMoP6zkRCtTnzv1DG4I
Gundu Grassland,Park,Park,"JCXF+35C, Ghyampe Danda Sadak, Anantalingeshwar 44800, Nepal",Anantalingeshwar,27.6476994,85.4229003,4.1,32,0,0,0,0,0,0.0,https://lh3.googleusercontent.com/gps-cs-s/AG0ilSx3ACIgzW8TPXW7P7GZqRaXKBpNMSyGPS92kxG0uLZld7U17kq7DjaDJrVIodMd5mHEbYy23WFpMHoSgkdfzVmiheisL_CA9a5vQqnMbDnYBMGEnWHmegRJbY1jX23dYMSR9jAZtg=w408-h306-k-no,https://www.google.com/maps/search/?api=1&query=Gundu%20Grassland&query_place_id=ChIJS03SBbwR6zkRgPjFwotWRfg
Pilot baba ground,Park,Park,"JCRC+6RV, Ghyampe Danda Path, Anantalingeshwar, Nepal",Anantalingeshwar,27.6406182,85.4220613,4.0,27,0,0,0,0,0,0.0,https://lh3.googleusercontent.com/gps-cs-s/AG0ilSwfV1aYwL92epuymmZ3UQwafcxM1URvX_9RtAtr7KvrlM595267UhkgxUtU9ac0OwOTtKSUoH4cWndxZYQpAoBd5RBp4g3WQ1wS5YtgsoI6gUdwIxEU2jmD-gqltOKx5esSIgCZ=w426-h240-k-no,https://www.google.com/maps/search/?api=1&query=Pilot%20baba%20ground&query_place_id=ChIJI_0WuRcR6zkRcyv07RbuCtk
Chautara Changu,Park,Park,"PC6G+X4F, Changunarayan 44600, Nepal",Changunarayan,27.712412,85.4250815,4.0,1,0,0,0,0,0,0.0,https://lh3.googleusercontent.com/gps-cs-s/AG0ilSzBBppJ2J9x6tYtOcKZV8dyCon4bJCj3vK9RWgnZ1hpf9dOtEoBhMDsUoz4OW6hB4HkBn3EukiNpVYHpYYr0No2QYLu5NQXVBqB__kObfesxjAy0Nwn9wDKKgVF_D8IkRzSG-VS=w408-h408-k-no,https://www.google.com/maps/search/?api=1&query=Chautara%20Changu&query_place_id=ChIJz2dUVAAb6zkRvYUDveqJyq4
Sahari Harit Park,Park,Park,"M99P+G7P, Anantalingeshwar, Nepal",Anantalingeshwar,27.6688477,85.385712,4.0,1,0,0,0,0,0,168.0,https://lh3.googleusercontent.com/gps-cs-s/AG0ilSzHCH5cgUP-ZQvv_9YLtUBHuJXJly_Y1k0DfxoFcntX7IDMsCT8GylB0O8mO8lZYP1NZ8TsemJgh_YZuQvP1OLs9oiv0RhWsX_sJvFbu_fPTW48LsETe0SG-7HMk2L7tBuWwWLq5A=w519-h240-k-no,https://www.google.com/maps/search/?api=1&query=Sahari%20Harit%20Park&query_place_id=ChIJm6p6rtEb6zkRbTOZRQ7VSxc
Suchana tole,Park,Park,"Bhaktapur 32701, Nepal",Bhaktapur,27.6634375,85.3781875,5.0,1,0,0,0,0,0,0.0,https://streetviewpixels-pa.googleapis.com/v1/thumbnail?panoid=fuXzdV-rCIrN5txyiDMUyw&cb_client=search.gws-prod.gps&w=408&h=240&yaw=352.47235&pitch=0&thumbfov=100,https://www.google.com/maps/search/?api=1&query=Suchana%20tole&query_place_id=ChIJQUeo6Vcb6zkR5e-rG_U8ICc
Salla Ghari Park,Park,Park,"M98P+8GH, Anantalingeshwar, Nepal",Anantalingeshwar,27.6658061,85.3863702,3.6,13,0,0,0,0,0,168.0,https://lh3.googleusercontent.com/gps-cs-s/AG0ilSx6--TRJqUZwFNV0_wsKDaBsBF-g5PqEn3YzUNy3Ito2TH8_TVDv04eXOZ6E9dtD_D5hb5PRNVNltM6iA5lcYTk-wK3wRprfGkr9-cpH4ZILV2CFuS9VRkaYAf2dVu4S6qo9eJ8LQ=w408-h306-k-no,https://www.google.com/maps/search/?api=1&query=Salla%20Ghari%20Park&query_place_id=ChIJa6ueRCEb6zkRjqND_AtlcD0
Doleshwor parking,Park,Park,"JCRP+5Q2, Suryabinayak, Nepal",Suryabinayak,27.6403948,85.4369023,4.1,12,0,1,3,2,6,168.0,https://lh3.googleusercontent.com/gps-cs-s/AG0ilSxAo368BGtYmVCQyioI-sxkTIXDp-DxTlFPfq1sCmrZm42PeMn7miQgeUZhMYbhOmZbwQ5KzxK60XZVCLUBAhXjI2_VWyCrSA_ZOPHc7si1rAOtIQB2Kf3_AUdwXTs5ya1TRh_dyRiBasfZ=w408-h306-k-no,https://www.google.com/maps/search/?api=1&query=Doleshwor%20parking&query_place_id=ChIJG0grGQAR6zkROgJ28__X7cE
Pipalbot,Park,Park,"MCC8+JP7, Nagarkot Road, Bhaktapur 44800, Nepal",Bhaktapur,27.6715355,85.4167828,0.0,0,0,0,0,0,0,0.0,https://streetviewpixels-pa.googleapis.com/v1/thumbnail?panoid=xgOeIO8tz5eGy32dDzsN-g&cb_client=search.gws-prod.gps&w=408&h=240&yaw=275.02185&pitch=0&thumbfov=100,https://www.google.com/maps/search/?api=1&query=Pipalbot&query_place_id=ChIJbZQDOgAb6zkRTQqlt9Hi6S0
पधेंरो,Park,Park,"MF33+XH8, Suryabinayak, Nepal",Suryabinayak,27.654282,85.4535002,0.0,0,0,0,0,0,0,0.0,,https://www.google.com/maps/search/?api=1&query=%E0%A4%AA%E0%A4%A7%E0%A5%87%E0%A4%82%E0%A4%B0%E0%A5%8B&query_place_id=ChIJUxjJFQAP6zkRyA5IiZrVuyU
अर्धनारेश्वोर चोक २,Park,Park,"P92P+M63, Kageshwori Manohara 44600, Nepal",Kageshwori Manohara,27.7016375,85.3855469,0.0,0,0,0,0,0,0,0.0,https://streetviewpixels-pa.googleapis.com/v1/thumbnail?panoid=B-w_G8BKkCAdyZR7l_G4Tw&cb_client=search.gws-prod.gps&w=408&h=240&yaw=234.6547&pitch=0&thumbfov=100,https://www.google.com/maps/search/?api=1&query=%E0%A4%85%E0%A4%B0%E0%A5%8D%E0%A4%A7%E0%A4%A8%E0%A4%BE%E0%A4%B0%E0%A5%87%E0%A4%B6%E0%A5%8D%E0%A4%B5%E0%A5%8B%E0%A4%B0%20%E0%A4%9A%E0%A5%8B%E0%A4%95%20%E0%A5%A8&query_place_id=ChIJC6bADwAb6zkRUEsHijGVfBs
Pipalboat,Park,Park,"P92M+7G4, Kageshwori Manohara 44600, Nepal",Kageshwori Manohara,27.7006406,85.383814,0.0,0,0,0,0,0,0,0.0,https://streetviewpixels-pa.googleapis.com/v1/thumbnail?panoid=eL7Jiz6PBLYuKbarBwp8lA&cb_client=search.gws-prod.gps&w=408&h=240&yaw=300.26883&pitch=0&thumbfov=100,https://www.google.com/maps/search/?api=1&query=Pipalboat&query_place_id=ChIJq6o6ZE4a6zkRoMExCSU1Opk
Rukmani coloni,Park,Park,"M9XP+F9M, Bista gau Road, Kageshwori Manohara 44600, Nepal",Kageshwori Manohara,27.6996751,85.386,0.0,0,0,0,0,0,0,0.0,https://streetviewpixels-pa.googleapis.com/v1/thumbnail?panoid=LyGWjwUNP6GlGPdkipXXBw&cb_client=search.gws-prod.gps&w=408&h=240&yaw=202.08151&pitch=0&thumbfov=100,https://www.google.com/maps/search/?api=1&query=Rukmani%20coloni&query_place_id=ChIJ14T7YwAb6zkR0-ol4tBzh6E
Fikal marga,Park,Park,"P93P+246, Kageshwori Manohara 44600, Nepal",Kageshwori Manohara,27.7025379,85.3852678,0.0,0,0,0,0,0,0,0.0,https://streetviewpixels-pa.googleapis.com/v1/thumbnail?panoid=cWWDBGa7GIN9F0znkm03qw&cb_client=search.gws-prod.gps&w=408&h=240&yaw=58.582943&pitch=0&thumbfov=100,https://www.google.com/maps/search/?api=1&query=Fikal%20marga&query_place_id=ChIJ1yaqagAb6zkRI7L3OnNU6ko
सरकारी जग्गामा बनाएको टहरा,Park,Park,"P92P+R64, Mulpani-Gothatar Border, Kathmandu 44600, Nepal",Kathmandu,27.6999565,85.3818986,0.0,0,0,0,0,0,0,0.0,https://streetviewpixels-pa.googleapis.com/v1/thumbnail?panoid=15coNu3-wPppr6ngDaXQnw&cb_client=search.gws-prod.gps&w=408&h=240&yaw=272.65485&pitch=0&thumbfov=100,https://www.google.com/maps/search/?api=1&query=%E0%A4%B8%E0%A4%B0%E0%A4%95%E0%A4%BE%E0%A4%B0%E0%A5%80%20%E0%A4%9C%E0%A4%97%E0%A5%8D%E0%A4%97%E0%A4%BE%E0%A4%AE%E0%A4%BE%20%E0%A4%AC%E0%A4%A8%E0%A4%BE%E0%A4%8F%E0%A4%95%E0%A5%8B%20%E0%A4%9F%E0%A4%B9%E0%A4%B0%E0%A4%BE&query_place_id=ChIJxfw4cAAb6zkR_vLFNaonht4
PRATIVA TOLE,Park,Park,"M98C+JFF, Anantalingeshwar 44600, Nepal",Anantalingeshwar,27.6665529,85.3711802,4.1,8,0,0,0,0,0,0.0,https://streetviewpixels-pa.googleapis.com/v1/thumbnail?panoid=wqY6eBFpG86aolz3XVJObw&cb_client=search.gws-prod.gps&w=408&h=240&yaw=198.85907&pitch=0&thumbfov=100,https://www.google.com/maps/search/?api=1&query=PRATIVA%20TOLE&query_place_id=ChIJ1a3motUb6zkRw0uYqM6SPG4
Chautara,Park,Park,"M977+VXH, Anantalingeshwar 44600, Nepal",Anantalingeshwar,27.6646997,85.364993,0.0,0,0,0,0,0,0,168.0,https://streetviewpixels-pa.googleapis.com/v1/thumbnail?panoid=WKc6L1NteUiB3Y7TLGADTQ&cb_client=search.gws-prod.gps&w=408&h=240&yaw=278.25027&pitch=0&thumbfov=100,https://www.google.com/maps/search/?api=1&query=Chautara&query_place_id=ChIJ9enTRgAb6zkRUYw1XO6HcgI
Bal Udhyan,Park,Park,"MCHR+375, Bhaktapur 44800, Nepal",Bhaktapur,27.6776262,85.440731,0.0,0,0,0,0,0,0,0.0,https://streetviewpixels-pa.googleapis.com/v1/thumbnail?panoid=y2-Cv0w1kAzB6jioxxjOtQ&cb_client=search.gws-prod.gps&w=408&h=240&yaw=228.29234&pitch=0&thumbfov=100,https://www.google.com/maps/search/?api=1&query=Bal%20Udhyan&query_place_id=ChIJpy3eUQAF6zkRPK-jjB5-cVk
Sipdol सिपडोल,Park,Park,"MC28+QC9, Anantalingeshwar, Nepal",Anantalingeshwar,27.6519139,85.4161239,5.0,1,0,0,0,0,0,0.0,https://lh3.googleusercontent.com/gps-cs-s/AG0ilSzFxcNjeOTc1H0vC8LjEVHVitO-SM0q7lVnBVF29aOdQumY2KNHhQK7AkPOo0ua3HejkTkx2hLSBRI1jPDn4ITQa5EFf3VM2ZWaees6xtsR73RE8QLvge9lIcKRvniWAb4c-pIg56i-lnFt=w408-h544-k-no,https://www.google.com/maps/search/?api=1&query=Sipdol%20%E0%A4%B8%E0%A4%BF%E0%A4%AA%E0%A4%A1%E0%A5%8B%E0%A4%B2&query_place_id=ChIJN4dGKAAR6zkR5oBfE2rwux8
सितलमाईको रूख,Park,Park,"MC38+3QG, Anantalingeshwar, Nepal",Anantalingeshwar,27.6526807,85.4169678,0.0,0,0,0,0,0,0,0.0,https://streetviewpixels-pa.googleapis.com/v1/thumbnail?panoid=cWGcYx19OFb-sK8kitScIg&cb_client=search.gws-prod.gps&w=408&h=240&yaw=262.91858&pitch=0&thumbfov=100,https://www.google.com/maps/search/?api=1&query=%E0%A4%B8%E0%A4%BF%E0%A4%A4%E0%A4%B2%E0%A4%AE%E0%A4%BE%E0%A4%88%E0%A4%95%E0%A5%8B%20%E0%A4%B0%E0%A5%82%E0%A4%96&query_place_id=ChIJ3cLGdwAR6zkRxo9aa4b1j5o
Tappa danfo,Park,Park,"MFJ3+RCJ, Mahamanjushree Nagarkot, Nepal",Mahamanjushree Nagarkot,27.6820777,85.4535139,4.5,2,0,0,0,0,0,0.0,https://lh3.googleusercontent.com/gps-cs-s/AG0ilSwKg57RJosroNnFpaWXmOIAnZx6-bK1cy_5Yzqk9dKZRhuMUtpclNjHy5Pct2XzH9KgPV6-fTpvC5G7kxCZkOL0bw-Wzgepnnt4dQvfnuHnTThwRJrLYGLodK-_zEoKU7T3DO2EEA=w408-h306-k-no,https://www.google.com/maps/search/?api=1&query=Tappa%20danfo&query_place_id=ChIJPVrxzTgF6zkRiAWCQPG5w7E
Baniya Danda Naya Basti,Park,Park,"Bhaktapur, Nepal",Bhaktapur,27.6843543,85.4622264,5.0,3,0,0,0,0,0,0.0,https://lh3.googleusercontent.com/gps-cs-s/AG0ilSxxdxVjkETja9ngjESmDuto5ECuCfa7rm6nfrL1vtVG2yvLsXy64sQKYNw9ukdiUT3BDtFXCN5KmwcnjE7x44tbxTNX8y5c1zkYjQtLA-USrhdlfpV7Gtrf6AZ_558cCdXzFWe90Q=w408-h306-k-no,https://www.google.com/maps/search/?api=1&query=Baniya%20Danda%20Naya%20Basti&query_place_id=ChIJ2_Ynl-MF6zkR6uV9Isb2GBw
Gurungtar (गुरुङटार),Park,Park,"MFRF+HGQ, Mahamanjushree Nagarkot, Nepal",Mahamanjushree Nagarkot,27.6916016,85.4739084,5.0,2,0,0,0,0,0,0.0,https://lh3.googleusercontent.com/gps-cs-s/AG0ilSxuk90I_8LG-f1k3Aw0ZT30I74bKNjoAIwzZma8oBKFG3AaouJmQ6N7v07BkAvu6JGY0Amg95uoKY6hknzi95JUI6P7E9ODi5h2EGNfKbVLpRaJ1ofVN5DOuh9MGR54qgzWl98dUg=w408-h544-k-no,https://www.google.com/maps/search/?api=1&query=Gurungtar%20(%E0%A4%97%E0%A5%81%E0%A4%B0%E0%A5%81%E0%A4%99%E0%A4%9F%E0%A4%BE%E0%A4%B0)&query_place_id=ChIJbSrSFwAF6zkRw-s7XJcom1Y
गाँखु पार्क Gankhu park,Park,Park,"M9MW+VPC, height 44811, Nepal",height,27.6846886,85.3967812,0.0,0,0,0,0,0,0,0.0,https://streetviewpixels-pa.googleapis.com/v1/thumbnail?panoid=n2Q-Xh94c35ZFvTPWQW-fw&cb_client=search.gws-prod.gps&w=408&h=240&yaw=151.28159&pitch=0&thumbfov=100,https://www.google.com/maps/search/?api=1&query=%E0%A4%97%E0%A4%BE%E0%A4%81%E0%A4%96%E0%A5%81%20%E0%A4%AA%E0%A4%BE%E0%A4%B0%E0%A5%8D%E0%A4%95%20Gankhu%20park&query_place_id=ChIJRxHWSk4b6zkRyBm18YijUig
Kamerotar Big ground,Park,Park,"M9JQ+CP9, Madhyapur Thimi 44600, Nepal",Madhyapur Thimi,27.6810332,85.3893729,0.0,0,0,0,0,0,0,0.0,https://streetviewpixels-pa.googleapis.com/v1/thumbnail?panoid=KcsXDsqfXafPtmAeG-1TRQ&cb_client=search.gws-prod.gps&w=408&h=240&yaw=318.33862&pitch=0&thumbfov=100,https://www.google.com/maps/search/?api=1&query=Kamerotar%20Big%20ground&query_place_id=ChIJN-ZJbAAb6zkRmGSthSn2imc
prem love dada,Park,Park,"M9HM+WG3, Madhyapur Thimi 44600, Nepal",Madhyapur Thimi,27.6797515,85.3838056,0.0,0,0,0,0,0,0,0.0,,https://www.google.com/maps/search/?api=1&query=prem%20love%20dada&query_place_id=ChIJeViw-Dcb6zkRqvPtChSJwQo
B.p. children park madhyapur thimi - 1 lokanthali Bhaktapur,Park,Park,"M9HJ+78F, Madhyapur Thimi 44600, Nepal",Madhyapur Thimi,27.6781812,85.3807886,0.0,0,0,0,0,0,0,0.0,https://lh3.googleusercontent.com/gps-cs-s/AG0ilSzW2X8BmvCaNLwkLkm3xdGbfx9pqsNxGVY80Wv8KhsY20nRQLakDOJiuaOct_vF6eRF8sSlTS2KrpUUPPoICWEagGSqpoVhJaJzHI--qiyqegXK70Z-XGcodB9CWI1T_FLU2IyY=w408-h905-k-no,https://www.google.com/maps/search/?api=1&query=B.p.%20children%20park%20madhyapur%20thimi%20-%201%20lokanthali%20Bhaktapur&query_place_id=ChIJp90wJxYb6zkR3eS8OodCoFA
Shanti yog kendra (Jalkhu Taa:),Park,Park,"M9HQ+X8C, Madhyapur Thimi 44600, Nepal",Madhyapur Thimi,27.6796767,85.3881793,0.0,0,0,0,0,0,0,0.0,https://streetviewpixels-pa.googleapis.com/v1/thumbnail?panoid=LeGY_sRiG-eqruKuX3wz3A&cb_client=search.gws-prod.gps&w=408&h=240&yaw=99.67539&pitch=0&thumbfov=100,https://www.google.com/maps/search/?api=1&query=Shanti%20yog%20kendra%20(Jalkhu%20Taa%3A)&query_place_id=ChIJx-pw544b6zkR_NV_5_hYmK4
Namuna Bishram chwok,Park,Park,"M9GJ+W75, Madhyapur Thimi 44600, Nepal",Madhyapur Thimi,27.6776043,85.3809266,4.5,2,0,0,0,1,1,0.0,https://lh3.googleusercontent.com/gps-cs-s/AG0ilSxkmDXHbrS9zThlL6h-408I9f4mcnFCKeVsZ60YqiXm6eZmkuEYjI6O_0uK1Lrii3Z1wefIg1n90mYiyPrMHKMzfNcksbuaOKj3CQUmAgzODEtW9Axdg4vSxUCUHpTS-kmZawPWFm9b1Xbu=w408-h725-k-no,https://www.google.com/maps/search/?api=1&query=Namuna%20Bishram%20chwok&query_place_id=ChIJf7oQPAAb6zkR8UvczVdkOAY
Kunauta,Park,Park,"MFV2+RMG, Chhaling Road, Changunarayan, Nepal",Changunarayan,27.6948312,85.4515733,0.0,0,0,0,0,0,0,0.0,https://streetviewpixels-pa.googleapis.com/v1/thumbnail?panoid=lkA6i4yEwkBTbWBWH_8M8g&cb_client=search.gws-prod.gps&w=408&h=240&yaw=278.89682&pitch=0&thumbfov=100,https://www.google.com/maps/search/?api=1&query=Kunauta&query_place_id=ChIJm3sXbgAF6zkRwsl9oHRr53A
Bachamari loha hiti ( bachamari dhungedhara),Park,Park,"MC7V+673, Araniko Highway, Bhaktapur 44800, Nepal",Bhaktapur,27.6630143,85.4431778,5.0,2,0,0,0,0,0,0.0,https://lh3.googleusercontent.com/gps-cs-s/AG0ilSxUi9rPXyrGoKk2oEB-v3j67OMpMxRCmTGppGFwpH5Ijoh7n4HAbIwUdVpPBxGAZR_3H8x5taxTrVD9B3PNMhIb3h9SztP6XM5ESZWIa1MwdiO3sxbQ_kwOjUVVrpuUT9h_2-hi=w408-h306-k-no,https://www.google.com/maps/search/?api=1&query=Bachamari%20loha%20hiti%20(%20bachamari%20dhungedhara)&query_place_id=ChIJ2xBKcRgF6zkRugQBTLrjnKU
Hadibel ko bot,Park,Park,"JCQ8+6FV, Ghyampe Danda Sadak, Anantalingeshwar, Nepal",Anantalingeshwar,27.6382955,85.4162087,5.0,1,0,0,0,0,0,0.0,https://streetviewpixels-pa.googleapis.com/v1/thumbnail?panoid=ffBhGpdrvMVj307RiVn3fg&cb_client=search.gws-prod.gps&w=408&h=240&yaw=232.83008&pitch=0&thumbfov=100,https://www.google.com/maps/search/?api=1&query=Hadibel%20ko%20bot&query_place_id=ChIJdcKnNQAR6zkRz58rMTTa21I
Pokhari,Park,Park,"JCP9+9C3, Ghyampe Danda Sadak, Anantalingeshwar, Nepal",Anantalingeshwar,27.6352828,85.4171069,0.0,0,0,0,0,0,0,0.0,https://streetviewpixels-pa.googleapis.com/v1/thumbnail?panoid=NhrmOIIhF43ptRL4X6bDsg&cb_client=search.gws-prod.gps&w=408&h=240&yaw=251.88446&pitch=0&thumbfov=100,https://www.google.com/maps/search/?api=1&query=Pokhari&query_place_id=ChIJZ15daQAR6zkRHavHFnBje9A
NZG Ghyampedada,Park,Park,"Ranikot Rd, Suryabinayak, Nepal",Suryabinayak,27.634471,85.4291682,4.4,36,0,0,6,10,20,0.0,https://lh3.googleusercontent.com/gps-cs-s/AG0ilSwC0ZtmecM7sMChDsG0MaAxDxSHuEfB2A-rzjz9w35Pdhs0-4xBNRz4uptehTZsIU9Kd2_ToZM2dEpnDkJn5anuLDS2VhczRcBouFKWeTjhlD1-MByI1pbGohu8rnr3TtXc7KM7eQ=w520-h240-k-no,https://www.google.com/maps/search/?api=1&query=NZG%20Ghyampedada&query_place_id=ChIJQzocUxkR6zkRMt3lo1g8qcs
Baagh bagaicha,Park,Park,"M9XG+77F, Kageshwori Manohara 44600, Nepal",Kageshwori Manohara,27.6981947,85.3756685,5.0,2,0,0,0,0,0,120.0,https://lh3.googleusercontent.com/gps-cs-s/AG0ilSw-QSqOUOb4CzhkHeHDlYmXA5xcveHtQLrnaox6y9e1txstUoRIpY8p11anmHbbY-OO1aKOLny8arwOaahAOXhG4-s_v73752OP4WRt7MXyocjfdmqOWJFxPRudF7vQNlyB6ICXAQ=w408-h883-k-no,https://www.google.com/maps/search/?api=1&query=Baagh%20bagaicha&query_place_id=ChIJB0QKJgAb6zkRHY7PlFF9aag
अर्जुन चौतारी,Park,Park,"Unnamed Road, Kathmandu 44600, Nepal",Kageshwori Manohara,27.6976861,85.3754348,4.0,2,0,0,0,0,0,168.0,https://streetviewpixels-pa.googleapis.com/v1/thumbnail?panoid=XUO0BXdfikW-plWyoVba0Q&cb_client=search.gws-prod.gps&w=408&h=240&yaw=287.41498&pitch=0&thumbfov=100,https://www.google.com/maps/search/?api=1&query=%E0%A4%85%E0%A4%B0%E0%A5%8D%E0%A4%9C%E0%A5%81%E0%A4%A8%20%E0%A4%9A%E0%A5%8C%E0%A4%A4%E0%A4%BE%E0%A4%B0%E0%A5%80&query_place_id=ChIJNet9OLwb6zkRsMSy9z5o2Jw
Pipal bot,Park,Park,"MFRC+F5P, Mahamanjushree Nagarkot, Nepal",Mahamanjushree Nagarkot,27.6912207,85.4704671,5.0,1,0,0,0,0,0,0.0,https://lh3.googleusercontent.com/gps-cs-s/AG0ilSw5lRwaOpnRyspFNpygI_VBJ7sObSbpa4iWoj9iwHAeBlX_yqBnXvYC81B1wm3Z-ue-ezEAhL6s18htivgpqOurXWucYcg0XiNg1b-0VUTe-S3VhTBDBsuzg0sG5cUQLqoPgAst9WYq_kbo=w408-h272-k-no,https://www.google.com/maps/search/?api=1&query=Pipal%20bot&query_place_id=ChIJGbMFLAAF6zkRaksWSWj1a2c
Bhanjyang,Park,Park,"MFQC+JC7, Mahamanjushree Nagarkot, Nepal",Mahamanjushree Nagarkot,27.6890461,85.4710535,5.0,1,0,0,0,0,0,0.0,https://streetviewpixels-pa.googleapis.com/v1/thumbnail?panoid=9hAubuFpBGa-9aKfn0EDCg&cb_client=search.gws-prod.gps&w=408&h=240&yaw=37.823124&pitch=0&thumbfov=100,https://www.google.com/maps/search/?api=1&query=Bhanjyang&query_place_id=ChIJpSMfcd0F6zkRI8vbdI8lCUs
Thulo Dhunga,Park,Park,"MFP8+WM9, Dandagaun, Nepal",Dandagaun,27.6872781,85.4667238,5.0,1,0,0,0,0,1,0.0,https://streetviewpixels-pa.googleapis.com/v1/thumbnail?panoid=gX6Ms6kcPRbQb2qfvyuZtw&cb_client=search.gws-prod.gps&w=408&h=240&yaw=132.82005&pitch=0&thumbfov=100,https://www.google.com/maps/search/?api=1&query=Thulo%20Dhunga&query_place_id=ChIJTybVbQAF6zkRVa8Aa_9_opM
Poudeldada,Park,Park,"Changunarayan 44600, Nepal",Changunarayan,27.7086301,85.4413903,5.0,4,0,0,0,0,0,168.0,https://lh3.googleusercontent.com/p/AF1QipO4sSb2rEbq_E9n6zDF99hsvVNV74fWD-hNnmf-=w408-h306-k-no,https://www.google.com/maps/search/?api=1&query=Poudeldada&query_place_id=ChIJUV0-Q0UF6zkRawQ3GWScrkU
बर पिपल,Park,Park,"PC4Q+GW8 Ghumti Ghar Bus Stop, Changunarayan Rd, Changunarayan 44600, Nepal",Changunarayan,27.7062849,85.4398149,4.4,5,0,0,0,0,0,168.0,https://lh3.googleusercontent.com/gps-cs-s/AG0ilSxhpeTrzuaXBVsG-d8TACDcedfo5PsO5g98XpGnUBSAeFZZSGunNKZGtn0_s1y7sZ4YVaFRm-vapAVFj6pc5oOmYsygF5xDAtreUBsNboT3APVf2AO2uyIa8vEGYx4T3jT3P_0=w408-h544-k-no,https://www.google.com/maps/search/?api=1&query=%E0%A4%AC%E0%A4%B0%20%E0%A4%AA%E0%A4%BF%E0%A4%AA%E0%A4%B2&query_place_id=ChIJf-UPy18F6zkR5IpPIy8imdA
Sunset Point,Park,Park,"PC5R+782, Changunarayan 44600, Nepal",Changunarayan,27.7085479,85.4410882,0.0,0,0,0,0,0,0,0.0,https://streetviewpixels-pa.googleapis.com/v1/thumbnail?panoid=q3A19rcV_257TSylZTr1ow&cb_client=search.gws-prod.gps&w=408&h=240&yaw=202.73814&pitch=0&thumbfov=100,https://www.google.com/maps/search/?api=1&query=Sunset%20Point&query_place_id=ChIJ6aNsbAAF6zkRvfytBsKYWnA
Huchidhunga Pakha,Park,Park,"PC5R+782, Changunarayan 44600, Nepal",Changunarayan,27.7081258,85.4410507,0.0,0,0,0,0,0,0,0.0,https://streetviewpixels-pa.googleapis.com/v1/thumbnail?panoid=npBAuWLqjxDOJF3N6hjJhA&cb_client=search.gws-prod.gps&w=408&h=240&yaw=356.31906&pitch=0&thumbfov=100,https://www.google.com/maps/search/?api=1&query=Huchidhunga%20Pakha&query_place_id=ChIJa7glGQAF6zkRhwZ-PNHf8pE
Simko Chowr,Park,Park,"PF32+F9, Changunarayan, Nepal",Changunarayan,27.703578,85.4512803,0.0,0,0,0,0,0,0,0.0,https://lh3.googleusercontent.com/gps-cs-s/AG0ilSz6TKFi9JYTvtT7qjNEqyNCF3JgtIn7m8C4bJ4M1VJni3Y78HlF5FTFBJL3QUdfSUivV4nqvJ7u0mAkQq9Kzrml5J88y8jyqCGzv3Lb2d3YLTlkhJnRUibT36x0lBmIE6dahVE=w408-h306-k-no,https://www.google.com/maps/search/?api=1&query=Simko%20Chowr&query_place_id=ChIJ-fPHCAAF6zkRp9mnGYtMYj4
Indra dhara,Park,Park,"MFQ4+HP9, Bansbari Bus Stop, Changunarayan, Nepal",Changunarayan,27.6889125,85.4568526,4.5,2,0,0,0,0,0,0.0,https://streetviewpixels-pa.googleapis.com/v1/thumbnail?panoid=pCKym2KUDRpbwJy3rUI2ag&cb_client=search.gws-prod.gps&w=408&h=240&yaw=212.93549&pitch=0&thumbfov=100,https://www.google.com/maps/search/?api=1&query=Indra%20dhara&query_place_id=ChIJsVrioZUF6zkRYjKcJUIK_NE
Kage dada,Park,Park,"M9FM+PJ3, Madhyapur Thimi 44600, Nepal",Madhyapur Thimi,27.6741123,85.384248,5.0,1,0,0,0,0,1,0.0,https://lh3.googleusercontent.com/gps-cs-s/AG0ilSxK8mkFJSbm-L_K314rO3jwlLvSG-hDFK99EUwZ2vOyPt72ZAjv2mQyGzEi8GPzHp7p_Eaw1e6uaTuo97ElBj5e5QT5DWom81NFQH3tVyPRAZGJW9RI1HZ7ZaWt69MH6PFeQ6-waw=w408-h306-k-no,https://www.google.com/maps/search/?api=1&query=Kage%20dada&query_place_id=ChIJLTRP-m0b6zkRQ34hL5oaHhI
Oli room,Park,Park,"M9FP+65P, Madhyapur Thimi, Nepal",Madhyapur Thimi,27.6730792,85.3854649,0.0,0,0,0,0,0,0,0.0,https://streetviewpixels-pa.googleapis.com/v1/thumbnail?panoid=CZ4uUzjnk89P552lbFBYKQ&cb_client=search.gws-prod.gps&w=408&h=240&yaw=162.63766&pitch=0&thumbfov=100,https://www.google.com/maps/search/?api=1&query=Oli%20room&query_place_id=ChIJcRZ0FwAb6zkRRzCw-fnLkiU
हात्तिडाँडा प्रवेश द्वार,Park,Park,"M9X9+X3H, Kageshwori Manohara 44600, Nepal",Kageshwori Manohara,27.699931,85.3678539,4.4,5,0,1,0,0,4,0.0,https://lh3.googleusercontent.com/gps-cs-s/AG0ilSxKQd2gFVsweoDm3rHoNi-G2LBPZttOyVZJD0YthKjmD_ctu-fRxcnoOKSf2hQKpGBQXOM6sFGsNqv4R04b1VrmG03Pd5zYroEj-WeM03bnD1KN_VmTSGqEqg3s9YANbcm7hvw=w408-h305-k-no,https://www.google.com/maps/search/?api=1&query=%E0%A4%B9%E0%A4%BE%E0%A4%A4%E0%A5%8D%E0%A4%A4%E0%A4%BF%E0%A4%A1%E0%A4%BE%E0%A4%81%E0%A4%A1%E0%A4%BE%20%E0%A4%AA%E0%A5%8D%E0%A4%B0%E0%A4%B5%E0%A5%87%E0%A4%B6%20%E0%A4%A6%E0%A5%8D%E0%A4%B5%E0%A4%BE%E0%A4%B0&query_place_id=ChIJvXShbwAb6zkRvf80KM1CLiY
Airport View Point,Park,Park,"P928+2C7, Kathmandu 44600, Nepal",Kathmandu,27.7000253,85.366056,0.0,0,0,0,0,0,0,0.0,https://lh3.googleusercontent.com/gps-cs-s/AG0ilSwRht_EHVep2f_p1zySkq_Ts-VoYV7Y9yAvTvFHUkYw1RjSC0D6m45nWp06Y__1_uXlgRSjxDRoq7isBVfHfPbZ3vVwFE15oXeO6w5ktYRzGCf-oBUxrM7CE0dqZr5_76FCbOUN9d0hPqdM=w408-h544-k-no,https://www.google.com/maps/search/?api=1&query=Airport%20View%20Point&query_place_id=ChIJO6VCVAAb6zkRlV_MVToIj4c
Baje ko nilo pull,Park,Park,"MCH7+FHM, Bhaktapur 44800, Nepal",Bhaktapur,27.678707,85.4139235,0.0,0,0,0,0,0,0,0.0,https://streetviewpixels-pa.googleapis.com/v1/thumbnail?panoid=Gj6bcY9Xg_iixiFaFOBAiw&cb_client=search.gws-prod.gps&w=408&h=240&yaw=7.558003&pitch=0&thumbfov=100,https://www.google.com/maps/search/?api=1&query=Baje%20ko%20nilo%20pull&query_place_id=ChIJhb43fgAb6zkR4GisGYpdtUg
Suryabinayak Forest,Park,Park,"JCXF+G8X, Anantalingeshwar, Nepal",Anantalingeshwar,27.6488583,85.4233708,0.0,0,0,0,0,0,0,0.0,,https://www.google.com/maps/search/?api=1&query=Suryabinayak%20Forest&query_place_id=ChIJAQAAwBEQ6zkRp5J-uhc6h_8
Libali Ground,Park,Park,"MCFR+2WQ, Bhaktapur 44800, Nepal",Bhaktapur,27.672589,85.4423737,5.0,3,0,0,0,0,0,0.0,https://lh3.googleusercontent.com/gps-cs-s/AG0ilSyg9R4wk45J2Df6_w-vdpVvWPkmZJNSbZdeQxHN1Y5TsysLttmxgoTJy5cEKbmzZVy-yr5DW5gCJIybkLU15NBSR-sEyKT4_n4xjRchYnm6xqQjPVdVfZYN8JRXDsHJFo9lvwWc=w408-h725-k-no,https://www.google.com/maps/search/?api=1&query=Libali%20Ground&query_place_id=ChIJT_kfIwAF6zkRmIHQo1bwpc0
जेष्ठनागरिक पार्क,Park,Park,"PC73+88, Kageshwori Manohara 44600, Nepal",Kageshwori Manohara,27.7134647,85.4035343,4.5,2,0,0,0,1,1,0.0,https://streetviewpixels-pa.googleapis.com/v1/thumbnail?panoid=leQzCFBKt9d_uY78jJVTMQ&cb_client=search.gws-prod.gps&w=408&h=240&yaw=64.96414&pitch=0&thumbfov=100,https://www.google.com/maps/search/?api=1&query=%E0%A4%9C%E0%A5%87%E0%A4%B7%E0%A5%8D%E0%A4%A0%E0%A4%A8%E0%A4%BE%E0%A4%97%E0%A4%B0%E0%A4%BF%E0%A4%95%20%E0%A4%AA%E0%A4%BE%E0%A4%B0%E0%A5%8D%E0%A4%95&query_place_id=ChIJt9E7eAAb6zkRCVTqvihpQBE
Forcepark,Park,Park,"P92H+HH3, Kageshwori Manohara 44600, Nepal",Kageshwori Manohara,27.7015702,85.3788932,4.0,9,0,0,0,0,0,0.0,https://streetviewpixels-pa.googleapis.com/v1/thumbnail?panoid=TWTSuuIZ-cxzdSsnIsTuGQ&cb_client=search.gws-prod.gps&w=408&h=240&yaw=60.119457&pitch=0&thumbfov=100,https://www.google.com/maps/search/?api=1&query=Forcepark&query_place_id=ChIJK-3ILgAb6zkRF9xoj64hWGw
Chiplegauda Chock,Park,Park,"P92J+J8M, Kageshwori Manohara 44600, Nepal",Kageshwori Manohara,27.7015916,85.3807886,5.0,1,0,0,0,0,0,0.0,https://streetviewpixels-pa.googleapis.com/v1/thumbnail?panoid=pS79C_Nh6NHzLvq_rGSc7Q&cb_client=search.gws-prod.gps&w=408&h=240&yaw=350.27304&pitch=0&thumbfov=100,https://www.google.com/maps/search/?api=1&query=Chiplegauda%20Chock&query_place_id=ChIJ5x3tGgAb6zkRJ4dV7NsrlX8
Kamal pokhari,Park,Park,"MCGQ+RHM, Kamal Pokhari Path, Bhaktapur 44800, Nepal",Bhaktapur,27.6768477,85.4384818,4.4,22,0,0,0,0,0,168.0,https://lh3.googleusercontent.com/gps-cs-s/AG0ilSzLvVjgZZvXfS97a4A22VK6CIXCuwgWsAv1YYFfUOe321Ch7B0KBbI1a3RCua1v5CJxB1G13EWGiCpanK-ZfaUiobwLubXVSEhqL0xOeQ73Gs5_pi7C7082qh_LaKXm8yry9DJeJw=w919-h240-k-no,https://www.google.com/maps/search/?api=1&query=Kamal%20pokhari&query_place_id=ChIJsU0Ub3MF6zkRbODUdlSvR6o
Purushotam Yadav,Park,Park,"MC94+JVF, Sallaghari, Suryabinayak 44800, Nepal",Suryabinayak,27.6690657,85.4071678,0.0,0,0,0,0,0,0,0.0,https://streetviewpixels-pa.googleapis.com/v1/thumbnail?panoid=4fcKTmOr21_BZS1w9OSqmw&cb_client=search.gws-prod.gps&w=408&h=240&yaw=77.57991&pitch=0&thumbfov=100,https://www.google.com/maps/search/?api=1&query=Purushotam%20Yadav&query_place_id=ChIJGcbNWQAb6zkRrnbu9zMgrQY
Inacho ईनाचो,Park,Park,"MCCP+H2X, Bhaktapur 44800, Nepal",Bhaktapur,27.6714803,85.4351233,4.2,103,0,0,0,0,0,69.0,https://lh3.googleusercontent.com/gps-cs-s/AG0ilSxoYegduNT2dT7frt1CyRfDBWngVxr6VMqArU_U_8ERgMXWXCOM9NJeEzaXOeLNZbk9K3z35ABJRcFeijk8GEqTdvAN6Eu0RHRcdsZFK2LC7ucnNiG9iFZvVKVUgkkjyhH7h5N2OA=w438-h240-k-no,https://www.google.com/maps/search/?api=1&query=Inacho%20%E0%A4%88%E0%A4%A8%E0%A4%BE%E0%A4%9A%E0%A5%8B&query_place_id=ChIJsVsqvK0a6zkRTdj6abtxfsw
"Tinkune, Sallahghari",Park,Park,"MCC5+PFQ, Araniko Highway, Bhaktapur 44800, Nepal",Bhaktapur,27.6718365,85.4087369,0.0,0,0,0,0,0,0,0.0,https://streetviewpixels-pa.googleapis.com/v1/thumbnail?panoid=Bf85HIEApmq7NTJHjx56Xw&cb_client=search.gws-prod.gps&w=408&h=240&yaw=28.985867&pitch=0&thumbfov=100,https://www.google.com/maps/search/?api=1&query=Tinkune%2C%20Sallahghari&query_place_id=ChIJq6rajJoa6zkR1stnspwd-5o
Shahid udyan,Park,Park,"MCCH+CW4 Smriti Nagar, Bhaktapur 44800, Nepal",Bhaktapur,27.6710221,85.4298197,0.0,0,0,0,0,0,0,56.0,https://streetviewpixels-pa.googleapis.com/v1/thumbnail?panoid=nLq8QKi__V8OqYrwsXe4Uw&cb_client=search.gws-prod.gps&w=408&h=240&yaw=206.03722&pitch=0&thumbfov=100,https://www.google.com/maps/search/?api=1&query=Shahid%20udyan&query_place_id=ChIJcSDDMyIb6zkRA7psFhz8uXw
गणेश चौतारी Ganesh Choutari,Park,Park,"MCF4+F48, Unnamed Road, Bhaktapur 44800, Nepal",Bhaktapur,27.6736737,85.4054584,4.4,5,0,0,0,0,0,168.0,https://lh3.googleusercontent.com/gps-cs-s/AG0ilSxdiW9ZPDV3PBErC3yWRm83gEbzP77iC5W9e2EDlaaJmdMwq43LvuP_tAtolbvqVgAmFRxU-g9lr9yZcxMios1ymRvqeYYdl83HVYI4f0XPLQGJNmxRc3a73L4_AEj7Sd8t9wL8=w426-h240-k-no,https://www.google.com/maps/search/?api=1&query=%E0%A4%97%E0%A4%A3%E0%A5%87%E0%A4%B6%20%E0%A4%9A%E0%A5%8C%E0%A4%A4%E0%A4%BE%E0%A4%B0%E0%A5%80%20Ganesh%20Choutari&query_place_id=ChIJXSMOozYb6zkR7ZwYDiK51Ng
"District Administration Office, Bhaktapur",District office,District office,"Durbar Square, Bhaktapur 44800, Nepal",Bhaktapur,27.6732718,85.4280304,4.3,16,0,3,0,3,10,35.0,https://lh3.googleusercontent.com/gps-cs-s/AG0ilSwGwmxsS8GL6esZOG2O2Q0IIVLsPIkwnr5_ZJJdQqNyGom3JTJjewSntuUCl8bU6CmtmLfg0ld0IlqxbQ7IYRD8oYFg6BnopWVqEfzJNnv64vaVK5MQ7rOqxL6_NxYZH86TdtlI5g=w426-h240-k-no,https://www.google.com/maps/search/?api=1&query=District%20Administration%20Office%2C%20Bhaktapur&query_place_id=ChIJ26Wv6hQb6zkRo4YA94IcNZA
Khyo Pond ख्याे: पुखुचा,Water park,Water park,"MCGJ+JHM ख: पुखुचा, Bhaktapur 44800, Nepal",Bhaktapur,27.6765903,85.4314363,4.0,22,3,0,1,7,11,0.0,https://lh3.googleusercontent.com/gps-cs-s/AG0ilSxTDn_72VVW8O97jiNX_CFz7AiFXVtulJxlTXoVz-8TF9tE6XxA66taTb3aBAJh82PpDHwB5ytoNKbZVO7dFlTDEYau2a20zcQSpR_Ztlcio01mvlGJbYJfua4dOfv0YfgdnIe4=w408-h572-k-no,https://www.google.com/maps/search/?api=1&query=Khyo%20Pond%20%E0%A4%96%E0%A5%8D%E0%A4%AF%E0%A4%BE%E0%A5%87%3A%20%E0%A4%AA%E0%A5%81%E0%A4%96%E0%A5%81%E0%A4%9A%E0%A4%BE&query_place_id=ChIJIZo7n7Ea6zkRWt6xT1KfaEE
माथिल्लो पँधेरो,Water park,Water park,"MC28+67J, Anantalingeshwar, Nepal",Anantalingeshwar,27.650581,85.4156341,0.0,0,0,0,0,0,0,0.0,https://streetviewpixels-pa.googleapis.com/v1/thumbnail?panoid=h-KglotDanKw3AegsWtvFQ&cb_client=search.gws-prod.gps&w=408&h=240&yaw=179.98582&pitch=0&thumbfov=100,https://www.google.com/maps/search/?api=1&query=%E0%A4%AE%E0%A4%BE%E0%A4%A5%E0%A4%BF%E0%A4%B2%E0%A5%8D%E0%A4%B2%E0%A5%8B%20%E0%A4%AA%E0%A4%81%E0%A4%A7%E0%A5%87%E0%A4%B0%E0%A5%8B&query_place_id=ChIJC4RKFAAR6zkRpl_zYDYrsgI
Bhajya Pokhari भाज्य पाेखरी,Water park,Water park,"MCCC+89C Bhajya Pukhu Coffee, Bhaktapur 44800, Nepal",Bhaktapur,27.6708137,85.4208885,4.6,26,0,0,1,9,16,0.0,https://lh3.googleusercontent.com/gps-cs-s/AG0ilSwg66MuTHfscCcMXiiLDj5V9t3fFQSvC8KgTwUKb82c9qg4NL6pf6yuQauRfS58mSfRnWBDAicQrPcmyl_MdVdPBEYzH8Svc5ajAcb7cpEs4cV7AnFxdeq_CQ_pMI60gL3MRWcCig=w408-h272-k-no,https://www.google.com/maps/search/?api=1&query=Bhajya%20Pokhari%20%E0%A4%AD%E0%A4%BE%E0%A4%9C%E0%A5%8D%E0%A4%AF%20%E0%A4%AA%E0%A4%BE%E0%A5%87%E0%A4%96%E0%A4%B0%E0%A5%80&query_place_id=ChIJzx3IXzMb6zkR2pTnR4X02M4
Kathmandu Fun Valley,Water park,Water park,"अरनिको राजमार्ग Bhaktapur, Bhaktapur Araniko Highway, Suryabinayak 44805, Nepal",Suryabinayak,27.6467707,85.4670261,3.8,849,74,49,161,215,350,63.0,https://lh3.googleusercontent.com/p/AF1QipNCC_FEEI9WADLnNrHL2xppVElm4W2bW-UlPntx=w426-h240-k-no,https://www.google.com/maps/search/?api=1&query=Kathmandu%20Fun%20Valley&query_place_id=ChIJcy5iv5AP6zkRdS-eLyrmnTE
Gohi Dhara,Water park,Water park,"MC7R+RQ6, Bhaktapur 44800, Nepal",Bhaktapur,27.6645462,85.4418845,4.0,1,0,0,0,1,0,0.0,https://lh3.googleusercontent.com/gps-cs-s/AG0ilSxpYoijp-8keV-ORJk0rkxNfhBgvkxKfK7q7v3GHCUMlI6cN5IAJTyOY7IPwj5Vaximoohb42m97dSM9F0q4pvKVOCADGzaDAEPjq6Xy6HREt9ZxQpVMDkviPgbFZIcKOc98f71=w408-h544-k-no,https://www.google.com/maps/search/?api=1&query=Gohi%20Dhara&query_place_id=ChIJrxCmXtAF6zkRy4AjCn4O3SU
Tala dhara,Water park,Water park,"MF38+V3, Suryabinayak, Nepal",Suryabinayak,27.6552385,85.466075,0.0,0,0,0,0,0,0,0.0,https://streetviewpixels-pa.googleapis.com/v1/thumbnail?panoid=x3KbHe3QseMMnaOWkb7j0g&cb_client=search.gws-prod.gps&w=408&h=240&yaw=330.73026&pitch=0&thumbfov=100,https://www.google.com/maps/search/?api=1&query=Tala%20dhara&query_place_id=ChIJ7Qo6_T0P6zkRuGqRywGkcXY
Gaahiti Stone Spout,Water park,Water park,"MCCM+444, Bhaktapur 44800, Nepal",Bhaktapur,27.6702519,85.4328321,4.5,2,0,0,0,1,1,0.0,https://lh3.googleusercontent.com/gps-cs-s/AG0ilSwUiO889FRDZrtQVtF7HwckgaGB1gE0UEe6b1soWUq8ZxB3u461cHzc2nY19BntP2GwpvG8FDWyTF89raSVyheOVb9RqNKCC-Z_5U8Qk-8emjOsN9c7Z_c1v6viPZIo6iFA2Xy-=w408-h544-k-no,https://www.google.com/maps/search/?api=1&query=Gaahiti%20Stone%20Spout&query_place_id=ChIJoxdWOawa6zkRBcBFnR1WegQ
Bhaktapur Municipality - Ward Office No. 4,Federal government office,Federal government office,"MC9H+W75, बोलाछें सडक, Bhaktapur 44800, Nepal",Bhaktapur,27.669768,85.4282269,3.5,2,0,0,0,0,0,42.0,https://lh3.googleusercontent.com/gps-cs-s/AG0ilSx63hvYS0UHHr4XoRMW1iPOYiNiD7QcN5abVSzaS0WgRrXubSjNQYKstQCrWDbnyT-mJtVh-wnKbD3x4GnW-Xk3f08UT1q3F8Wdu40M3lFAx-XpEC95AYY-LXrV-m80U03G9_Q=w426-h240-k-no,https://www.google.com/maps/search/?api=1&query=Bhaktapur%20Municipality%20-%20Ward%20Office%20No.%204&query_place_id=ChIJZYHea68a6zkRc1wrS6qaq9g
District Treasury Comptroller Office(को.ले. नि.का),Federal government office,Federal government office,"Unnamed Road, Suryabinayak, Nepal",Suryabinayak,27.6676745,85.4040577,0.0,0,0,0,0,0,0,35.0,https://streetviewpixels-pa.googleapis.com/v1/thumbnail?panoid=9mlvL-ktEJX-4m3THgTkkQ&cb_client=search.gws-prod.gps&w=408&h=240&yaw=345.551&pitch=0&thumbfov=100,https://www.google.com/maps/search/?api=1&query=District%20Treasury%20Comptroller%20Office(%E0%A4%95%E0%A5%8B.%E0%A4%B2%E0%A5%87.%20%E0%A4%A8%E0%A4%BF.%E0%A4%95%E0%A4%BE)&query_place_id=ChIJP4y97rob6zkRCzI0qvx90rM
"District Election Office, Bhaktapur",Federal government office,Federal government office,"Bhaktapur 44800, Nepal",Bhaktapur,27.6744792,85.4040151,4.4,8,0,0,0,0,0,60.0,https://lh3.googleusercontent.com/gps-cs-s/AG0ilSxpimEu_-555KCIckTGGEcm8WKCxh_bwlzDHXlIrZuG5JpRyOCEHaZVtK7qCi_gbGV8lTZC52J3EaK6KgknMhEDu5q3VZf-d6-cK98-g2ImQVQW8Z4jQ8mTmAqYEZepHk0KbFcZZA=w426-h240-k-no,https://www.google.com/maps/search/?api=1&query=District%20Election%20Office%2C%20Bhaktapur&query_place_id=ChIJN-hrfI8a6zkRn4TEF_egQLw
Water Resource and Irrigation Division Office - Bhaktapur,Federal government office,Federal government office,"MC8J+468, Suryabinayak 44800, Nepal",Suryabinayak,27.6652953,85.430576,0.0,0,0,0,0,0,0,0.0,https://streetviewpixels-pa.googleapis.com/v1/thumbnail?panoid=Be75PZlyNRO39uTMJKQC6Q&cb_client=search.gws-prod.gps&w=408&h=240&yaw=143.54398&pitch=0&thumbfov=100,https://www.google.com/maps/search/?api=1&query=Water%20Resource%20and%20Irrigation%20Division%20Office%20-%20Bhaktapur&query_place_id=ChIJKdFpqYQb6zkR2aG_ILsRHrE
Nepal Workers' and Peasants' Party,Political party office,Political party office,"MCFM+37H, Golmadhi Tole, Bhaktapur 44800, Nepal",Bhaktapur,27.6726766,85.433228,3.6,7,2,0,1,0,4,0.0,https://lh3.googleusercontent.com/gps-cs-s/AG0ilSw4QkgaL3bCdoq2iNcbg85jcTSr1MwZC6g1kZm6Vy3ofLY0CTZTUnwRDrtzdfhUNh34r-C96-komcH3PUWdfqgKKUfXMFDLyoVP8GHQ-2vcmcrddJWwwXs60PGt3-8Qqv-GqEsJ=w426-h240-k-no,https://www.google.com/maps/search/?api=1&query=Nepal%20Workers'%20and%20Peasants'%20Party&query_place_id=ChIJt27-6a0a6zkRRT0jwzMaU-4
Chundevi Moktan Home,Office supply store,Office supply store,"Chundevi, Bhaktapur 44800, Nepal",Bhaktapur,27.6664132,85.4151143,5.0,1,0,0,0,0,0,0.0,https://streetviewpixels-pa.googleapis.com/v1/thumbnail?panoid=oWPcEwPGE4u9TLVfE8sL8Q&cb_client=search.gws-prod.gps&w=408&h=240&yaw=110.42596&pitch=0&thumbfov=100,https://www.google.com/maps/search/?api=1&query=Chundevi%20Moktan%20Home&query_place_id=ChIJXTOO6iYb6zkRmLELUvzBtJA
Shree Ganesh Traders & Suppliers,Office supply store,Office supply store,"101 Araniko Highway, Bhaktapur 44800, Nepal",Bhaktapur,27.6673765,85.416931,0.0,0,0,0,0,0,0,0.0,https://streetviewpixels-pa.googleapis.com/v1/thumbnail?panoid=UN5WbhiaHZCKBF7T_thEuA&cb_client=search.gws-prod.gps&w=408&h=240&yaw=33.67227&pitch=0&thumbfov=100,https://www.google.com/maps/search/?api=1&query=Shree%20Ganesh%20Traders%20%26%20Suppliers&query_place_id=ChIJL-QSydcb6zkRYVzOm72WXBQ
Rusalan Vodka delaer office .,Office supply store,Office supply store,"MC98+H7G, Araniko Highway, Bhaktapur 44800, Nepal",Bhaktapur,27.6689433,85.4156909,0.0,0,0,0,0,0,0,48.0,https://streetviewpixels-pa.googleapis.com/v1/thumbnail?panoid=VVR552Wd_p55L9sjDf6VrA&cb_client=search.gws-prod.gps&w=408&h=240&yaw=333.04312&pitch=0&thumbfov=100,https://www.google.com/maps/search/?api=1&query=Rusalan%20Vodka%20delaer%20office%20.&query_place_id=ChIJl0OKv5ga6zkR5LmLWA6SlDg
"Office of the District Co-ordination Committee (जिल्ला समन्वय समितिको कार्यालय, भक्तपुर)",Government office,Government office,"MCFH+6CX, Bhaktapur 44800, Nepal",Bhaktapur,27.6730938,85.4284983,4.0,1,0,0,0,0,0,0.0,https://streetviewpixels-pa.googleapis.com/v1/thumbnail?panoid=340V-euuckLzxbcnspQaNg&cb_client=search.gws-prod.gps&w=408&h=240&yaw=246.0238&pitch=0&thumbfov=100,https://www.google.com/maps/search/?api=1&query=Office%20of%20the%20District%20Co-ordination%20Committee%20(%E0%A4%9C%E0%A4%BF%E0%A4%B2%E0%A5%8D%E0%A4%B2%E0%A4%BE%20%E0%A4%B8%E0%A4%AE%E0%A4%A8%E0%A5%8D%E0%A4%B5%E0%A4%AF%20%E0%A4%B8%E0%A4%AE%E0%A4%BF%E0%A4%A4%E0%A4%BF%E0%A4%95%E0%A5%8B%20%E0%A4%95%E0%A4%BE%E0%A4%B0%E0%A5%8D%E0%A4%AF%E0%A4%BE%E0%A4%B2%E0%A4%AF%2C%20%E0%A4%AD%E0%A4%95%E0%A5%8D%E0%A4%A4%E0%A4%AA%E0%A5%81%E0%A4%B0)&query_place_id=ChIJw6JZUAAb6zkRkDIqn1qKQyw
Kamalvinayak traffic office,Government office,Government office,"MCGP+PJM, Garud Kundal Road, Bhaktapur 44800, Nepal",Bhaktapur,27.6768476,85.4365574,3.0,1,0,0,0,0,0,0.0,https://streetviewpixels-pa.googleapis.com/v1/thumbnail?panoid=PSGQN-PaUslooqJfNJ2NFA&cb_client=search.gws-prod.gps&w=408&h=240&yaw=259.04358&pitch=0&thumbfov=100,https://www.google.com/maps/search/?api=1&query=Kamalvinayak%20traffic%20office&query_place_id=ChIJS7RRQ8Eb6zkR3pWP_7DfwN8
District Government Attorney Office,Government office,Government office,"MCFF+26J, Bhaktapur 44800, Nepal",Bhaktapur,27.6725768,85.4230274,0.0,0,0,0,0,0,0,0.0,https://lh3.googleusercontent.com/gps-cs-s/AG0ilSyKUtgT_-4nZq7oYvVtDlEv7K3gk-rMdb06R3j5vUhkhblYea1oDAdX4yWdF8Mo5Hf1U6SwSAgwUdYknYHXTVtWlljtVISUpRqQNAyrim5COzprWowyhc-clZxNiKdUCp7rId8s3w=w427-h240-k-no,https://www.google.com/maps/search/?api=1&query=District%20Government%20Attorney%20Office&query_place_id=ChIJl7hREu8b6zkRvaf3hd_ZZhA
Bhaktapur Municipality Ward No. 5 Office,Government office,Government office,"MCCJ+656, Araniko Highway, Bhaktapur 44800, Nepal",Bhaktapur,27.6705572,85.4302832,4.0,1,0,0,0,0,0,0.0,https://lh3.googleusercontent.com/gps-cs-s/AG0ilSz_qbnRYhmGXcB669UIGdGcVaWfHIsPDDHPqhvOK9NJU-ieobRUs-aIOhX-1d9NiTo7qZtM22cwqoOWScUxic03IXQKI8IqSyO4WI8pIIRIL7smkeZthDnYEv33VQ42ff_EJleY=w408-h544-k-no,https://www.google.com/maps/search/?api=1&query=Bhaktapur%20Municipality%20Ward%20No.%205%20Office&query_place_id=ChIJD0OcCAAb6zkRxVmfWKD0GTM
Bhaktapur Population Census office,Government office,Government office,"MCFF+4Q, Bhaktapur 44800, Nepal",Bhaktapur,27.6727904,85.4244015,0.0,0,0,0,0,0,0,0.0,https://streetviewpixels-pa.googleapis.com/v1/thumbnail?panoid=C4eB0PV0MIcFpicQcEv1sA&cb_client=search.gws-prod.gps&w=408&h=240&yaw=42.608246&pitch=0&thumbfov=100,https://www.google.com/maps/search/?api=1&query=Bhaktapur%20Population%20Census%20office&query_place_id=ChIJj55aRqsb6zkR6DHUCet-pK0
Bhaktapur Municipality East Gate,Government office,Government office,"MCFG+PXX, Bhaktapur 44800, Nepal",Bhaktapur,27.6743549,85.4274865,5.0,2,0,0,0,0,0,0.0,https://lh3.googleusercontent.com/gps-cs-s/AG0ilSy_vvD9Ru3IXjDipOD_Q3LVLRsls6V9jyYDW6jJoHxupsfyrslJ7J1S_MOArYYBqzGRyrqSJBWZtPWGY1DVVIWJvn4m1Ipf2FasvzqXLK_EWNrRIyZTBNopR5AwRifHBo6ShtR1AubPhDB1=w478-h240-k-no,https://www.google.com/maps/search/?api=1&query=Bhaktapur%20Municipality%20East%20Gate&query_place_id=ChIJeXwZHwAb6zkR2h8TzYo_x74
"Armed police force base, bayasi",Government office,Government office,"MCFG+R5G, Bhaktapur 44800, Nepal",Bhaktapur,27.674707,85.4254555,5.0,1,0,0,0,0,0,0.0,https://streetviewpixels-pa.googleapis.com/v1/thumbnail?panoid=2HYGiijoJ6BHATd9LtQN4w&cb_client=search.gws-prod.gps&w=408&h=240&yaw=284.93225&pitch=0&thumbfov=100,https://www.google.com/maps/search/?api=1&query=Armed%20police%20force%20base%2C%20bayasi&query_place_id=ChIJgejZDQAb6zkR86rATap60S0
Irrigation Department Bhagirath Nagar Bhaktapur Road Degloor,Government office,Government office,"MCCH+9WW Bhagirath Nagar, Bhaktapur Road, Degloor 44800, Nepal",Degloor,27.6709939,85.4298429,0.0,0,0,0,0,0,0,48.0,https://lh3.googleusercontent.com/gps-cs-s/AG0ilSzIIfdeh_oSyCeU80mh8SiCowfMRSiWJzAye6xa-7M2tQMGrAr-E2-Ww0ZkLf7Xy7ng3SSVPbwrjbY86hvhhwSqrs1Wv23ZBRrfvoKSxIPvCQLfXQ74TP3yMsiWmeLBIl6KntAN=w426-h240-k-no,https://www.google.com/maps/search/?api=1&query=Irrigation%20Department%20Bhagirath%20Nagar%20Bhaktapur%20Road%20Degloor&query_place_id=ChIJ_UCENLkb6zkRhHPsTgDmBtc
ट्राफिक प्रहरी प्रभाग कमलविनायक भक्तपुर।,Government office,Government office,"MCGP+VP5, Kamalbinayak, Bhaktapur 44800, Nepal",Bhaktapur,27.6771049,85.4368073,0.0,0,0,0,0,0,0,0.0,https://streetviewpixels-pa.googleapis.com/v1/thumbnail?panoid=pOdcilOqOoYPTvzORWS_ww&cb_client=search.gws-prod.gps&w=408&h=240&yaw=274.06366&pitch=0&thumbfov=100,https://www.google.com/maps/search/?api=1&query=%E0%A4%9F%E0%A5%8D%E0%A4%B0%E0%A4%BE%E0%A4%AB%E0%A4%BF%E0%A4%95%20%E0%A4%AA%E0%A5%8D%E0%A4%B0%E0%A4%B9%E0%A4%B0%E0%A5%80%20%E0%A4%AA%E0%A5%8D%E0%A4%B0%E0%A4%AD%E0%A4%BE%E0%A4%97%20%E0%A4%95%E0%A4%AE%E0%A4%B2%E0%A4%B5%E0%A4%BF%E0%A4%A8%E0%A4%BE%E0%A4%AF%E0%A4%95%20%E0%A4%AD%E0%A4%95%E0%A5%8D%E0%A4%A4%E0%A4%AA%E0%A5%81%E0%A4%B0%E0%A5%A4&query_place_id=ChIJw3xyBgAb6zkRUb2RKsl0Cvk
जिल्ला विकास समितिको कार्यालय,Government office,Government office,"MCFH+6CX, Bhaktapur 44800, Nepal",Bhaktapur,27.67311,85.42862,4.0,4,0,0,0,0,0,42.0,https://lh3.googleusercontent.com/gps-proxy/ALd4DhEGk8d7hV7a8plfNNpPZVBc9sTeZZNOfj0FpxJnZrPBnyz6lUJvw4iRCVotxUYL3I34goSvQAZkX-T0AesU2W2ZcmtrmXfE6e-vm8E-XzrcQfcntecpWrgWYxmNy53ct3r9hn3jlTdKo756HCx7D9nShQMk_nCzqBwtVIi5HacKsjubZy6CU0xiMBpioVtL6uCh1A=w408-h306-k-no,https://www.google.com/maps/search/?api=1&query=%E0%A4%9C%E0%A4%BF%E0%A4%B2%E0%A5%8D%E0%A4%B2%E0%A4%BE%20%E0%A4%B5%E0%A4%BF%E0%A4%95%E0%A4%BE%E0%A4%B8%20%E0%A4%B8%E0%A4%AE%E0%A4%BF%E0%A4%A4%E0%A4%BF%E0%A4%95%E0%A5%8B%20%E0%A4%95%E0%A4%BE%E0%A4%B0%E0%A5%8D%E0%A4%AF%E0%A4%BE%E0%A4%B2%E0%A4%AF&query_place_id=ChIJrSvHwq8a6zkRQ0ugk3e9mp8
"Education Development and Coordination Unit, Bhaktapur",Government office,Government office,"MCGG+GJ9, Bhaktapur 44800, Nepal",Bhaktapur,27.6762795,85.4266134,3.2,12,3,1,2,3,3,42.0,https://lh3.googleusercontent.com/gps-cs-s/AG0ilSxnyt-j-SUZjRxGRLGFMtS9JyI7o1v2lByb88XhTcNxHvsPa9tuLpHiLBzOZDPWPAbdjwQ07zzduStPfBHzDpf4qNW2-0ptPlr68FdsEeb3s9KZBmXJZcmVofX6CgmW7hAF4OeJ=w408-h906-k-no,https://www.google.com/maps/search/?api=1&query=Education%20Development%20and%20Coordination%20Unit%2C%20Bhaktapur&query_place_id=ChIJDUqOkLoa6zkR2q1S6QGzMWA
बाल अदालत Bal Adalat,Government office,Government office,"MCFH+567, Bhaktapur 44800, Nepal",Bhaktapur,27.6729189,85.4280353,0.0,0,0,0,0,0,0,0.0,https://streetviewpixels-pa.googleapis.com/v1/thumbnail?panoid=l-rL6RcWWa0Wrddm9LtJmQ&cb_client=search.gws-prod.gps&w=408&h=240&yaw=80.22857&pitch=0&thumbfov=100,https://www.google.com/maps/search/?api=1&query=%E0%A4%AC%E0%A4%BE%E0%A4%B2%20%E0%A4%85%E0%A4%A6%E0%A4%BE%E0%A4%B2%E0%A4%A4%20Bal%20Adalat&query_place_id=ChIJr-YrJAAb6zkRfbUQJDbW2pM
Tourist Police Bhaktapur,Government office,Government office,"MCFH+Q5R, Bhaktapur 44800, Nepal",Bhaktapur,27.6745851,85.4278289,0.0,0,0,0,0,0,0,0.0,https://streetviewpixels-pa.googleapis.com/v1/thumbnail?panoid=Uv2QsLAggiaM5GJ421uAvw&cb_client=search.gws-prod.gps&w=408&h=240&yaw=48.933624&pitch=0&thumbfov=100,https://www.google.com/maps/search/?api=1&query=Tourist%20Police%20Bhaktapur&query_place_id=ChIJOTGN6E0b6zkRtYzoHUMJ_U4
"Kathmandu Valley Development Authority (KVDA), Bhaktapur",Government office,Government office,"Bhaktapur 44800, Nepal",Bhaktapur,27.673072,85.4288359,0.0,0,0,0,0,0,0,40.0,https://lh3.googleusercontent.com/gps-proxy/ALd4DhGLPJ6kzoM5T0NC6jWjWOPa5t2iyZbe3LBBPNovRlRbeCG976Wpviz9r2wJXP-baoLvS-tnm5QO75UEyR4itBe_JPDb2ErSVupvNDQoVHT5ycnc_QKOTbcAytZ21Vbz4CH8dZYqM9Jul_m_5y4-eWbM_-Ke7b9qktrc0DnZwVR1CO7o08CXORS9VOIfVEU3M279FQ=w408-h306-k-no,https://www.google.com/maps/search/?api=1&query=Kathmandu%20Valley%20Development%20Authority%20(KVDA)%2C%20Bhaktapur&query_place_id=ChIJ-1thw68a6zkRsDh5pWLMnos
जिल्ला पशु सेवा कार्यालय,Government office,Government office,"MCCC+G34, Nagarkot Road, Bhaktapur 44800, Nepal",Bhaktapur,27.6712581,85.4201998,4.3,3,0,0,1,0,2,30.0,https://lh3.googleusercontent.com/gps-proxy/ALd4DhFlxkje9L6djefBxQIhFj3TiRiPR__jMxxt_AxLPG8ruxiH9EYScvNxhTTk0vdibsuUHxlCg1p9WDTCkpLtItvFaPHG_hrM8oSB-HB12xhJ8Ga1HfiH0XIE1Ei31_jOnAqxH4gNqR1ZUVZPaj1n4SQFZpemjspLnYo6PAyYMF29M5ylkpCZfa_hTkQ3FWohznvsSgg=w408-h306-k-no,https://www.google.com/maps/search/?api=1&query=%E0%A4%9C%E0%A4%BF%E0%A4%B2%E0%A5%8D%E0%A4%B2%E0%A4%BE%20%E0%A4%AA%E0%A4%B6%E0%A5%81%20%E0%A4%B8%E0%A5%87%E0%A4%B5%E0%A4%BE%20%E0%A4%95%E0%A4%BE%E0%A4%B0%E0%A5%8D%E0%A4%AF%E0%A4%BE%E0%A4%B2%E0%A4%AF&query_place_id=ChIJPYKVD6Ma6zkR8yHfofWK51A
Kathmandu Upatyaka Khane Pani Ltd.,Government office,Government office,"MCCF+X68, Bhaktapur 44800, Nepal",Bhaktapur,27.6724234,85.4230685,1.5,8,6,0,2,0,0,36.0,https://lh3.googleusercontent.com/gps-cs-s/AG0ilSyMA4f_o6dx4cJCejpTnuw6plkVuz0VOA8Jj7uWkHt0zCnJb8zLE-_NZ44AojRf-NcDRBkFonHh-RgsdLZsFIH3_DIT1UcmdBNfr7D_tlFEwRj6WBNFSMh_xR-BS2nDgDqBRjE_wA=w408-h725-k-no,https://www.google.com/maps/search/?api=1&query=Kathmandu%20Upatyaka%20Khane%20Pani%20Ltd.&query_place_id=ChIJ6fR-vqQa6zkRHmfvgie5FB8
Khana Pani Sansthan,Government office,Government office,"MCFF+263, Bhaktapur 44800, Nepal",Bhaktapur,27.6725021,85.4230487,0.0,0,0,0,0,0,0,0.0,https://streetviewpixels-pa.googleapis.com/v1/thumbnail?panoid=1NS9VT6jDOkGs3v-X1-6YQ&cb_client=search.gws-prod.gps&w=408&h=240&yaw=263.15027&pitch=0&thumbfov=100,https://www.google.com/maps/search/?api=1&query=Khana%20Pani%20Sansthan&query_place_id=ChIJ-0-fvqQa6zkR75Ykz5M4p4U
"Monument Protection & Palace Care Office, Bhaktapur",Government office,Government office,"MCCH+QJ5, Bhaktapur 44800, Nepal",Bhaktapur,27.671881,85.429097,5.0,1,0,0,0,0,1,42.0,https://lh3.googleusercontent.com/gps-cs-s/AG0ilSybVYjc_78R1S-azIPNTMGttSoRl3A0kTj7x193qa17NwxH-sVTddrLS65yKzwWo0oBtEmHKmFPbIlnIziBDTdEghChCvRTarxgnOL07FIXlwJhKpZGasqa6-FtIcH4fJep6gc8ezTn-ygn=w408-h544-k-no,https://www.google.com/maps/search/?api=1&query=Monument%20Protection%20%26%20Palace%20Care%20Office%2C%20Bhaktapur&query_place_id=ChIJk9qMuq8a6zkR_bzgAUlVzAE
district agriculture development office,Government office,Government office,"MC88+CM9 Chundevi, Bhaktapur 44800, Nepal",Bhaktapur,27.6660359,85.416719,0.0,0,0,0,0,0,0,0.0,https://streetviewpixels-pa.googleapis.com/v1/thumbnail?panoid=xQtapukDrpmPNBBiNjLWaA&cb_client=search.gws-prod.gps&w=408&h=240&yaw=2.300903&pitch=0&thumbfov=100,https://www.google.com/maps/search/?api=1&query=district%20agriculture%20development%20office&query_place_id=ChIJFVdSGAAb6zkRhJPKC4mhMtk
"Agriculture and Animal Development Section, Bhaktapur Municipality",Government office,Government office,"MCCC+F4P, Ganeshthan Road, Bhaktapur 44800, Nepal",Bhaktapur,27.6711925,85.4202906,0.0,0,0,0,0,0,0,0.0,,https://www.google.com/maps/search/?api=1&query=Agriculture%20and%20Animal%20Development%20Section%2C%20Bhaktapur%20Municipality&query_place_id=ChIJASozVwAb6zkRlVNcfemc1Ic
Wada Karyalaya,Government office,Government office,"M9JP+QM8, Madhyapur Thimi Muncipality 44600, Nepal",Madhyapur Thimi Muncipality,27.6819046,85.3867131,4.0,2,0,0,0,0,0,0.0,https://streetviewpixels-pa.googleapis.com/v1/thumbnail?panoid=pWNeCGNrVRRMjbPqmI03ug&cb_client=search.gws-prod.gps&w=408&h=240&yaw=103.61105&pitch=0&thumbfov=100,https://www.google.com/maps/search/?api=1&query=Wada%20Karyalaya&query_place_id=ChIJreq6z2ca6zkRsQBwzLWoX1A
Madhyapur Thimi Municipality Ward Office,Government office,Government office,"M9MP+3R9, Bhaktapur Road, Madhyapur Thimi 44800, Nepal",Madhyapur Thimi,27.6818807,85.386802,4.3,6,0,0,0,0,0,42.0,https://lh3.googleusercontent.com/gps-cs-s/AG0ilSxCXBR5UI10-LIGaW5-A8CF6nUrMx09hoIc-U4Nof6LLBakI0rtUFgQ_8xaVqerxRtN29tKbIS8ltIEJkxmr90KVfdwy8fgUR0XkuCFyb8Wdiydn6UCe48NpbcJtR_F8I59GAkk=w408-h725-k-no,https://www.google.com/maps/search/?api=1&query=Madhyapur%20Thimi%20Municipality%20Ward%20Office&query_place_id=ChIJu7C6z2ca6zkRbtuMUZ4hZqk
Mulpani Switching station Nea,Government office,Government office,"P92P+9CG, Kageshwori Manohara 44600, Nepal",Kageshwori Manohara,27.700942,85.3860168,0.0,0,0,0,0,0,0,0.0,https://streetviewpixels-pa.googleapis.com/v1/thumbnail?panoid=fEhgZlEgn6AxSv1OXwtyaQ&cb_client=search.gws-prod.gps&w=408&h=240&yaw=90.19703&pitch=0&thumbfov=100,https://www.google.com/maps/search/?api=1&query=Mulpani%20Switching%20station%20Nea&query_place_id=ChIJhXmxVwAb6zkRtU4CseyxNHc
१न. नापी टोली भक्तपुर,Government office,Government office,"M9CM+VQC, Madhyapur Thimi, Nepal",Madhyapur Thimi,27.672189,85.3843766,5.0,2,0,0,0,0,0,0.0,https://streetviewpixels-pa.googleapis.com/v1/thumbnail?panoid=1TP0YoU4WeEcle6_HXSJ9w&cb_client=search.gws-prod.gps&w=408&h=240&yaw=268.9533&pitch=0&thumbfov=100,https://www.google.com/maps/search/?api=1&query=%E0%A5%A7%E0%A4%A8.%20%E0%A4%A8%E0%A4%BE%E0%A4%AA%E0%A5%80%20%E0%A4%9F%E0%A5%8B%E0%A4%B2%E0%A5%80%20%E0%A4%AD%E0%A4%95%E0%A5%8D%E0%A4%A4%E0%A4%AA%E0%A5%81%E0%A4%B0&query_place_id=ChIJdYeuJsMb6zkRsO49Q_u4ibU
New ward no 5 Building Office,Government office,Government office,"M9HJ+787, Madhyapur Thimi 44600, Nepal",Madhyapur Thimi,27.6781678,85.3808068,5.0,1,0,0,0,0,0,0.0,,https://www.google.com/maps/search/?api=1&query=New%20ward%20no%205%20Building%20Office&query_place_id=ChIJRdU3egAb6zkRjVOQZjQUH5k
Urban Health Center ward no 7,Government office,Government office,"P92P+Q25, Kageshwori Manohara 44600, Nepal",Kageshwori Manohara,27.7018754,85.3851004,0.0,0,0,0,0,0,0,0.0,https://streetviewpixels-pa.googleapis.com/v1/thumbnail?panoid=n1zlGgccA3zYHqfVHdI2Qw&cb_client=search.gws-prod.gps&w=408&h=240&yaw=271.4759&pitch=0&thumbfov=100,https://www.google.com/maps/search/?api=1&query=Urban%20Health%20Center%20ward%20no%207&query_place_id=ChIJa7juB2sb6zkRHj513D5m2Bg
Thimi Substation,Government office,Government office,"M9JR+HQ2, Madhyapur Thimi 44600, Nepal",Madhyapur Thimi,27.6813807,85.3919221,0.0,0,0,0,0,0,0,0.0,https://streetviewpixels-pa.googleapis.com/v1/thumbnail?panoid=S_J7FmW_vKQwHc90QaWyPQ&cb_client=search.gws-prod.gps&w=408&h=240&yaw=250.78755&pitch=0&thumbfov=100,https://www.google.com/maps/search/?api=1&query=Thimi%20Substation&query_place_id=ChIJaYYfZAAb6zkRkCNN-weTbNU
Central Level Project Implementation Unit,Government office,Government office,"M9MF+683, Madhyapur Thimi 44600, Nepal",Madhyapur Thimi,27.6830041,85.3732822,4.7,3,0,0,0,0,0,42.0,https://lh3.googleusercontent.com/gps-cs-s/AG0ilSzhgBstbeES30jmSp2SyPceHO-eNJWg5pE9DdIt9pN0Lse_q1trmlFXp9nkavpz3a8tXfsujSYvQl_Zay0Q-OZa8PvhOTaZEs79XyY3pS7E10uBCPEABbEGaLcYu-ZClZNk-tlC1Z70qabY=w408-h306-k-no,https://www.google.com/maps/search/?api=1&query=Central%20Level%20Project%20Implementation%20Unit&query_place_id=ChIJAyd80goZ6zkRNposHDDL6wI
District Project Execution Unit (Building),Government office,Government office,"MCG7+849, Nagarkot Rd, Bhaktapur 44800, Nepal",Bhaktapur,27.6757762,85.4128579,0.0,0,0,0,0,0,0,62.5,https://streetviewpixels-pa.googleapis.com/v1/thumbnail?panoid=hvjjjwhaI3Oq-XojMxsRGw&cb_client=search.gws-prod.gps&w=408&h=240&yaw=333.43903&pitch=0&thumbfov=100,https://www.google.com/maps/search/?api=1&query=District%20Project%20Execution%20Unit%20(Building)&query_place_id=ChIJtUgBACQb6zkRtgJZqz3qVBw
Nepal Electricity Authority Billing Counter,Government office,Government office,"MCFF+237, Bhaktapur 44800, Nepal",Bhaktapur,27.6725439,85.4226816,5.0,1,0,0,0,0,0,0.0,https://streetviewpixels-pa.googleapis.com/v1/thumbnail?panoid=iFQ2Yys-aSp-ejM4uVGpkQ&cb_client=search.gws-prod.gps&w=408&h=240&yaw=117.669754&pitch=0&thumbfov=100,https://www.google.com/maps/search/?api=1&query=Nepal%20Electricity%20Authority%20Billing%20Counter&query_place_id=ChIJ06MdINIb6zkRj2Vx861LUl8
Nepal Telecom Bhaktapur (नेपाल टेलिकम भक्तपुर),Government office,Government office,"NTC office, Bhaktapur 44800, Nepal",Bhaktapur,27.6723125,85.4225625,3.4,26,0,0,0,0,0,42.0,https://lh3.googleusercontent.com/gps-cs-s/AG0ilSym3o6E2thFekuqPgZayzUZg2LQokIF5zSTMWPIaMSi6Dpl8jHgq6vlhVFmEZucPxs4AQjlZm8ho1j2J1M51FKh1Y0FDLFgrHcbg0QdlwTcBsZgzHNGepBDRWnHP4qiXKsvXFUXFg=w408-h544-k-no,https://www.google.com/maps/search/?api=1&query=Nepal%20Telecom%20Bhaktapur%20(%E0%A4%A8%E0%A5%87%E0%A4%AA%E0%A4%BE%E0%A4%B2%20%E0%A4%9F%E0%A5%87%E0%A4%B2%E0%A4%BF%E0%A4%95%E0%A4%AE%20%E0%A4%AD%E0%A4%95%E0%A5%8D%E0%A4%A4%E0%A4%AA%E0%A5%81%E0%A4%B0)&query_place_id=ChIJF_8yo3Ab6zkRY7V1iv1E8pE
"Malpot Office, Bhaktapur",Government office,Government office,"1 Dugure, Bhaktapur 44800, Nepal",Bhaktapur,27.6755306,85.4412649,3.2,55,0,0,0,0,0,42.0,https://lh3.googleusercontent.com/gps-cs-s/AG0ilSz4SmeOWjxDvh98_MCYf8C6IA9OeEM0iEe-b4EcYZqm3Z0PngNbADdK_nAkHiTKUUZzcob8XpSKQBX13x5pA2nY_oTtyojY5tl6awVm7wbp52YK4hwKxywkbndwozigw_UOuSdo=w408-h306-k-no,https://www.google.com/maps/search/?api=1&query=Malpot%20Office%2C%20Bhaktapur&query_place_id=ChIJJc8LmKsa6zkRmz-x3U1Javc
Suryabinayak-Dhulikhel Road Project (सुर्यविनायक-धुलिखेल सडक आयोजना),Government office,Government office,"M9JV+69F, Madhyapur Thimi, Nepal",Madhyapur Thimi,27.6805717,85.3934101,0.0,0,0,0,0,0,0,40.0,https://streetviewpixels-pa.googleapis.com/v1/thumbnail?panoid=xT6ByN_BQUUCsperh6ke2Q&cb_client=search.gws-prod.gps&w=408&h=240&yaw=96.63347&pitch=0&thumbfov=100,https://www.google.com/maps/search/?api=1&query=Suryabinayak-Dhulikhel%20Road%20Project%20(%E0%A4%B8%E0%A5%81%E0%A4%B0%E0%A5%8D%E0%A4%AF%E0%A4%B5%E0%A4%BF%E0%A4%A8%E0%A4%BE%E0%A4%AF%E0%A4%95-%E0%A4%A7%E0%A5%81%E0%A4%B2%E0%A4%BF%E0%A4%96%E0%A5%87%E0%A4%B2%20%E0%A4%B8%E0%A4%A1%E0%A4%95%20%E0%A4%86%E0%A4%AF%E0%A5%8B%E0%A4%9C%E0%A4%A8%E0%A4%BE)&query_place_id=ChIJTfkgdgAb6zkRQsuCdoxYe7w
Transport Management Office - Radhe Radhe,Government office,Government office,"M9GW+XXH, Madhyapur Thimi 44800, Nepal",Madhyapur Thimi,27.6774487,85.3974762,2.8,210,0,0,0,0,0,35.0,https://lh3.googleusercontent.com/gps-cs-s/AG0ilSwQA06oOcmmRbPl9MrgDvqQql9hD2FHj0GmaObdMOUV00-6zY7ZT4gWQ_FUEPFz36uqxx5BODFjaE5ydQy4lEPdj_DeM3ObHcFykKoI_ZkX1Gez48nS7nJkGn8CNmjiK7bNaOsgOQ=w408-h725-k-no,https://www.google.com/maps/search/?api=1&query=Transport%20Management%20Office%20-%20Radhe%20Radhe&query_place_id=ChIJG-OBPKsa6zkROeiznXZ56EA
Swasthya Bima Board Bhaktapur,Government office,Government office,"M9GQ+WG4, Madhyapur Thimi, Nepal",Madhyapur Thimi,27.6771455,85.3887784,4.3,8,0,0,0,0,0,42.0,https://lh3.googleusercontent.com/gps-cs-s/AG0ilSwES9BNGVk9j9xy5Netx0_hbB98znkYi_-VoIL2d4cx3OawhwYLWYBet4Ri0pBbHlB9pFh4UWLu83A9eiRTHCxw9mBaoI7PltRtl4cwRASOdsK12gwRS_Ns8MFSuB9q8c0uWQjS0w=w408-h873-k-no,https://www.google.com/maps/search/?api=1&query=Swasthya%20Bima%20Board%20Bhaktapur&query_place_id=ChIJnfE_JIgb6zkRXF-SLXR0qBg
Bhaktapur lekhapadi,Government office,Government office,"MCGR+5MM, Bhaktapur 44800, Nepal",Bhaktapur,27.6755226,85.441903,0.0,0,0,0,0,0,0,0.0,https://streetviewpixels-pa.googleapis.com/v1/thumbnail?panoid=067z-sP1EaC0Zi2FUymgag&cb_client=search.gws-prod.gps&w=408&h=240&yaw=259.04468&pitch=0&thumbfov=100,https://www.google.com/maps/search/?api=1&query=Bhaktapur%20lekhapadi&query_place_id=ChIJdb4tUwAF6zkRjqpdxBD-YGc
Water boring,Government office,Government office,"MC5C+G62, Suryabinayak, Nepal",Suryabinayak,27.658759,85.4205138,5.0,1,0,0,0,0,0,0.0,https://streetviewpixels-pa.googleapis.com/v1/thumbnail?panoid=UlXc5jnGvDuADshfzfvh2g&cb_client=search.gws-prod.gps&w=408&h=240&yaw=119.817566&pitch=0&thumbfov=100,https://www.google.com/maps/search/?api=1&query=Water%20boring&query_place_id=ChIJLcSKU-wR6zkRCpdewhOt0zM
Suryabinayak Municipality Ward 10,Government office,Government office,"MF29+Q75, Suryabinayak 10, Nepal",Suryabinayak,27.6518979,85.4682335,4.7,6,0,0,0,0,0,0.0,https://lh3.googleusercontent.com/gps-cs-s/AG0ilSxcx00E1JA8y4zz57HqhycZVf1j599Fj5Kz-4XQZ-aA7arsTkKECcW-4d-l3-goglogEqUyC1XfvjXeSwv3GEI6o5XOcFwduG_wQZubRVInaENSc5yL-_fNuPWtoRoPVC7eQge1=w426-h240-k-no,https://www.google.com/maps/search/?api=1&query=Suryabinayak%20Municipality%20Ward%2010&query_place_id=ChIJE2EvJJ0P6zkRqZZC1lVPMYA
Bhaktapur District court,Government office,Government office,"MCGV+5C6, Bhaktapur Road, Kathmandu 44600, Nepal",Kathmandu,27.6754173,85.443524,4.0,12,0,0,0,0,0,35.0,https://lh3.googleusercontent.com/gps-cs-s/AG0ilSwxNDWuFy6fYW-I-XN_FLqDQcFmFjPsu7VrifuyMQlNZDNd29-ezMGY6FyjYIpIepfkFzfcEDiNJYHaQECG4Kr04m8SNq8wGH1_kF4_wayqyjeNDx4ukIZUNlG1IcgZ1Sb9nHSu=w408-h302-k-no,https://www.google.com/maps/search/?api=1&query=Bhaktapur%20District%20court&query_place_id=ChIJ9wxNxcYF6zkRodZ8Tn2sUEo
Office Of Changunarayan Municipality Ward 8,Government office,Government office,"MFPJ+G6C, Mahamanjushree Nagarkot, Nepal",Mahamanjushree Nagarkot,27.6863015,85.4805255,4.4,7,0,0,0,0,0,42.0,https://lh3.googleusercontent.com/gps-cs-s/AG0ilSyrMkfDnk17zCyIKVfcRQsNG4YmLxBokT_kCnsjhLGlc5FBV6B_BX4gGkGyMbttQfQWNMSrrpWB37N_kmDq3vHFHgA7tfia71biSRSwLqqmGagN2ml4n-fFnjKJ84tH7GYkiSyH=w408-h544-k-no,https://www.google.com/maps/search/?api=1&query=Office%20Of%20Changunarayan%20Municipality%20Ward%208&query_place_id=ChIJocJEkZ8F6zkR8u5LrZzcmwE
Sukajor Ward Office (Ramechhap mun-7),Government office,Government office,"44600, Nepal",Mahamanjushree Nagarkot,27.6865852,85.4581859,0.0,0,0,0,0,0,0,144.0,,https://www.google.com/maps/search/?api=1&query=Sukajor%20Ward%20Office%20(Ramechhap%20mun-7)&query_place_id=ChIJoYO6Fi4F6zkR5vxJIFAUoHg
Suryabinayak Municipality Ward 8,Government office,Government office,"MC4J+JX7 SIpadol School, Suryabinayak, Nepal",Suryabinayak,27.6435787,85.4329037,3.7,6,0,0,0,0,0,0.0,https://lh3.googleusercontent.com/gps-cs-s/AG0ilSw0w1rMb0W5jkkBk0XqsDN7mGf0M9qnGMgS_Yb2lrJ3RpOP_CzzvvFC74tZgw_pYiJPKe5Q2rNoHBg9DPoGYZpO66u6BKoJO8SVtBXSh_rMcGZ8lTUf3kkgm2CeAghIgLDyATzhT-sPKVD2=w408-h306-k-no,https://www.google.com/maps/search/?api=1&query=Suryabinayak%20Municipality%20Ward%208&query_place_id=ChIJS63YUksR6zkRiA1syLJlmNo
Office of Industry and Commerce Bhaktapur,Government office,Government office,"MC6G+FFM, F099, Suryabinayak 44800, Nepal",Suryabinayak,27.661207,85.426253,4.0,1,0,0,0,0,0,40.0,https://streetviewpixels-pa.googleapis.com/v1/thumbnail?panoid=ghdQBLO4GQ4cjTH4uAXsgg&cb_client=search.gws-prod.gps&w=408&h=240&yaw=89.70914&pitch=0&thumbfov=100,https://www.google.com/maps/search/?api=1&query=Office%20of%20Industry%20and%20Commerce%20Bhaktapur&query_place_id=ChIJIcI3FVYR6zkRZ6O0r0HuaRU
Changunarayan Municapility Office New,Government office,Government office,"MFW6+F92, Changunarayan, Nepal",Changunarayan,27.6958579,85.4611951,5.0,5,0,0,0,0,0,0.0,https://lh3.googleusercontent.com/gps-cs-s/AG0ilSwJk2CtoVDOb4fgzs5ESWnsh8tZC4dISqfchQCD95NQleHwpBNm8BVNnC0zaqe_cL9zJWhgQOUriq66zMr1fIDn5nS0h2X4sxgEAorkKWrbZIercHmJCq8AEaQoo-7rsue_X11IbSYZj7Nh=w408-h307-k-no,https://www.google.com/maps/search/?api=1&query=Changunarayan%20Municapility%20Office%20New&query_place_id=ChIJObvb6ggF6zkR5HPnoLsiz1Q
Binaya home,Government office,Government office,"PC6F+XWP, Changunarayan 44600, Nepal",Changunarayan,27.7124621,85.4248247,0.0,0,0,0,0,0,0,0.0,https://streetviewpixels-pa.googleapis.com/v1/thumbnail?panoid=a-6MdepdjHp7036xbwqzqQ&cb_client=search.gws-prod.gps&w=408&h=240&yaw=359.9382&pitch=0&thumbfov=100,https://www.google.com/maps/search/?api=1&query=Binaya%20home&query_place_id=ChIJF0LWXAAb6zkRvoUU8WhSyYg
Police Station duwakot Byesi,Government office,Government office,"PC47+WCR, Changunarayan 44600, Nepal",Changunarayan,27.7073526,85.4135128,0.0,0,0,0,0,0,0,0.0,https://lh3.googleusercontent.com/gps-cs-s/AG0ilSzRP9Nv3xTBcrWOZXmo8_Zir6KJ7DXGTM4B5mdtr-uh0hwD-l-prlOIjPwUu22s5zJegpTiXDMsxi1VrxI1QW3KavemcmxfDSP6a_tzDj_pTELzMJOzFejdShUedx72xzlvWe_D=w408-h306-k-no,https://www.google.com/maps/search/?api=1&query=Police%20Station%20duwakot%20Byesi&query_place_id=ChIJIYtvcBAb6zkRMqQZDjxLkzU
Suryabinayak Municipality 3 No. Ward Office,Government office,Government office,"M96G+9VQ, Anantalingeshwar, Nepal",Anantalingeshwar,27.660967,85.3772215,3.6,8,0,0,0,0,0,40.0,https://lh3.googleusercontent.com/gps-cs-s/AG0ilSx7IuVeXBfb5E5B9s0rvc9Ee-c87MIjNhiLi4NZtNLs0l7tq61z8-VV0vFoZr7MQ-HTgfk6m2luJEbA3867Pyiy_2b-M8K-r4cRpytgPLE-9oaoGM9SfoZK49cQQLSe9Xal_9hLKA=w408-h306-k-no,https://www.google.com/maps/search/?api=1&query=Suryabinayak%20Municipality%203%20No.%20Ward%20Office&query_place_id=ChIJ2WfyiUUb6zkRvKxpeh16AE0
Nepal Electricity Authority,Government office,Government office,"M9FJ+R8G, चार दोबाटो, Madhyapur Thimi 44600, Nepal",Madhyapur Thimi,27.6745583,85.380837,2.9,58,0,0,0,0,0,40.5,https://lh3.googleusercontent.com/gps-cs-s/AG0ilSwrIaehEDmMeruGsg2qcaDJ4_hRTKDXfW-iVTZCE2VSicCpj3MVura024wpncgQnW3_Fm3RwtZ6kNiORVMzGcn0QyI65E_aH7BpCUtYn9Lb2STYrCRQ6gTDVnminDYvfupPKhEHhw=w408-h306-k-no,https://www.google.com/maps/search/?api=1&query=Nepal%20Electricity%20Authority&query_place_id=ChIJVx74d24a6zkR9BtMu7ChTyM
Golden era,Government office,Government office,"M9F7+9QJ, कौशलटार बालकोट सडक, Madhyapur Thimi 44600, Nepal",Madhyapur Thimi,27.6734634,85.3643861,2.0,2,0,0,0,0,0,0.0,https://streetviewpixels-pa.googleapis.com/v1/thumbnail?panoid=kQL2mYOiaiKKzO62O2OmhA&cb_client=search.gws-prod.gps&w=408&h=240&yaw=292.457&pitch=0&thumbfov=100,https://www.google.com/maps/search/?api=1&query=Golden%20era&query_place_id=ChIJpb7XFQAb6zkRSotCblRtWE8
Urban Health Center Kausaltar,Government office,Government office,"M9F8+V96, Araniko Highway, Madhyapur Thimi 44600, Nepal",Madhyapur Thimi,27.6746636,85.3658864,0.0,0,0,0,0,0,0,0.0,https://streetviewpixels-pa.googleapis.com/v1/thumbnail?panoid=JTX1Cdox2hn29hQsSEL_ZA&cb_client=search.gws-prod.gps&w=408&h=240&yaw=355.38266&pitch=0&thumbfov=100,https://www.google.com/maps/search/?api=1&query=Urban%20Health%20Center%20Kausaltar&query_place_id=ChIJB5i6K0Yb6zkRoXHMoufZCVc
"NEA, Transformer Workshop Branch, kharipati,ने .वि.प्रा., ट्रान्सर्फमर वर्कशप शाखा, खरिपाटी",Government office,Government office,"MFP3+VXP, Changunarayan, Nepal",Changunarayan,27.6875821,85.4546227,5.0,1,0,0,0,0,0,49.0,,https://www.google.com/maps/search/?api=1&query=NEA%2C%20Transformer%20Workshop%20Branch%2C%20kharipati%2C%E0%A4%A8%E0%A5%87%20.%E0%A4%B5%E0%A4%BF.%E0%A4%AA%E0%A5%8D%E0%A4%B0%E0%A4%BE.%2C%20%E0%A4%9F%E0%A5%8D%E0%A4%B0%E0%A4%BE%E0%A4%A8%E0%A5%8D%E0%A4%B8%E0%A4%B0%E0%A5%8D%E0%A4%AB%E0%A4%AE%E0%A4%B0%20%E0%A4%B5%E0%A4%B0%E0%A5%8D%E0%A4%95%E0%A4%B6%E0%A4%AA%20%E0%A4%B6%E0%A4%BE%E0%A4%96%E0%A4%BE%2C%20%E0%A4%96%E0%A4%B0%E0%A4%BF%E0%A4%AA%E0%A4%BE%E0%A4%9F%E0%A5%80&query_place_id=ChIJYwtULA8F6zkRxcsbZWWWVnQ
आदिवासी जनजातिको उत्थान परिषद्,Government office,Government office,"MFV7+C7X, Lalitpur, Nepal",Lalitpur,27.6936161,85.4632279,0.0,0,0,0,0,0,0,0.0,https://streetviewpixels-pa.googleapis.com/v1/thumbnail?panoid=5taNGxrBG6rVNxhgFJno3w&cb_client=search.gws-prod.gps&w=408&h=240&yaw=243.42242&pitch=0&thumbfov=100,https://www.google.com/maps/search/?api=1&query=%E0%A4%86%E0%A4%A6%E0%A4%BF%E0%A4%B5%E0%A4%BE%E0%A4%B8%E0%A5%80%20%E0%A4%9C%E0%A4%A8%E0%A4%9C%E0%A4%BE%E0%A4%A4%E0%A4%BF%E0%A4%95%E0%A5%8B%20%E0%A4%89%E0%A4%A4%E0%A5%8D%E0%A4%A5%E0%A4%BE%E0%A4%A8%20%E0%A4%AA%E0%A4%B0%E0%A4%BF%E0%A4%B7%E0%A4%A6%E0%A5%8D&query_place_id=ChIJA9EPbQAF6zkRnlTAGoks944
AWCKharyaipati,Government office,Government office,"MFQ6+R8G, Mahamanjushree Nagarkot, Nepal",Mahamanjushree Nagarkot,27.6895561,85.4608282,0.0,0,0,0,0,0,0,0.0,https://streetviewpixels-pa.googleapis.com/v1/thumbnail?panoid=tmvECdTID_UjQm2W2Oli5Q&cb_client=search.gws-prod.gps&w=408&h=240&yaw=329.6857&pitch=0&thumbfov=100,https://www.google.com/maps/search/?api=1&query=AWCKharyaipati&query_place_id=ChIJxSjyFgAF6zkRLf7w-pkKTnc
Balefi office,Government office,Government office,"MFQ4+7QM Bansbari Bus Stop, Mahamanjushree Nagarkot, Nepal",Mahamanjushree Nagarkot,27.6882111,85.4569136,0.0,0,0,0,0,0,0,0.0,,https://www.google.com/maps/search/?api=1&query=Balefi%20office&query_place_id=ChIJR0uoegAF6zkRDkfk6VVpkBI
Changunarayan nagarpalika,Government office,Government office,"MFW6+59P, Changunarayan, Nepal",Changunarayan,27.6954573,85.4608457,0.0,0,0,0,0,0,0,0.0,https://streetviewpixels-pa.googleapis.com/v1/thumbnail?panoid=su19CAgGLzzpA9dctcfQAw&cb_client=search.gws-prod.gps&w=408&h=240&yaw=104.781166&pitch=0&thumbfov=100,https://www.google.com/maps/search/?api=1&query=Changunarayan%20nagarpalika&query_place_id=ChIJTyK-AgAF6zkRShsReT0r3Po
National Zoological Garden,Government office,Government office,"MC5C+64G, Suryabinayak, Nepal",Suryabinayak,27.6580706,85.4203387,5.0,1,0,0,0,0,0,48.0,https://lh3.googleusercontent.com/gps-cs-s/AG0ilSydpAF2I9zuLN6myqYLXJuK-F5zDgFDV4JgstqnIirq1j1ETQDXVqOpb8xt-oX5SSkUhZtPQCoqhV9OkhyHNBrhe5LFuVpqk9hjx4VcJjg-tSR1SChkUa9mufi1WUZqZjqnuSns=w408-h306-k-no,https://www.google.com/maps/search/?api=1&query=National%20Zoological%20Garden&query_place_id=ChIJdc7CIQAR6zkRHD_SHWD19mE
"Madhapur Thimi Municipality Ward No.3 Office, kaushaltar",Government office,Government office,"M9F8+V96 Kolhabi Municipality Ward No.3 Office, Juawa 44600, Nepal",Juawa,27.6746577,85.3658908,0.0,0,0,0,0,0,0,0.0,https://streetviewpixels-pa.googleapis.com/v1/thumbnail?panoid=JTX1Cdox2hn29hQsSEL_ZA&cb_client=search.gws-prod.gps&w=408&h=240&yaw=358.79532&pitch=0&thumbfov=100,https://www.google.com/maps/search/?api=1&query=Madhapur%20Thimi%20Municipality%20Ward%20No.3%20Office%2C%20kaushaltar&query_place_id=ChIJw5dEWwAb6zkRhOphMY2HD5s
Dudhmel,Government office,Government office,"MFXC+54J, Pipeline Road, Mahamanjushree Nagarkot 44804, Nepal",Mahamanjushree Nagarkot,27.6979634,85.470263,0.0,0,0,0,0,0,0,0.0,https://streetviewpixels-pa.googleapis.com/v1/thumbnail?panoid=zuib9y9NfxdUS5WmILqlBg&cb_client=search.gws-prod.gps&w=408&h=240&yaw=180.83061&pitch=0&thumbfov=100,https://www.google.com/maps/search/?api=1&query=Dudhmel&query_place_id=ChIJDYt_R98F6zkRSyaXL8OHVfE
Ministry of Urban Development Central Level Project Implementation Unit DLPIU-Bhaktapur,Government office,Government office,"MCG7+7F3, Bhaktapur 44800, Nepal",Bhaktapur,27.6756374,85.4136694,4.0,1,0,0,0,0,0,0.0,https://streetviewpixels-pa.googleapis.com/v1/thumbnail?panoid=Ro0M275-YwbgxiVbVlkTDg&cb_client=search.gws-prod.gps&w=408&h=240&yaw=130.07004&pitch=0&thumbfov=100,https://www.google.com/maps/search/?api=1&query=Ministry%20of%20Urban%20Development%20Central%20Level%20Project%20Implementation%20Unit%20DLPIU-Bhaktapur&query_place_id=ChIJGy9Jr7Qb6zkR1jgu7zTIda8
Kamerotar Land Polling Project,Government office,Government office,"M9FR+Q53, Bappa, Madhyapur Thimi, Nepal",Madhyapur Thimi,27.6743818,85.390435,3.3,6,0,0,0,0,0,0.0,https://lh3.googleusercontent.com/gps-cs-s/AG0ilSyWp3e1C1Keq65qDaTwInV9j3mqpR3FabsbNsvXc3sKneFl7nA2tJXFSwoptOpBrrIX8Yo5PLbRKAb6vR20xqasOWu6qO4EVeqEbhUmQcb-Jh-2DGxmyx5kxhdeVr82GMIvGjLd=w426-h240-k-no,https://www.google.com/maps/search/?api=1&query=Kamerotar%20Land%20Polling%20Project&query_place_id=ChIJP8YD5hEb6zkRCzIFiLOaonQ
Shree sainik gatthagar,Government office,Government office,"M9JH+8JQ, Madhyapur Thimi 44600, Nepal",Madhyapur Thimi,27.6808316,85.3791231,0.0,0,0,0,0,0,0,0.0,https://lh3.googleusercontent.com/gps-cs-s/AG0ilSwWgCpOzL6WOzSwNfjBRHDZof6w01nlhBu2up9pr8tIoqTTgJEVgjXJId9yoYD87H_rXVcwZyvsxg1dbhIO3cRSmc7KWGofZnMPN0Mpuw_l9CVxJGilSngjKklTa-hF5yfaIwWK=w408-h544-k-no,https://www.google.com/maps/search/?api=1&query=Shree%20sainik%20gatthagar&query_place_id=ChIJoZ_xNtkb6zkR8z6tDmLNT9Q
"Changunarayan - 2 No.Ward Office, Duwakot",Government office,Government office,"MCV8+75V, Sallaghari- Duwakot Rd, Changunarayan, Nepal",Changunarayan,27.6924377,85.4150794,4.3,3,0,0,0,0,0,35.0,https://lh3.googleusercontent.com/gps-cs-s/AG0ilSx2bYfDCStyhIbhojI8KQCxmC3PLXQpdTPAf4yK_p3MyZr3Rptk9K0wZWsGfUYxefIsleZcK6PxSW9ikxQ1ndCeuJp3UiQdTk8f9_hwKbe6rCDW2TrKSfhrKTbcuLh9IcvHhRHz8BLQjUoF=w408-h544-k-no,https://www.google.com/maps/search/?api=1&query=Changunarayan%20-%202%20No.Ward%20Office%2C%20Duwakot&query_place_id=ChIJ7yBtOF8b6zkRNOMdU5x7l54
"Sub Divisional Forest Office, Bhaktapur",Government office,Government office,"MC4F+4M5, Suryabinayak, Nepal",Suryabinayak,27.6552536,85.4242499,0.0,0,0,0,0,0,0,40.0,https://lh3.googleusercontent.com/gps-cs-s/AG0ilSyQGBWPMLHEm-OIp_y7EYlYy-zR7Wakjjb2K4TX95sWDrJNI7jEwM5OiS2k8U0ImvGhTpJl5pc0XL9J2oPC3xH9r7kmWxfr5UjcTnrnpD2NS46J3B23xIAZW4w9M8L8A920CXg=w408-h544-k-no,https://www.google.com/maps/search/?api=1&query=Sub%20Divisional%20Forest%20Office%2C%20Bhaktapur&query_place_id=ChIJHRdWsGQR6zkRl77exXyDzvo
Dibyeashwori Postal Office,Government office,Government office,"M9JC+FJP, Madhyapur Thimi 44600, Nepal",Madhyapur Thimi,27.6812215,85.3715707,3.3,3,0,0,0,0,0,36.0,https://lh3.googleusercontent.com/gps-cs-s/AG0ilSymH3EBebrU_VBOVePLb0NG7Q7Cqdrir91nJJ8CqaUNb7jeI3jluxbamqowoXFRczDXUjuBJGU286MLYKZTTuK-AWe9vAB4rtLBS_Yf1o8j9OO0r1dSTChW8d7Q1xoe7HWPsGE=w408-h306-k-no,https://www.google.com/maps/search/?api=1&query=Dibyeashwori%20Postal%20Office&query_place_id=ChIJDS13yRUa6zkRp33q2zJCKJc
University Grants Commission,Government office,Government office,"M9JG+FR2, Madhyapur Thimi 44600, Nepal",Madhyapur Thimi,27.6811358,85.377024,4.0,2,0,0,0,2,0,42.0,https://lh3.googleusercontent.com/gps-cs-s/AG0ilSyqDuhq1WcR2DUlu3Sz9hjX6VST8tWI4HYVjqw1BR1P4j60DHZrppoxW7KRVc0km9Fu9nlhI2YBNCDmYWr42aI6qjEVCO6olaeRDg7qch-t4T_onhgoo9NP2reUAKiw35D1V3XhbQ=w408-h725-k-no,https://www.google.com/maps/search/?api=1&query=University%20Grants%20Commission&query_place_id=ChIJq6qq6j8a6zkRHOY319YsO2Q
National Skill Testing Board (NSTB),Government office,Government office,"M9JF+VPV, Bhaktapur Road, Madhyapur Thimi 44600, Nepal",Madhyapur Thimi,27.6820387,85.3742756,3.0,4,2,0,0,0,2,0.0,,https://www.google.com/maps/search/?api=1&query=National%20Skill%20Testing%20Board%20(NSTB)&query_place_id=ChIJMwmqghYb6zkRi8bok2QocLA
Barahi Development Committee,Government office,Government office,"MC8F+RG9, भक्तपुर मार्ग, Bhaktapur 44800, Nepal",Bhaktapur,27.6670346,85.4238543,0.0,0,0,0,0,0,0,0.0,https://streetviewpixels-pa.googleapis.com/v1/thumbnail?panoid=VfKtnCYn0Nhs10Tar_6HcA&cb_client=search.gws-prod.gps&w=408&h=240&yaw=334.4632&pitch=0&thumbfov=100,https://www.google.com/maps/search/?api=1&query=Barahi%20Development%20Committee&query_place_id=ChIJ9-H3kKYa6zkRMPhRsg1xFU8
Nepal Electricity Authority Traning center ( GUARD HOUSE ),Government office,Government office,"MFQ4+GC2, Nagarkot Road, Changunarayan, Nepal",Changunarayan,27.6887643,85.4560167,0.0,0,0,0,0,0,0,0.0,https://streetviewpixels-pa.googleapis.com/v1/thumbnail?panoid=KFOViJJeDkOOuxSLtF21hQ&cb_client=search.gws-prod.gps&w=408&h=240&yaw=179.56204&pitch=0&thumbfov=100,https://www.google.com/maps/search/?api=1&query=Nepal%20Electricity%20Authority%20Traning%20center%20(%20GUARD%20HOUSE%20)&query_place_id=ChIJo7Bis4wF6zkRLFeMsi8IU9I
Kathmandu Valley Development paradhikarana,Government office,Government office,"M9FQ+HC4, Araniko Highway, Madhyapur Thimi 44800, Nepal",Madhyapur Thimi,27.6738919,85.3885893,0.0,0,0,0,0,0,0,42.0,https://lh3.googleusercontent.com/gps-proxy/ALd4DhECT79dVkIBVUvRoUpsJSfG9i_G6NZFVaJWfHhcamObwTqzAXAmaJVE9yGSWfSMZy9CE7L1-Zb_LK0bR6p7geWuem2SGlCQo0Jxn1dhMaY49XMrLLFUmPGmQlZY-sE8FsOqMqvra_zQZeci3lHaXtvVmNt8Iu7NuyhPZFuK1R3AqEPMKnRLoRtmjilADEqyLsu0pFY=w408-h306-k-no,https://www.google.com/maps/search/?api=1&query=Kathmandu%20Valley%20Development%20paradhikarana&query_place_id=ChIJJTiB32Qa6zkRWYzHlcpAECU
जल उत्पन्न प्रकोप ब्यबस्थापन बिभाग,Government office,Government office,"MC8J+586, Suryabinayak 44800, Nepal",Suryabinayak,27.6654225,85.4307688,0.0,0,0,0,0,0,0,0.0,https://streetviewpixels-pa.googleapis.com/v1/thumbnail?panoid=bxVTDvA1rg1qnSrRZavRTw&cb_client=search.gws-prod.gps&w=408&h=240&yaw=169.55138&pitch=0&thumbfov=100,https://www.google.com/maps/search/?api=1&query=%E0%A4%9C%E0%A4%B2%20%E0%A4%89%E0%A4%A4%E0%A5%8D%E0%A4%AA%E0%A4%A8%E0%A5%8D%E0%A4%A8%20%E0%A4%AA%E0%A5%8D%E0%A4%B0%E0%A4%95%E0%A5%8B%E0%A4%AA%20%E0%A4%AC%E0%A5%8D%E0%A4%AF%E0%A4%AC%E0%A4%B8%E0%A5%8D%E0%A4%A5%E0%A4%BE%E0%A4%AA%E0%A4%A8%20%E0%A4%AC%E0%A4%BF%E0%A4%AD%E0%A4%BE%E0%A4%97&query_place_id=ChIJFf_RDqka6zkRAYCMO_jPIcE
"Inland Revenue Office, Bhaktapur",Government office,Government office,"MC8P+883, Araniko Highway, Bhaktapur 44800, Nepal",Bhaktapur,27.6657685,85.4357939,3.2,25,0,0,0,0,0,0.0,https://lh3.googleusercontent.com/gps-cs-s/AG0ilSwhKz4nUtqLGcLxbo2oddDx-wiFmAAcaoXzWsvsMg78bhuBtTsufpXJDAZ1cT_hKex_gqv4quBvleC4_0cVzWxpky87di4XbDxrTkCjIsbPTPvbL78TzjaGGPeb3eK9lP2Kv3Lo=w426-h240-k-no,https://www.google.com/maps/search/?api=1&query=Inland%20Revenue%20Office%2C%20Bhaktapur&query_place_id=ChIJH8Tj51QF6zkRQgTvsh8hGYc
Water Supply Office Bhaktapur Katunje,Government office,Government office,"MC66+XPG, F099, Suryabinayak 44800, Nepal",Suryabinayak,27.6624382,85.4118313,5.0,1,0,0,0,0,0,54.0,https://streetviewpixels-pa.googleapis.com/v1/thumbnail?panoid=ZIYuKdIaO3UaBwYwJROKzg&cb_client=search.gws-prod.gps&w=408&h=240&yaw=192.12115&pitch=0&thumbfov=100,https://www.google.com/maps/search/?api=1&query=Water%20Supply%20Office%20Bhaktapur%20Katunje&query_place_id=ChIJBRADCwAb6zkRfu6SbEQ4fJk
"FWSSMP, Bhaktapur, Suryabinayak",Government office,Government office,"MC66+XPG, F099, Suryabinayak 44800, Nepal",Suryabinayak,27.6624642,85.4119621,0.0,0,0,0,0,0,0,42.0,https://lh3.googleusercontent.com/gps-cs-s/AG0ilSzNQMlqeLtMoKeYp61uyL34SnOgvINOJdg5s4auxOC0mTyObVytKPvaCH37i9fzJMURzlZxk9fQmvfF8lDFViL_t0hKvZkTBNrJtNZmzyUx0rErzyL3foPvvvA8xiMoHMKjyZVD=w408-h544-k-no,https://www.google.com/maps/search/?api=1&query=FWSSMP%2C%20Bhaktapur%2C%20Suryabinayak&query_place_id=ChIJablRRAAb6zkRG_jdR02d9Mk
Suryabinayak Municipality office सुर्यविनायक नगरपालिका कार्यालय,Government office,Government office,"MC93+5Q6, Suryabinayak, Nepal",Suryabinayak,27.668135,85.4045498,2.5,2,0,0,0,0,0,0.0,https://lh3.googleusercontent.com/gps-cs-s/AG0ilSxpAD1nwWN5qj0dHkrFCrpESCpsZuQ78sXtH81xPGraYHonhVHT5rlBwwghhnTPnjUlKuoZAK9spvwy-xN2ivzjfd8nJnsUaaTfN4nacI7CPKxAhD80a70BTtIVXhkQtE66zqeh5ldz1DM=w408-h252-k-no,https://www.google.com/maps/search/?api=1&query=Suryabinayak%20Municipality%20office%20%E0%A4%B8%E0%A5%81%E0%A4%B0%E0%A5%8D%E0%A4%AF%E0%A4%B5%E0%A4%BF%E0%A4%A8%E0%A4%BE%E0%A4%AF%E0%A4%95%20%E0%A4%A8%E0%A4%97%E0%A4%B0%E0%A4%AA%E0%A4%BE%E0%A4%B2%E0%A4%BF%E0%A4%95%E0%A4%BE%20%E0%A4%95%E0%A4%BE%E0%A4%B0%E0%A5%8D%E0%A4%AF%E0%A4%BE%E0%A4%B2%E0%A4%AF&query_place_id=ChIJIwh3TwAb6zkREvf4wCaZ1oU
"Department Of Transport Management, Shrijana Nagar, Bhaktapur",Government office,Government office,"Shyama Shyam Dham, Nikosera, Madhyapur Thimi 44811 Araniko Highway, Madhyapur Thimi 44811, Nepal",Madhyapur Thimi,27.6738458,85.4050938,3.2,61,0,0,0,0,0,30.0,https://lh3.googleusercontent.com/gps-cs-s/AG0ilSy3QD3p_7dy1grMzpshyO08sXGq2bxb03vcizZu89pBARlBGPQcg33bzQL7hlsvbl-gsbGwK1QEQJNeKhwc4vAImit0W-2pUg8-Dd9EBmN2ociv0E_FbT74O_DAfhy8mFs1KLCJVQ=w426-h240-k-no,https://www.google.com/maps/search/?api=1&query=Department%20Of%20Transport%20Management%2C%20Shrijana%20Nagar%2C%20Bhaktapur&query_place_id=ChIJ_UtMjY8a6zkRRCMu0gcA7yA
"Police Booth, Duwakot",Government office,Government office,"MCH5+62M, Bhaktapur Road, Bhaktapur 44800, Nepal",Bhaktapur,27.6780782,85.4075502,3.5,2,0,0,0,0,0,168.0,https://streetviewpixels-pa.googleapis.com/v1/thumbnail?panoid=rVMQfwCFLrejfLhsc49u1Q&cb_client=search.gws-prod.gps&w=408&h=240&yaw=323.01132&pitch=0&thumbfov=100,https://www.google.com/maps/search/?api=1&query=Police%20Booth%2C%20Duwakot&query_place_id=ChIJ1_z665Ea6zkRXWMmYel2KfM
कोष तथा लेखा नियन्त्रण कार्यालय भक्तपुर,Government office,Government office,"MC93+3JX, Suryabinayak, Nepal",Suryabinayak,27.6677281,85.4041215,2.5,2,0,0,0,0,0,0.0,https://lh3.googleusercontent.com/gps-cs-s/AG0ilSwNMK_B3COmO1dGW110I0641Bm1a2H7OLRn4I989Eo-7b1IzITVfGmuPro9rkiDgmNJpdzG9hdk4AmZrSKpaQuzgJL8TPGn-mwriEgsFvjQgPDf3rwFnXiTz0bfgVnJbLz1lH8=w408-h906-k-no,https://www.google.com/maps/search/?api=1&query=%E0%A4%95%E0%A5%8B%E0%A4%B7%20%E0%A4%A4%E0%A4%A5%E0%A4%BE%20%E0%A4%B2%E0%A5%87%E0%A4%96%E0%A4%BE%20%E0%A4%A8%E0%A4%BF%E0%A4%AF%E0%A4%A8%E0%A5%8D%E0%A4%A4%E0%A5%8D%E0%A4%B0%E0%A4%A3%20%E0%A4%95%E0%A4%BE%E0%A4%B0%E0%A5%8D%E0%A4%AF%E0%A4%BE%E0%A4%B2%E0%A4%AF%20%E0%A4%AD%E0%A4%95%E0%A5%8D%E0%A4%A4%E0%A4%AA%E0%A5%81%E0%A4%B0&query_place_id=ChIJ-UqV4QUb6zkRmAoe4VuDeu4
"Road Division Bhaktapur, Katunje",Government office,Government office,"MC93+4H8, Bhaktapur, Nepal",Bhaktapur,27.667792,85.4039576,3.7,14,0,0,0,0,0,42.0,https://lh3.googleusercontent.com/gps-cs-s/AG0ilSyjyStUbk2VdyvXvSd47_5v0zrUuN3-t-MvMs_R67-fkw-xeERfEG_2pSWiGOMHG7rhjQ_W5wcWaU3OupOrfIHZIyKS9-d3wWvcHoTDN7ql3tU81ozE7hQWvycavFfYr3ecu51B=w408-h306-k-no,https://www.google.com/maps/search/?api=1&query=Road%20Division%20Bhaktapur%2C%20Katunje&query_place_id=ChIJdWHmh4Qa6zkRFdy907SBPhI
Bhaktapur Municipality Ward No. 3 Office,Government office,Government office,"MCCG+F7P, Bhaktapur 44800, Nepal",Bhaktapur,27.671221,85.4256939,0.0,0,0,0,0,0,0,42.0,https://lh3.googleusercontent.com/gps-cs-s/AG0ilSzEtkp9UvXxU380C71uikFpNpet9fIUR0v5EEdiYddmejdjOeglrh0vLqQKclAGcbQg_a8WU3a_Uwv1bmoK7edR61TROQ-yuikSFuhNkuvM4vtLj7EGUhlBo-_cWRNGVPX0VY0=w408-h306-k-no,https://www.google.com/maps/search/?api=1&query=Bhaktapur%20Municipality%20Ward%20No.%203%20Office&query_place_id=ChIJO7jzC6Ua6zkRK3l6B65H_84
Fine Beauty Parlour & Traning Centre,Beauty salon,Beauty salon,"MCCH+PR6, तौमादी, Bhaktapur 44800, Nepal",Bhaktapur,27.6717949,85.4295299,3.5,2,0,1,0,0,1,84.0,https://lh3.googleusercontent.com/gps-proxy/ALd4DhFwBjdoh0Nz3_TPVcGpMtBYfmAyvaZbjyY9TitPIZ06XaO6E7uzaD2ikwnb5tlOWY6UBxkAII6zIWufi3saUipMpfBM3fCSPUai-QzrOVm4m1I-2eMTzMJx4rdWZTEN-MfEpe2TRJKCrVB5ODBwSmBlQ7DLfJ0z5f3Abnzv-_dSRbjQBsq7CzhjgSTOsGPrkGOUtw=w408-h306-k-no,https://www.google.com/maps/search/?api=1&query=Fine%20Beauty%20Parlour%20%26%20Traning%20Centre&query_place_id=ChIJZ6MMsq8a6zkRGGyK4yuBKMQ
Ground Zero Beauty Parlour & Training Center,Beauty salon,Beauty salon,"MCFG+237, इताहँ सडक, Bhaktapur 44800, Nepal",Bhaktapur,27.672525,85.425185,0.0,0,0,0,0,0,0,0.0,https://streetviewpixels-pa.googleapis.com/v1/thumbnail?panoid=-Z9ej2OTnMQTvlxAJAlFFg&cb_client=search.gws-prod.gps&w=408&h=240&yaw=178.16426&pitch=0&thumbfov=100,https://www.google.com/maps/search/?api=1&query=Ground%20Zero%20Beauty%20Parlour%20%26%20Training%20Center&query_place_id=ChIJFy0dI6Ua6zkRo432wvmUuf8
Sweta Beauty Home & Training Center,Beauty salon,Beauty salon,"MC9H+J53, राम मन्दिर रोड, Bhaktapur 44800, Nepal",Bhaktapur,27.669006,85.427928,0.0,0,0,0,0,0,0,0.0,https://streetviewpixels-pa.googleapis.com/v1/thumbnail?panoid=TeODpgkZdC6VHaquJW_BXA&cb_client=search.gws-prod.gps&w=408&h=240&yaw=256.6424&pitch=0&thumbfov=100,https://www.google.com/maps/search/?api=1&query=Sweta%20Beauty%20Home%20%26%20Training%20Center&query_place_id=ChIJy5zFRK8a6zkRCXNyCf2QItU
Sarita Beauty parlor and traning Center,Beauty salon,Beauty salon,"MC8G+98X, सुर्यविनायक, Bhaktapur 44800, Nepal",Bhaktapur,27.6659873,85.4258637,5.0,2,0,0,0,0,2,84.0,https://lh3.googleusercontent.com/gps-proxy/ALd4DhGQezRo1Oo-ly9t33Ywmw3ArpP_O-u9g0vV76-vrAXGo_c513cvHcfRjK3n4-GUuP2JT4Sv2HeUodrP01Fm21MvyzUdyCAQngdS5P0FGbRXMIpijkGDYSXXEIo8-4GuR0HszLKqAcIBaryjwJeaUHzx-AyyduOfht6hvGkWE44h1BfxViMwo34Go2O8aIo-PDEhSA=w408-h306-k-no,https://www.google.com/maps/search/?api=1&query=Sarita%20Beauty%20parlor%20and%20traning%20Center&query_place_id=ChIJ3zf5RqYa6zkRTOJoo5cXdS8
एलिगेन्स ब्युटी पार्लर एण्ड टे्र्‍निङ्ग सेन्टर,Beauty salon,Beauty salon,"MC9H+J5G, बोलाछें सडक, Bhaktapur 44800, Nepal",Bhaktapur,27.6690692,85.4279485,0.0,0,0,0,0,0,0,63.0,https://lh3.googleusercontent.com/gps-proxy/ALd4DhHYOUGFFDDLMl6bdVZ7y0Y6kQQ3fxg2cGfDv83vzQmB3Ol71Qd-T1dgNFyCvvufxe1HSYqH5tVskJJ45k20uHR_chIX8vvciFDc43muHwZGOfB5sQy5mTMm6Eu5ZZqO0Cnbfr6x8ISCCzgBc5JlT6uIhsrYeDekRN211Z-pBPqkFcMgjRx7p0M_EDkEyh4ctcW4TkU=w408-h306-k-no,https://www.google.com/maps/search/?api=1&query=%E0%A4%8F%E0%A4%B2%E0%A4%BF%E0%A4%97%E0%A5%87%E0%A4%A8%E0%A5%8D%E0%A4%B8%20%E0%A4%AC%E0%A5%8D%E0%A4%AF%E0%A5%81%E0%A4%9F%E0%A5%80%20%E0%A4%AA%E0%A4%BE%E0%A4%B0%E0%A5%8D%E0%A4%B2%E0%A4%B0%20%E0%A4%8F%E0%A4%A3%E0%A5%8D%E0%A4%A1%20%E0%A4%9F%E0%A5%87%E0%A5%8D%E0%A4%B0%E0%A5%8D%E2%80%8D%E0%A4%A8%E0%A4%BF%E0%A4%99%E0%A5%8D%E0%A4%97%20%E0%A4%B8%E0%A5%87%E0%A4%A8%E0%A5%8D%E0%A4%9F%E0%A4%B0&query_place_id=ChIJHSWeRK8a6zkRjgneFGeteOs
Duwakot City Banquet,Banquet hall,Banquet hall,"Duwakot VDC, Sallaghari- Duwakot Rd, Changunarayan, Nepal",Changunarayan,27.6870603,85.4122556,4.1,78,0,0,0,0,0,105.5,https://lh3.googleusercontent.com/gps-cs-s/AG0ilSwSP0RinkD1afbS0ub79rRg9AA-jL-Q8LebXFdWPKs7M51IaITHUyTFIOE_mX-oTAbIF8XOHoxNNW15hmNqWuJrRpmgxWudUzJYhokvvD95DGLgkAWZHtjRdt0Wf6OtF_ViA1rDyA=w546-h240-k-no,https://www.google.com/maps/search/?api=1&query=Duwakot%20City%20Banquet&query_place_id=ChIJhdFU6dcb6zkRVSwZ1JM_0xg
Ittachhen,Gym,Gym,"MCCF+RR9, Bhaktapur 44800, Nepal",Bhaktapur,27.6720418,85.4246034,0.0,0,0,0,0,0,0,0.0,https://streetviewpixels-pa.googleapis.com/v1/thumbnail?panoid=8uU4Du8-vz0yEu07GIGdwQ&cb_client=search.gws-prod.gps&w=408&h=240&yaw=63.268936&pitch=0&thumbfov=100,https://www.google.com/maps/search/?api=1&query=Ittachhen&query_place_id=ChIJYaoeXnMb6zkRRnQDgzjPFj0
Luniva's Fitness,Gym,Gym,"MCGP+M2M, Bhaktapur 44800, Nepal",Bhaktapur,27.6767221,85.435053,3.7,7,1,0,0,5,1,84.0,https://lh3.googleusercontent.com/gps-cs-s/AG0ilSy4kYFmIBUySAvA8vnMIJdP5y0wfT3kUGJw20_pgK9xOrl0m50qo5wcuAsEeM6a-gj3lx4rZR_NO_pAqGk0HTbywXhHmJ2gzPxpDQafyvVs7l6-mrlnC516_mx1uvM9UW2IdB6i=w408-h269-k-no,https://www.google.com/maps/search/?api=1&query=Luniva's%20Fitness&query_place_id=ChIJYxTOhIIb6zkR1EnRG-mEerE
Ajima dahi vandar,Gym,Gym,"MCFH+R7C, The tourist bus park, 44800, Nepal",Bhaktapur,27.6745571,85.4281363,3.3,3,1,0,0,1,1,0.0,https://streetviewpixels-pa.googleapis.com/v1/thumbnail?panoid=q-lGvc7XihL4sZ755xST7Q&cb_client=search.gws-prod.gps&w=408&h=240&yaw=357.49777&pitch=0&thumbfov=100,https://www.google.com/maps/search/?api=1&query=Ajima%20dahi%20vandar&query_place_id=ChIJDY-_17ob6zkR4ts2TZXjNQs
Club Desparado Gym & Zumba,Gym,Gym,"MCGG+2PQ Byasi, Bhaktapur 44800, Nepal",Bhaktapur,27.6750858,85.4268628,4.3,18,0,0,0,0,0,90.0,https://streetviewpixels-pa.googleapis.com/v1/thumbnail?panoid=lmTbctmTGQ4pOeyN7y1P3A&cb_client=search.gws-prod.gps&w=408&h=240&yaw=333.19235&pitch=0&thumbfov=100,https://www.google.com/maps/search/?api=1&query=Club%20Desparado%20Gym%20%26%20Zumba&query_place_id=ChIJ6xBsb9ob6zkRRTRaaY1SzFY
Tripurasundari Gymnastics Hall,Gym,Gym,"MCFJ+428, Bhaktapur 44800, Nepal",Bhaktapur,27.6727873,85.4300842,5.0,4,0,0,0,0,0,0.0,https://lh3.googleusercontent.com/gps-cs-s/AG0ilSwl2gfXQ7m_24CZjyZ0sf_aLAp9qpcSdupiokKQX4IE3RNrWFLb5aVFPGOewneQEFyWRoyUZuMfstzxpUb8U7YPFGnnvDOFx_klbEk6bfQPcH8f9s8XZcPv8cbBdkpYL7z8hzlf=w408-h306-k-no,https://www.google.com/maps/search/?api=1&query=Tripurasundari%20Gymnastics%20Hall&query_place_id=ChIJw5RNNK4a6zkRg2D0-Eao_ZQ
Maheshwari Open Gym Garden,Gym,Gym,"MCCP+763 Maheshwari Temple, Bhaktapur 44800, Nepal",Bhaktapur,27.6706307,85.4355555,4.7,3,0,0,0,0,0,0.0,https://lh3.googleusercontent.com/gps-cs-s/AG0ilSw9OmNxNKpkNoreemaXvHaK5RSB5rp6fC3ULiAFh_Z6B412nN3fRNRYQCFhlFobyl3LB-xeil6QKmKbx33sOkLkwX38EUZnjN67er6OpQa2zjcQKMcL5-g9dyqdUcIkeNBwj3m5=w426-h240-k-no,https://www.google.com/maps/search/?api=1&query=Maheshwari%20Open%20Gym%20Garden&query_place_id=ChIJbzdDQGYb6zkRk2AIacQWVbg
Mulkdhoka,Gym,Gym,"MCGM+MX7, Jagati-KamalBinayak Rd, Bhaktapur 44800, Nepal",Bhaktapur,27.6766728,85.4349274,0.0,0,0,0,0,0,0,0.0,https://streetviewpixels-pa.googleapis.com/v1/thumbnail?panoid=gIAtCesO40k5-9EdVNGXag&cb_client=search.gws-prod.gps&w=408&h=240&yaw=347.07697&pitch=0&thumbfov=100,https://www.google.com/maps/search/?api=1&query=Mulkdhoka&query_place_id=ChIJTUpr3WQb6zkRXLOqTDWd35g
Lion Physical Fitness,Gym,Gym,"MCCQ+7G9, Bhaktapur 44800, Nepal",Bhaktapur,27.6707145,85.4388469,4.5,12,0,0,0,0,0,87.0,https://lh3.googleusercontent.com/gps-cs-s/AG0ilSwRbqBFu1_yfmMpk4A-m3jXgo_xAfBPYBcN8UY9kb2YyoafJkYngEWSEAAz2718P1njwvyKeEkHZO9oFkxb6yTZFUZpRwgdgUZ_HmP5GhRMP-Pwex8lKhAlfnJtzY2a56TwHkv0iQ=w408-h306-k-no,https://www.google.com/maps/search/?api=1&query=Lion%20Physical%20Fitness&query_place_id=ChIJTXrlod0F6zkRqbX1RybmJ_k
Gymcha,Gym,Gym,"MC8G+VPC, Bhaktapur 44800, Nepal",Bhaktapur,27.6671531,85.427496,4.7,58,0,0,0,0,0,168.0,https://lh3.googleusercontent.com/gps-cs-s/AG0ilSwOAZfgLxB6oVFDEHwyWy5GXDXPUWBB48VsvB-t6xTKn-YzQ4gi6aRnOwG4cGypibOvkZj-KqtNN9N7zgm2u2Mu2NwoAxfaUrkW9Ea4C5yqyoPQ88B22GGqkBWx8TpXmFUqICSd=w408-h544-k-no,https://www.google.com/maps/search/?api=1&query=Gymcha&query_place_id=ChIJzRs5qpUb6zkRHSUxQS5-PrU
Active Gym,Gym,Gym,"MCHQ+73W, Nagarkot Rd, Bhaktapur 44800, Nepal",Bhaktapur,27.678232,85.4376925,3.1,14,0,0,0,0,0,87.0,https://lh3.googleusercontent.com/gps-cs-s/AG0ilSxqLznggHObrkhEIpUC4ok-riPFGg-rGk-EmCdDpDjyUVbIXqfCc1KcPrRHxnckObGBIs_x31SlpQk_u5APQ2Gv5iB5oDnfYbPmHSZdCvO3yDBkL-tCUssU8WH_np69uTBaEuua=w408-h544-k-no,https://www.google.com/maps/search/?api=1&query=Active%20Gym&query_place_id=ChIJ716AzEwF6zkRjYO4h1Pk_JQ
Oxygen Physical FItness,Gym,Gym,"MC8P+XXV, Jagati-KamalBinayak Rd, Bhaktapur 44800, Nepal",Bhaktapur,27.6674892,85.4374257,4.3,12,0,0,0,0,0,0.0,https://streetviewpixels-pa.googleapis.com/v1/thumbnail?panoid=cxitWAP27fM3uUFuN1S4dg&cb_client=search.gws-prod.gps&w=408&h=240&yaw=106.52129&pitch=0&thumbfov=100,https://www.google.com/maps/search/?api=1&query=Oxygen%20Physical%20FItness&query_place_id=ChIJ3QDTenEb6zkRGLIS46NIMig
Grind'On Strength & Fitness,Gym,Gym,"MCF5+8R6, Bhaktapur 44800, Nepal",Bhaktapur,27.6735146,85.409604,4.9,192,0,0,0,0,0,84.0,https://lh3.googleusercontent.com/p/AF1QipPKXE0SEbNXUkw4RezQZLcYz1YBdBtZaW_jE2rj=w408-h306-k-no,https://www.google.com/maps/search/?api=1&query=Grind'On%20Strength%20%26%20Fitness&query_place_id=ChIJ4wbdmVob6zkRcL1UgXbUIww
Flex Anytime Fitness,Gym,Gym,"MC96+HX6, Araniko Highway, Bhaktapur 44800, Nepal",Bhaktapur,27.6687796,85.4124847,4.6,16,0,0,0,0,0,98.5,https://lh3.googleusercontent.com/gps-cs-s/AG0ilSzaYSwoWLGwWMc5Xn6qd0nOMgavVlQrv5-T-MJwINm3ioknH7QYA26Z-svZae3FWG1ZTPOSsqgURkpTUTxD2S16fO6WbElHFM_8ctOsfmQaYnTXcmeIQTgNAbXijGOq8rrekFBv=w426-h240-k-no,https://www.google.com/maps/search/?api=1&query=Flex%20Anytime%20Fitness&query_place_id=ChIJJ_-ys4Mb6zkRGlCyaqhvV7s
Skova Fitness,Gym,Gym,"M9RM+6X8, Dhunche Rd, Madhyapur Thimi 44600, Nepal",Madhyapur Thimi,27.690537,85.3849422,5.0,9,0,0,0,0,0,105.0,https://lh3.googleusercontent.com/gps-cs-s/AG0ilSyDeWKbPh8ydXshrRvq8egCTv5rUthOK5Y9HCWuOn0ZxmOoRjgsgt9fW7eclASHxiK8206PNUuC5APL6Sis-5jBACunnv2Fub5zA4Acya4ww9MkELzuEJiBAXMPKyFXq164xCnEnAS3JrUT=w408-h306-k-no,https://www.google.com/maps/search/?api=1&query=Skova%20Fitness&query_place_id=ChIJp-HaRAAb6zkRk3Ia6vvIEEg
Gymtaar,Gym,Gym,"Harhar mahadev, Kadaghari, Kathmandu 44600, Nepal",Kathmandu,27.6962486,85.3791994,4.8,109,0,0,0,0,0,90.0,https://lh3.googleusercontent.com/gps-cs-s/AG0ilSxGfUd9mq1WQHs5Vck3K2BCexlqIdvs5LZIkv5SiSFrWGglQnnig8icOKNjLdeLQhygnhA0VTjdGXt_OordrqqU65a_QbmvnWwf33b1SW-DsiQI1sX6oP1R1WVtqzD4wHpAER3xiQ=w408-h544-k-no,https://www.google.com/maps/search/?api=1&query=Gymtaar&query_place_id=ChIJpekan-8b6zkRfByl4DYRqrQ
Fitness Evolution,Gym,Gym,"Madhyapur Thimi, Nepal",Madhyapur Thimi,27.6740433,85.3885384,4.4,48,0,0,0,0,0,90.0,https://lh3.googleusercontent.com/gps-cs-s/AG0ilSyiTVwDMBmZE2c7eVeQhe1-Tso2K11TSrk5Lt9PRl6FxgWHMZSlQr__fl-3U--v4m2f16nkVUm2qQWP4J9anT1SjqTpevX-hoW5clHQ1feXL-s0JfKCiP24oz9bdmxXUGG0kBfXHg=w426-h240-k-no,https://www.google.com/maps/search/?api=1&query=Fitness%20Evolution&query_place_id=ChIJ-X1MqrAb6zkRS68fQFlDI34
Gym Go Fit,Gym,Gym,"Amar Hall Park, Anantalingeshwar, Nepal",Anantalingeshwar,27.669819,85.3852254,4.6,70,0,0,0,0,0,0.0,https://lh3.googleusercontent.com/gps-cs-s/AG0ilSyNv1E3tGCOLKbWjakRqtQiGhDFWjDvcXUek1NZkkWD3TaY1zkhD-dXqsgA5gRXOZQsBNrQuPXxpXTmbIg3MG9klszuiM30_DP2DvpdWAUCZBmjQNQVsBa3x5mF5avlPraILHcz=w408-h544-k-no,https://www.google.com/maps/search/?api=1&query=Gym%20Go%20Fit&query_place_id=ChIJPy0fOMQb6zkRaqiGtF-YjrQ
Iron Echo Gym,Gym,Gym,"Kadaghari Medical chowk, Kathmandu 44600, Nepal",Kathmandu,27.6956099,85.3739245,3.4,5,0,0,0,0,0,0.0,https://lh3.googleusercontent.com/p/AF1QipNKNLUPjL8uRFtz7zltG_mFC3QcA9wrNHu5aF8W=w408-h306-k-no,https://www.google.com/maps/search/?api=1&query=Iron%20Echo%20Gym&query_place_id=ChIJQZPJ1hMZ6zkR23qmE7wAU70
ENERGY FITNESS GYM,Gym,Gym,"Balkot, Balakot, Nepal",Balakot,27.6641055,85.3673229,4.7,68,0,0,0,0,0,112.0,https://lh3.googleusercontent.com/p/AF1QipPWHkztUMOMV5iyitwUZHYTHatJLaiwCWpNmYo=w408-h544-k-no,https://www.google.com/maps/search/?api=1&query=ENERGY%20FITNESS%20GYM&query_place_id=ChIJESTUNhEb6zkRcoIeEANyaV8
Alctron Gym,Gym,Gym,"Bhaktapur 44800, Nepal",Bhaktapur,27.6756617,85.3740391,4.6,36,0,0,0,0,0,0.0,https://lh3.googleusercontent.com/p/AF1QipMO6__jm7O5uys-HTMpst-QJIP6pd05uJAlzYx6=w408-h306-k-no,https://www.google.com/maps/search/?api=1&query=Alctron%20Gym&query_place_id=ChIJ4bd9uLYb6zkR-UuSbez91UQ
"Open GYM Facilities - Bishnu kundol, Thimi",Gym,Gym,"M9GM+WG3, Madhyapur Thimi 44600, Nepal",Madhyapur Thimi,27.6771554,85.3836358,5.0,1,0,0,0,0,0,168.0,https://lh3.googleusercontent.com/gps-cs-s/AG0ilSyvBEcmdsJUAChr7vPwSfLlIutkllykJD0HpB2yBAiDxkWbuOtENMrOJGNqVk54em9ViB26i4RkfLxIwGi9JoqLzldaHB-soZvrTSiWxnyNIsicFDk0NgE0_xOUdYZV_vt7b-Tim6cX50DF=w408-h306-k-no,https://www.google.com/maps/search/?api=1&query=Open%20GYM%20Facilities%20-%20Bishnu%20kundol%2C%20Thimi&query_place_id=ChIJjxnzIwAb6zkRs74kXBi0Dlc
Gym Junkies,Gym,Gym,"10 Jagati-KamalBinayak Rd, Bhaktapur 44800, Nepal",Bhaktapur,27.6773436,85.4404356,4.9,64,0,0,0,0,0,101.0,https://lh3.googleusercontent.com/gps-cs-s/AG0ilSz-EJ2zcDF6P5pslisnF0eq2JApSbpGpdhbHNx9wl82UzMH5ABFb_-CHw1o2m5_wokhYrfypG_ZTUSXLc37HMNoc6V74AvhwbXU-QuMo5wSJ9QoZmR-zZM0_vRw1yh4w1B_vN1Y=w408-h544-k-no,https://www.google.com/maps/search/?api=1&query=Gym%20Junkies&query_place_id=ChIJn93wkxQb6zkRICU59aQIY9Y
Gym Hall (Radhe Radhe),Gym,Gym,"M9GX+MGH, Unnamed Road, Madhyapur Thimi, Nepal",Madhyapur Thimi,27.676697,85.3988702,4.5,10,0,0,0,0,0,109.08,https://lh3.googleusercontent.com/gps-cs-s/AG0ilSyH1rZsDAR0wfF2qjL6ryX6eCy2y-1d7SD_64LGcgit4XZKo_hELMboNoGM1rkExdVtOH1boL27OzReR8Sha9p60_fAHS1PKH1pyhMVEprZ9_Pe6cEiFXQoC8XswlJGs6oxehokYw=w683-h240-k-no,https://www.google.com/maps/search/?api=1&query=Gym%20Hall%20(Radhe%20Radhe)&query_place_id=ChIJw1z5GiUb6zkRpNi9stkBCfQ
Gymcha Radhe Radhe,Gym,Gym,"AITC St, Bhaktapur, Nepal",Bhaktapur,27.6787885,85.3972428,4.5,15,0,0,0,0,0,95.5,https://lh3.googleusercontent.com/gps-cs-s/AG0ilSyhYRb4HxkX_6yMExfZdlpdp288-kJUAutKiBnRz42Te_Og14XmHS8W8qze14rFD4Rn1gztK7n7O5axZnpTZuK8qHGrJ8DeW6dyo-aZ-J_EaA4uoddA8CkAoYX4cpmOGqle5kGdLUVcRySd=w408-h544-k-no,https://www.google.com/maps/search/?api=1&query=Gymcha%20Radhe%20Radhe&query_place_id=ChIJ-Qj2BoMb6zkRjpUdWN2V1Nc
Universal Physical Fitness,Gym,Gym,"M9GW+RJ3, Radhe Radhe Rd, Madhyapur Thimi, Nepal",Madhyapur Thimi,27.6774769,85.3962145,5.0,2,0,0,0,0,2,93.0,https://lh3.googleusercontent.com/p/AF1QipM0nvqjGi2iB4mGucpTozA-DBVp4k0T3K01Mx8r=w408-h725-k-no,https://www.google.com/maps/search/?api=1&query=Universal%20Physical%20Fitness&query_place_id=ChIJRV6XNwAb6zkRFBbyKE3HXws
Ghamcha,Gym,Gym,"M9GX+V7G, Radhe Radhe Rd, Madhyapur Thimi, Nepal",Madhyapur Thimi,27.6771892,85.3982044,0.0,0,0,0,0,0,0,0.0,,https://www.google.com/maps/search/?api=1&query=Ghamcha&query_place_id=ChIJwVSlDgAb6zkRP2ynTcSWZ1k
Ujwal Gym And Zumba,Gym,Gym,"MCHR+8Q7 Lancha falcha, Bhaktapur 44800, Nepal",Bhaktapur,27.6782831,85.4419063,4.6,9,0,0,0,0,0,96.0,https://lh3.googleusercontent.com/gps-cs-s/AG0ilSyQIdmlDHEnCqYDYchP5nf89lI6l-I_1Oy-HsugSRgPb2uuYxFuyBL0POBnrsS17D7fJ_DMH507qMvglhaZy0AKXBamCxLNsvm82LJvFR4OtxY9viBwmfi5HTmSk0qywaDz1Twn=w408-h306-k-no,https://www.google.com/maps/search/?api=1&query=Ujwal%20Gym%20And%20Zumba&query_place_id=ChIJM0LbwWUF6zkRwdhx9Q5JHG4
Tiger gym House tathali,Gym,Gym,"MF9C+CHF, Bhaktapur Nala Rd, Mahamanjushree Nagarkot, Nepal",Mahamanjushree Nagarkot,27.6686108,85.4714833,0.0,0,0,0,0,0,0,0.0,https://streetviewpixels-pa.googleapis.com/v1/thumbnail?panoid=K4cemYpl1yNI2VEh2uNAOQ&cb_client=search.gws-prod.gps&w=408&h=240&yaw=349.64536&pitch=0&thumbfov=100,https://www.google.com/maps/search/?api=1&query=Tiger%20gym%20House%20tathali&query_place_id=ChIJy5-5BQAF6zkRuPR_O2cOFQc
Madhyapur VR Fitness,Gym,Gym,"Anantalingeshwar, Nepal",Anantalingeshwar,27.6686633,85.3849639,4.2,11,0,0,0,0,0,96.0,https://lh3.googleusercontent.com/p/AF1QipOSU-RFrJM75hvywTpn5BYZ2PqFQOtKZq6qLBNY=w408-h676-k-no,https://www.google.com/maps/search/?api=1&query=Madhyapur%20VR%20Fitness&query_place_id=ChIJRR9PPzUb6zkRiaw20Q7QtbI
