[
  {
    "title": "Unity thangka",
    "price": null,
    "categoryName": "Art school",
    "address": "MCFM+6VC, Bhaktapur 44800, Nepal",
    "neighborhood": null,
    "street": "MCFM+6VC",
    "city": "Bhaktapur",
    "postalCode": null,
    "state": null,
    "countryCode": "NP",
    "phone": "+977 984-1580068",
    "phoneUnformatted": "+9779841580068",
    "claimThisBusiness": true,
    "location": {
      "lat": 27.6730727,
      "lng": 85.4346271
    },
    "totalScore": 5,
    "permanentlyClosed": false,
    "temporarilyClosed": false,
    "placeId": "ChIJMQoDMvYb6zkRY-A2FmQGoDs",
    "categories": [
      "Art school"
    ],
    "fid": "0x39eb1bf632030a31:0x3ba006641636e063",
    "cid": "4296441071450644579",
    "reviewsCount": 1,
    "reviewsDistribution": {
      "oneStar": 0,
      "twoStar": 0,
      "threeStar": 0,
      "fourStar": 0,
      "fiveStar": 1
    },
    "imagesCount": 5,
    "imageCategories": [],
    "scrapedAt": "2025-11-14T08:13:34.373Z",
    "googleFoodUrl": null,
    "hotelAds": [],
    "openingHours": [],
    "peopleAlsoSearch": [],
    "placesTags": [],
    "reviewsTags": [],
    "additionalInfo": {
      "Children": [
        {
          "Good for kids": true
        }
      ]
    },
    "gasPrices": [],
    "url": "https://www.google.com/maps/search/?api=1&query=Unity%20thangka&query_place_id=ChIJMQoDMvYb6zkRY-A2FmQGoDs",
    "searchPageUrl": "https://www.google.com/maps/search/school/@27.67530454090198,85.43009086349416,17z?hl=en",
    "searchString": "school",
    "language": "en",
    "rank": 53,
    "isAdvertisement": false,
    "imageUrl": "https://lh3.googleusercontent.com/gps-cs-s/AG0ilSzFU9-8SVc71TCnjzNSEj2Hbk_Aatb9FyeJwUu_5G873V53gjLkzCIAZcKu8Aq6WPUVup5lWmO0NtQnn6CApGExwiUIUwKKAQtKBRKmzcD2nlxIYUTCx2_fjm62O4MK2FeVgaU=w408-h725-k-no",
    "kgmid": "/g/11fct0_z_5"
  },
  {
    "title": "Bajrala Thangka Painting School",
    "price": null,
    "categoryName": "Art school",
    "address": "Bhaktapur-10, Balakhu, Bhaktapur 44802, Nepal",
    "neighborhood": null,
    "street": "Bhaktapur-10, Balakhu",
    "city": "Bhaktapur",
    "postalCode": "44802",
    "state": null,
    "countryCode": "NP",
    "phone": "+977 981-8116955",
    "phoneUnformatted": "+9779818116955",
    "claimThisBusiness": false,
    "location": {
      "lat": 27.6725729,
      "lng": 85.4292055
    },
    "totalScore": 5,
    "permanentlyClosed": false,
    "temporarilyClosed": false,
    "placeId": "ChIJzRnhx68a6zkRxex26Dbmo68",
    "categories": [
      "Art school"
    ],
    "fid": "0x39eb1aafc7e119cd:0xafa3e636e876ecc5",
    "cid": "12656212501343956165",
    "reviewsCount": 8,
    "reviewsDistribution": {
      "oneStar": 0,
      "twoStar": 0,
      "threeStar": 0,
      "fourStar": 0,
      "fiveStar": 8
    },
    "imagesCount": 7,
    "imageCategories": [],
    "scrapedAt": "2025-11-14T08:13:34.374Z",
    "googleFoodUrl": null,
    "hotelAds": [],
    "openingHours": [
      {
        "day": "Monday",
        "hours": "8 AM to 8 PM"
      },
      {
        "day": "Tuesday",
        "hours": "8 AM to 8 PM"
      },
      {
        "day": "Wednesday",
        "hours": "8 AM to 8 PM"
      },
      {
        "day": "Thursday",
        "hours": "8 AM to 8 PM"
      },
      {
        "day": "Friday",
        "hours": "8 AM to 8 PM"
      },
      {
        "day": "Saturday",
        "hours": "8 AM to 8 PM"
      },
      {
        "day": "Sunday",
        "hours": "8 AM to 8 PM"
      }
    ],
    "peopleAlsoSearch": [],
    "placesTags": [],
    "reviewsTags": [],
    "gasPrices": [],
    "url": "https://www.google.com/maps/search/?api=1&query=Bajrala%20Thangka%20Painting%20School&query_place_id=ChIJzRnhx68a6zkRxex26Dbmo68",
    "searchPageUrl": "https://www.google.com/maps/search/school/@27.67530454090198,85.43009086349416,17z?hl=en",
    "searchString": "school",
    "language": "en",
    "rank": 55,
    "isAdvertisement": false,
    "imageUrl": "https://lh3.googleusercontent.com/gps-cs-s/AG0ilSyHTbzFI3bGouxOGLiGw7K0RC66pEGal8__BAR1JgHJxem5znQwlfSZcuqqYiIUtJqa3ymt0tICi3LTb9LfjUMZ_VhjgtTPuRMOXegaJg3esdnuzV10qCCFNsXeK7ZCReIRfNRg=w408-h304-k-no",
    "kgmid": "/g/11b7lgyknh"
  },
  {
    "title": "Historical Thangku Art School",
    "price": null,
    "categoryName": "Art school",
    "address": "MCFM+7W6, Bhaktapur 44800, Nepal",
    "neighborhood": null,
    "street": "MCFM+7W6",
    "city": "Bhaktapur",
    "postalCode": "44800",
    "state": null,
    "countryCode": "NP",
    "phone": "+977 1-6613291",
    "phoneUnformatted": "+97716613291",
    "claimThisBusiness": true,
    "location": {
      "lat": 27.6731633,
      "lng": 85.4347781
    },
    "permanentlyClosed": false,
    "temporarilyClosed": false,
    "placeId": "ChIJn7F0nK0a6zkRWb9mlqS74F4",
    "categories": [
      "Art school"
    ],
    "fid": "0x39eb1aad9c74b19f:0x5ee0bba49666bf59",
    "cid": "6836670549920759641",
    "reviewsCount": 0,
    "imagesCount": 8,
    "imageCategories": [],
    "scrapedAt": "2025-11-14T08:13:34.374Z",
    "googleFoodUrl": null,
    "hotelAds": [],
    "openingHours": [
      {
        "day": "Monday",
        "hours": "9 AM to 6 PM"
      },
      {
        "day": "Tuesday",
        "hours": "9 AM to 6 PM"
      },
      {
        "day": "Wednesday",
        "hours": "9 AM to 6 PM"
      },
      {
        "day": "Thursday",
        "hours": "9 AM to 6 PM"
      },
      {
        "day": "Friday",
        "hours": "9 AM to 6 PM"
      },
      {
        "day": "Saturday",
        "hours": "9 AM to 6 PM"
      },
      {
        "day": "Sunday",
        "hours": "9 AM to 6 PM"
      }
    ],
    "peopleAlsoSearch": [],
    "placesTags": [],
    "reviewsTags": [],
    "additionalInfo": {
      "Children": [
        {
          "Good for kids": true
        }
      ]
    },
    "gasPrices": [],
    "url": "https://www.google.com/maps/search/?api=1&query=Historical%20Thangku%20Art%20School&query_place_id=ChIJn7F0nK0a6zkRWb9mlqS74F4",
    "searchPageUrl": "https://www.google.com/maps/search/school/@27.67530454090198,85.43009086349416,17z?hl=en",
    "searchString": "school",
    "language": "en",
    "rank": 57,
    "isAdvertisement": false,
    "imageUrl": "https://lh3.googleusercontent.com/gps-cs-s/AG0ilSxOWsJDuoxk7GHBq9IZE_3xqLqO00vH8oBvad_eEKXan92M0euEwdc0Ec2vm930qct0ZfWn-jp2iQ5cCv9Uuhhi_M8btByKeNuLQTfmpzPFJ8TiuLo2vGBdhGdXSAfqngHYPHo=w408-h302-k-no",
    "kgmid": "/g/11b6skz4jp"
  },
  {
    "title": "Traditional Thanka Painting School",
    "price": null,
    "categoryName": "Art school",
    "address": "MCFH+3WF, बलाखु, Bhaktapur 44800, Nepal",
    "neighborhood": null,
    "street": "MCFH+3WF, बलाखु",
    "city": "Bhaktapur",
    "postalCode": "44800",
    "state": null,
    "countryCode": "NP",
    "phone": "+977 984-1322279",
    "phoneUnformatted": "+9779841322279",
    "claimThisBusiness": true,
    "location": {
      "lat": 27.672697,
      "lng": 85.429784
    },
    "totalScore": 4.7,
    "permanentlyClosed": false,
    "temporarilyClosed": false,
    "placeId": "ChIJb2svy68a6zkR5m6ZvDV01kQ",
    "categories": [
      "Art school"
    ],
    "fid": "0x39eb1aafcb2f6b6f:0x44d67435bc996ee6",
    "cid": "4960279813741440742",
    "reviewsCount": 3,
    "reviewsDistribution": {
      "oneStar": 0,
      "twoStar": 0,
      "threeStar": 0,
      "fourStar": 1,
      "fiveStar": 2
    },
    "imagesCount": 47,
    "imageCategories": [],
    "scrapedAt": "2025-11-14T08:13:34.374Z",
    "googleFoodUrl": null,
    "hotelAds": [],
    "openingHours": [
      {
        "day": "Monday",
        "hours": "10 AM to 6 PM"
      },
      {
        "day": "Tuesday",
        "hours": "10 AM to 6 PM"
      },
      {
        "day": "Wednesday",
        "hours": "10 AM to 6 PM"
      },
      {
        "day": "Thursday",
        "hours": "10 AM to 6 PM"
      },
      {
        "day": "Friday",
        "hours": "10 AM to 6 PM"
      },
      {
        "day": "Saturday",
        "hours": "10 AM to 6 PM"
      },
      {
        "day": "Sunday",
        "hours": "10 AM to 6 PM"
      }
    ],
    "peopleAlsoSearch": [],
    "placesTags": [],
    "reviewsTags": [],
    "additionalInfo": {
      "Children": [
        {
          "Good for kids": true
        }
      ]
    },
    "gasPrices": [],
    "url": "https://www.google.com/maps/search/?api=1&query=Traditional%20Thanka%20Painting%20School&query_place_id=ChIJb2svy68a6zkR5m6ZvDV01kQ",
    "searchPageUrl": "https://www.google.com/maps/search/school/@27.67530454090198,85.43009086349416,17z?hl=en",
    "searchString": "school",
    "language": "en",
    "rank": 60,
    "isAdvertisement": false,
    "imageUrl": "https://lh3.googleusercontent.com/gps-cs-s/AG0ilSwjc5SuXwObmhU1nLtC7sL_NR6UASlm2gesYuTw-RxlTPEpRjebdwyO3XZ1QGMAkYUcqb3KrM0fQkGoS9QZ9s21vDLuF6ksEFiqq_YLisHi1yc2TzfNrtfRCieX9tMjxhREGls=w426-h240-k-no",
    "kgmid": "/g/11b6pthp3w"
  },
  {
    "title": "Geniune Thanka Painting School",
    "price": null,
    "categoryName": "Art school",
    "address": "MCCH+24R, Pottery Square Road, Bhaktapur 44800, Nepal",
    "neighborhood": null,
    "street": "MCCH+24R, Pottery Square Road",
    "city": "Bhaktapur",
    "postalCode": "44800",
    "state": null,
    "countryCode": "NP",
    "phone": "+977 1-6615379",
    "phoneUnformatted": "+97716615379",
    "claimThisBusiness": true,
    "location": {
      "lat": 27.6701003,
      "lng": 85.4277698
    },
    "totalScore": 5,
    "permanentlyClosed": false,
    "temporarilyClosed": false,
    "placeId": "ChIJKxexZa8a6zkR-vh2jjAjTYY",
    "categories": [
      "Art school"
    ],
    "fid": "0x39eb1aaf65b1172b:0x864d23308e76f8fa",
    "cid": "9677429865744627962",
    "reviewsCount": 5,
    "reviewsDistribution": {
      "oneStar": 0,
      "twoStar": 0,
      "threeStar": 0,
      "fourStar": 0,
      "fiveStar": 5
    },
    "imagesCount": 11,
    "imageCategories": [],
    "scrapedAt": "2025-11-14T08:13:59.547Z",
    "googleFoodUrl": null,
    "hotelAds": [],
    "openingHours": [
      {
        "day": "Monday",
        "hours": "9 AM to 5:15 PM"
      },
      {
        "day": "Tuesday",
        "hours": "9 AM to 5:15 PM"
      },
      {
        "day": "Wednesday",
        "hours": "9 AM to 5:15 PM"
      },
      {
        "day": "Thursday",
        "hours": "9 AM to 5:15 PM"
      },
      {
        "day": "Friday",
        "hours": "9 AM to 5:15 PM"
      },
      {
        "day": "Saturday",
        "hours": "Closed"
      },
      {
        "day": "Sunday",
        "hours": "9 AM to 5:15 PM"
      }
    ],
    "peopleAlsoSearch": [],
    "placesTags": [],
    "reviewsTags": [],
    "additionalInfo": {
      "Children": [
        {
          "Good for kids": true
        }
      ]
    },
    "gasPrices": [],
    "url": "https://www.google.com/maps/search/?api=1&query=Geniune%20Thanka%20Painting%20School&query_place_id=ChIJKxexZa8a6zkR-vh2jjAjTYY",
    "searchPageUrl": "https://www.google.com/maps/search/school/@27.667695459098024,85.42150000000001,17z?hl=en",
    "searchString": "school",
    "language": "en",
    "rank": 54,
    "isAdvertisement": false,
    "imageUrl": "https://lh3.googleusercontent.com/gps-cs-s/AG0ilSzQXaacWp1o8Jj6vyhGriVL0s-Fq-_YjUrW2461qerk9YZ7QyJyjI2Pjb43BLp0q3aZ7aOr6uhH_Dee41wV-fBPA9k1pksHkPCBbzrgiKKYJpfABogzwIIW3tKno2ggzFlOBCaaKQ=w408-h306-k-no",
    "kgmid": "/g/11b6qln12v"
  },
  {
    "title": "Geniune Thanka Painting School",
    "price": null,
    "categoryName": "Art school",
    "address": "MCCH+24R, Pottery Square Road, Bhaktapur 44800, Nepal",
    "neighborhood": null,
    "street": "MCCH+24R, Pottery Square Road",
    "city": "Bhaktapur",
    "postalCode": "44800",
    "state": null,
    "countryCode": "NP",
    "phone": "+977 1-6615379",
    "phoneUnformatted": "+97716615379",
    "claimThisBusiness": true,
    "location": {
      "lat": 27.6701003,
      "lng": 85.4277698
    },
    "totalScore": 5,
    "permanentlyClosed": false,
    "temporarilyClosed": false,
    "placeId": "ChIJKxexZa8a6zkR-vh2jjAjTYY",
    "categories": [
      "Art school"
    ],
    "fid": "0x39eb1aaf65b1172b:0x864d23308e76f8fa",
    "cid": "9677429865744627962",
    "reviewsCount": 5,
    "reviewsDistribution": {
      "oneStar": 0,
      "twoStar": 0,
      "threeStar": 0,
      "fourStar": 0,
      "fiveStar": 5
    },
    "imagesCount": 11,
    "imageCategories": [],
    "scrapedAt": "2025-11-14T08:40:59.377Z",
    "googleFoodUrl": null,
    "hotelAds": [],
    "openingHours": [
      {
        "day": "Monday",
        "hours": "9 AM to 5:15 PM"
      },
      {
        "day": "Tuesday",
        "hours": "9 AM to 5:15 PM"
      },
      {
        "day": "Wednesday",
        "hours": "9 AM to 5:15 PM"
      },
      {
        "day": "Thursday",
        "hours": "9 AM to 5:15 PM"
      },
      {
        "day": "Friday",
        "hours": "9 AM to 5:15 PM"
      },
      {
        "day": "Saturday",
        "hours": "Closed"
      },
      {
        "day": "Sunday",
        "hours": "9 AM to 5:15 PM"
      }
    ],
    "peopleAlsoSearch": [],
    "placesTags": [],
    "reviewsTags": [],
    "additionalInfo": {
      "Children": [
        {
          "Good for kids": true
        }
      ]
    },
    "gasPrices": [],
    "url": "https://www.google.com/maps/search/?api=1&query=Geniune%20Thanka%20Painting%20School&query_place_id=ChIJKxexZa8a6zkR-vh2jjAjTYY",
    "searchPageUrl": "https://www.google.com/maps/search/school/@27.666993023382226,85.4287066988148,17z?hl=en",
    "searchString": "school",
    "language": "en",
    "rank": 63,
    "isAdvertisement": false,
    "imageUrl": "https://lh3.googleusercontent.com/gps-cs-s/AG0ilSzQXaacWp1o8Jj6vyhGriVL0s-Fq-_YjUrW2461qerk9YZ7QyJyjI2Pjb43BLp0q3aZ7aOr6uhH_Dee41wV-fBPA9k1pksHkPCBbzrgiKKYJpfABogzwIIW3tKno2ggzFlOBCaaKQ=w408-h306-k-no",
    "kgmid": "/g/11b6qln12v"
  },
  {
    "title": "Peace Thanka Centre",
    "price": null,
    "categoryName": "Art school",
    "address": "बोलाछें-१२, Bhaktapur 44800, Nepal",
    "neighborhood": null,
    "street": "बोलाछें-१२",
    "city": "Bhaktapur",
    "postalCode": "44800",
    "state": null,
    "countryCode": "NP",
    "phone": "+977 984-1394407",
    "phoneUnformatted": "+9779841394407",
    "claimThisBusiness": true,
    "location": {
      "lat": 27.6694639,
      "lng": 85.4278085
    },
    "permanentlyClosed": false,
    "temporarilyClosed": false,
    "placeId": "ChIJ8a6JZ68a6zkRl51FAWOx5ug",
    "categories": [
      "Art school"
    ],
    "fid": "0x39eb1aaf6789aef1:0xe8e6b16301459d97",
    "cid": "16782296100223950231",
    "reviewsCount": 0,
    "imagesCount": 1,
    "imageCategories": [],
    "scrapedAt": "2025-11-14T08:40:59.377Z",
    "googleFoodUrl": null,
    "hotelAds": [],
    "openingHours": [
      {
        "day": "Monday",
        "hours": "9 AM to 5 PM"
      },
      {
        "day": "Tuesday",
        "hours": "9 AM to 5 PM"
      },
      {
        "day": "Wednesday",
        "hours": "9 AM to 5 PM"
      },
      {
        "day": "Thursday",
        "hours": "9 AM to 5 PM"
      },
      {
        "day": "Friday",
        "hours": "9 AM to 5 PM"
      },
      {
        "day": "Saturday",
        "hours": "9 AM to 5 PM"
      },
      {
        "day": "Sunday",
        "hours": "9 AM to 5 PM"
      }
    ],
    "peopleAlsoSearch": [],
    "placesTags": [],
    "reviewsTags": [],
    "additionalInfo": {
      "Children": [
        {
          "Good for kids": true
        }
      ]
    },
    "gasPrices": [],
    "url": "https://www.google.com/maps/search/?api=1&query=Peace%20Thanka%20Centre&query_place_id=ChIJ8a6JZ68a6zkRl51FAWOx5ug",
    "searchPageUrl": "https://www.google.com/maps/search/school/@27.666993023382226,85.4287066988148,17z?hl=en",
    "searchString": "school",
    "language": "en",
    "rank": 69,
    "isAdvertisement": false,
    "imageUrl": "https://streetviewpixels-pa.googleapis.com/v1/thumbnail?panoid=oeeSLpA0AvxYJAvBs9W1qA&cb_client=search.gws-prod.gps&w=408&h=240&yaw=269.95087&pitch=0&thumbfov=100",
    "kgmid": "/g/11b6qbpl9n"
  },
  {
    "title": "IEC School of Art & Fashion",
    "price": null,
    "categoryName": "Art school",
    "address": "MCC5+9WR, Araniko Highway, Bhaktapur 44800, Nepal",
    "neighborhood": null,
    "street": "MCC5+9WR, Araniko Highway",
    "city": "Bhaktapur",
    "postalCode": "44800",
    "state": null,
    "countryCode": "NP",
    "phone": "+977 984-1234621",
    "phoneUnformatted": "+9779841234621",
    "claimThisBusiness": true,
    "location": {
      "lat": 27.6709844,
      "lng": 85.4097768
    },
    "totalScore": 5,
    "permanentlyClosed": false,
    "temporarilyClosed": false,
    "placeId": "ChIJnfU8UJoa6zkRhjXjh_P_TNA",
    "categories": [
      "Art school"
    ],
    "fid": "0x39eb1a9a503cf59d:0xd04cfff387e33586",
    "cid": "15009653079540970886",
    "reviewsCount": 3,
    "imagesCount": 3,
    "imageCategories": [],
    "scrapedAt": "2025-11-14T08:42:48.210Z",
    "googleFoodUrl": null,
    "hotelAds": [],
    "openingHours": [
      {
        "day": "Monday",
        "hours": "Open 24 hours"
      },
      {
        "day": "Tuesday",
        "hours": "Open 24 hours"
      },
      {
        "day": "Wednesday",
        "hours": "Closed"
      },
      {
        "day": "Thursday",
        "hours": "Closed"
      },
      {
        "day": "Friday",
        "hours": "Closed"
      },
      {
        "day": "Saturday",
        "hours": "Closed"
      },
      {
        "day": "Sunday",
        "hours": "Closed"
      }
    ],
    "peopleAlsoSearch": [],
    "placesTags": [],
    "reviewsTags": [],
    "additionalInfo": {
      "Children": [
        {
          "Good for kids": true
        }
      ]
    },
    "gasPrices": [],
    "url": "https://www.google.com/maps/search/?api=1&query=IEC%20School%20of%20Art%20%26%20Fashion&query_place_id=ChIJnfU8UJoa6zkRhjXjh_P_TNA",
    "searchPageUrl": "https://www.google.com/maps/search/school/@27.666993023382226,85.41153349407406,17z?hl=en",
    "searchString": "school",
    "language": "en",
    "rank": 16,
    "isAdvertisement": false,
    "imageUrl": "https://lh3.googleusercontent.com/gps-proxy/ALd4DhES7ghitrEokIZ7Va2k25robWjuAHLsTSW_RKRzAn0V9py-05ep_-ZwJZ3s_VBeLlEALkCwaN0rxqKar_2hpS2oDJCCWvCY2u7btoLCKYaxc_rSNJfYGl8owQgajr7b4S-IGLq8dk2uNIwGx2L5z7CjfbpOt4x-PKrXIqZ61dxFUdUMoWPiK1bwb-BkmQgeL49JeA=w408-h306-k-no",
    "kgmid": "/g/11b6qlfxhv"
  },
  {
    "title": "Unity thangka",
    "price": null,
    "categoryName": "Art school",
    "address": "MCFM+6VC, Bhaktapur 44800, Nepal",
    "neighborhood": null,
    "street": "MCFM+6VC",
    "city": "Bhaktapur",
    "postalCode": null,
    "state": null,
    "countryCode": "NP",
    "phone": "+977 984-1580068",
    "phoneUnformatted": "+9779841580068",
    "claimThisBusiness": true,
    "location": {
      "lat": 27.6730727,
      "lng": 85.4346271
    },
    "totalScore": 5,
    "permanentlyClosed": false,
    "temporarilyClosed": false,
    "placeId": "ChIJMQoDMvYb6zkRY-A2FmQGoDs",
    "categories": [
      "Art school"
    ],
    "fid": "0x39eb1bf632030a31:0x3ba006641636e063",
    "cid": "4296441071450644579",
    "reviewsCount": 1,
    "reviewsDistribution": {
      "oneStar": 0,
      "twoStar": 0,
      "threeStar": 0,
      "fourStar": 0,
      "fiveStar": 1
    },
    "imagesCount": 5,
    "imageCategories": [],
    "scrapedAt": "2025-11-14T08:42:59.649Z",
    "googleFoodUrl": null,
    "hotelAds": [],
    "openingHours": [],
    "peopleAlsoSearch": [],
    "placesTags": [],
    "reviewsTags": [],
    "additionalInfo": {
      "Children": [
        {
          "Good for kids": true
        }
      ]
    },
    "gasPrices": [],
    "url": "https://www.google.com/maps/search/?api=1&query=Unity%20thangka&query_place_id=ChIJMQoDMvYb6zkRY-A2FmQGoDs",
    "searchPageUrl": "https://www.google.com/maps/search/school/@27.674599999999995,85.43729330118518,17z?hl=en",
    "searchString": "school",
    "language": "en",
    "rank": 49,
    "isAdvertisement": false,
    "imageUrl": "https://lh3.googleusercontent.com/gps-cs-s/AG0ilSzFU9-8SVc71TCnjzNSEj2Hbk_Aatb9FyeJwUu_5G873V53gjLkzCIAZcKu8Aq6WPUVup5lWmO0NtQnn6CApGExwiUIUwKKAQtKBRKmzcD2nlxIYUTCx2_fjm62O4MK2FeVgaU=w408-h725-k-no",
    "kgmid": "/g/11fct0_z_5"
  },
  {
    "title": "Historical Thangku Art School",
    "price": null,
    "categoryName": "Art school",
    "address": "MCFM+7W6, Bhaktapur 44800, Nepal",
    "neighborhood": null,
    "street": "MCFM+7W6",
    "city": "Bhaktapur",
    "postalCode": "44800",
    "state": null,
    "countryCode": "NP",
    "phone": "+977 1-6613291",
    "phoneUnformatted": "+97716613291",
    "claimThisBusiness": true,
    "location": {
      "lat": 27.6731633,
      "lng": 85.4347781
    },
    "permanentlyClosed": false,
    "temporarilyClosed": false,
    "placeId": "ChIJn7F0nK0a6zkRWb9mlqS74F4",
    "categories": [
      "Art school"
    ],
    "fid": "0x39eb1aad9c74b19f:0x5ee0bba49666bf59",
    "cid": "6836670549920759641",
    "reviewsCount": 0,
    "imagesCount": 8,
    "imageCategories": [],
    "scrapedAt": "2025-11-14T08:42:59.649Z",
    "googleFoodUrl": null,
    "hotelAds": [],
    "openingHours": [
      {
        "day": "Monday",
        "hours": "9 AM to 6 PM"
      },
      {
        "day": "Tuesday",
        "hours": "9 AM to 6 PM"
      },
      {
        "day": "Wednesday",
        "hours": "9 AM to 6 PM"
      },
      {
        "day": "Thursday",
        "hours": "9 AM to 6 PM"
      },
      {
        "day": "Friday",
        "hours": "9 AM to 6 PM"
      },
      {
        "day": "Saturday",
        "hours": "9 AM to 6 PM"
      },
      {
        "day": "Sunday",
        "hours": "9 AM to 6 PM"
      }
    ],
    "peopleAlsoSearch": [],
    "placesTags": [],
    "reviewsTags": [],
    "additionalInfo": {
      "Children": [
        {
          "Good for kids": true
        }
      ]
    },
    "gasPrices": [],
    "url": "https://www.google.com/maps/search/?api=1&query=Historical%20Thangku%20Art%20School&query_place_id=ChIJn7F0nK0a6zkRWb9mlqS74F4",
    "searchPageUrl": "https://www.google.com/maps/search/school/@27.674599999999995,85.43729330118518,17z?hl=en",
    "searchString": "school",
    "language": "en",
    "rank": 52,
    "isAdvertisement": false,
    "imageUrl": "https://lh3.googleusercontent.com/gps-cs-s/AG0ilSxOWsJDuoxk7GHBq9IZE_3xqLqO00vH8oBvad_eEKXan92M0euEwdc0Ec2vm930qct0ZfWn-jp2iQ5cCv9Uuhhi_M8btByKeNuLQTfmpzPFJ8TiuLo2vGBdhGdXSAfqngHYPHo=w408-h302-k-no",
    "kgmid": "/g/11b6skz4jp"
  },
  {
    "title": "Traditional Thanka Painting School",
    "price": null,
    "categoryName": "Art school",
    "address": "MCFH+3WF, बलाखु, Bhaktapur 44800, Nepal",
    "neighborhood": null,
    "street": "MCFH+3WF, बलाखु",
    "city": "Bhaktapur",
    "postalCode": "44800",
    "state": null,
    "countryCode": "NP",
    "phone": "+977 984-1322279",
    "phoneUnformatted": "+9779841322279",
    "claimThisBusiness": true,
    "location": {
      "lat": 27.672697,
      "lng": 85.429784
    },
    "totalScore": 4.7,
    "permanentlyClosed": false,
    "temporarilyClosed": false,
    "placeId": "ChIJb2svy68a6zkR5m6ZvDV01kQ",
    "categories": [
      "Art school"
    ],
    "fid": "0x39eb1aafcb2f6b6f:0x44d67435bc996ee6",
    "cid": "4960279813741440742",
    "reviewsCount": 3,
    "reviewsDistribution": {
      "oneStar": 0,
      "twoStar": 0,
      "threeStar": 0,
      "fourStar": 1,
      "fiveStar": 2
    },
    "imagesCount": 47,
    "imageCategories": [],
    "scrapedAt": "2025-11-14T08:43:09.854Z",
    "googleFoodUrl": null,
    "hotelAds": [],
    "openingHours": [
      {
        "day": "Monday",
        "hours": "10 AM to 6 PM"
      },
      {
        "day": "Tuesday",
        "hours": "10 AM to 6 PM"
      },
      {
        "day": "Wednesday",
        "hours": "10 AM to 6 PM"
      },
      {
        "day": "Thursday",
        "hours": "10 AM to 6 PM"
      },
      {
        "day": "Friday",
        "hours": "10 AM to 6 PM"
      },
      {
        "day": "Saturday",
        "hours": "10 AM to 6 PM"
      },
      {
        "day": "Sunday",
        "hours": "10 AM to 6 PM"
      }
    ],
    "peopleAlsoSearch": [],
    "placesTags": [],
    "reviewsTags": [],
    "additionalInfo": {
      "Children": [
        {
          "Good for kids": true
        }
      ]
    },
    "gasPrices": [],
    "url": "https://www.google.com/maps/search/?api=1&query=Traditional%20Thanka%20Painting%20School&query_place_id=ChIJb2svy68a6zkR5m6ZvDV01kQ",
    "searchPageUrl": "https://www.google.com/maps/search/school/@27.674599999999995,85.4287066988148,17z?hl=en",
    "searchString": "school",
    "language": "en",
    "rank": 65,
    "isAdvertisement": false,
    "imageUrl": "https://lh3.googleusercontent.com/gps-cs-s/AG0ilSwjc5SuXwObmhU1nLtC7sL_NR6UASlm2gesYuTw-RxlTPEpRjebdwyO3XZ1QGMAkYUcqb3KrM0fQkGoS9QZ9s21vDLuF6ksEFiqq_YLisHi1yc2TzfNrtfRCieX9tMjxhREGls=w426-h240-k-no",
    "kgmid": "/g/11b6pthp3w"
  }
]