[
  {
    "title": "Pragya English School",
    "price": null,
    "categoryName": "Boarding school",
    "address": "44802, Nepal",
    "neighborhood": "Duwakot",
    "street": "44802",
    "city": "Changunarayan",
    "postalCode": "44802",
    "state": null,
    "countryCode": "NP",
    "phone": "+977 986-8000000",
    "phoneUnformatted": "+9779868000000",
    "claimThisBusiness": true,
    "location": {
      "lat": 27.6893492,
      "lng": 85.4120976
    },
    "permanentlyClosed": false,
    "temporarilyClosed": false,
    "placeId": "ChIJxZmejOsa6zkRwsUgsSqnwU0",
    "categories": [
      "Boarding school"
    ],
    "fid": "0x39eb1aeb8c9e99c5:0x4dc1a72ab120c5c2",
    "cid": "5602943213227787714",
    "reviewsCount": 0,
    "imagesCount": 28,
    "imageCategories": [],
    "scrapedAt": "2025-11-14T08:41:15.283Z",
    "googleFoodUrl": null,
    "hotelAds": [],
    "openingHours": [
      {
        "day": "Monday",
        "hours": "10 AM to 12 AM"
      },
      {
        "day": "Tuesday",
        "hours": "10 AM to 12 AM"
      },
      {
        "day": "Wednesday",
        "hours": "10 AM to 12 AM"
      },
      {
        "day": "Thursday",
        "hours": "10 AM to 12 AM"
      },
      {
        "day": "Friday",
        "hours": "10 AM to 4 AM"
      },
      {
        "day": "Saturday",
        "hours": "Closed"
      },
      {
        "day": "Sunday",
        "hours": "10 AM to 4:30 AM"
      }
    ],
    "peopleAlsoSearch": [],
    "placesTags": [],
    "reviewsTags": [],
    "additionalInfo": {
      "Accessibility": [
        {
          "Wheelchair accessible parking lot": true
        }
      ]
    },
    "gasPrices": [],
    "url": "https://www.google.com/maps/search/?api=1&query=Pragya%20English%20School&query_place_id=ChIJxZmejOsa6zkRwsUgsSqnwU0",
    "searchPageUrl": "https://www.google.com/maps/search/school/@27.71263488308884,85.43729330118518,17z?hl=en",
    "searchString": "school",
    "language": "en",
    "rank": 17,
    "isAdvertisement": false,
    "imageUrl": "https://lh3.googleusercontent.com/gps-cs-s/AG0ilSwsrxREW9ZNjlQWiKFCX5xUXqqhdfA_8h0hNnPU95t9CPzlt3Qv17CW-s8NqwAV7gYSWIhio5x5FyrWL9mVkRs51UiC8v8EefwC0_a5lc0bw3gd5PGbUET6iLUhwMredu6KEK4Z=w408-h306-k-no",
    "kgmid": "/g/11c52rryrh"
  },
  {
    "title": "Manoram Boarding School",
    "price": null,
    "categoryName": "Boarding school",
    "address": "MC93+PRC, Araniko Highway, Suryabinayak, Nepal",
    "neighborhood": "Katunje",
    "street": "MC93+PRC, Araniko Highway",
    "city": "Suryabinayak",
    "postalCode": null,
    "state": null,
    "countryCode": "NP",
    "phone": "+977 1-6617517",
    "phoneUnformatted": "+97716617517",
    "claimThisBusiness": true,
    "location": {
      "lat": 27.6693151,
      "lng": 85.4045028
    },
    "permanentlyClosed": false,
    "temporarilyClosed": false,
    "placeId": "ChIJTWZh8IQa6zkRLmxh5UKcIW8",
    "categories": [
      "Boarding school"
    ],
    "fid": "0x39eb1a84f061664d:0x6f219c42e5616c2e",
    "cid": "8007853423571594286",
    "reviewsCount": 0,
    "imagesCount": 9,
    "imageCategories": [],
    "scrapedAt": "2025-11-14T08:41:32.808Z",
    "googleFoodUrl": null,
    "hotelAds": [],
    "openingHours": [],
    "peopleAlsoSearch": [],
    "placesTags": [],
    "reviewsTags": [],
    "additionalInfo": {
      "Accessibility": [
        {
          "Wheelchair accessible entrance": true
        }
      ]
    },
    "gasPrices": [],
    "url": "https://www.google.com/maps/search/?api=1&query=Manoram%20Boarding%20School&query_place_id=ChIJTWZh8IQa6zkRLmxh5UKcIW8",
    "searchPageUrl": "https://www.google.com/maps/search/school/@27.651779070146688,85.40294689170369,17z?hl=en",
    "searchString": "school",
    "language": "en",
    "rank": 18,
    "isAdvertisement": false,
    "imageUrl": "https://lh3.googleusercontent.com/gps-cs-s/AG0ilSzp2KR9KJSpsqZmkhQfAiOJOtWk-AVQJMPzroUSjnA8VyK_pPkS92582Mv2yrwMUWT3TKCDe6V7wNxjpdlyJOOU5jqgNROz-MwRKDlH4GRyiMYbfdCt1kyQar02i8YOAESECWSwIw=w500-h240-k-no",
    "kgmid": "/g/11b7hqy9k1"
  },
  {
    "title": "Apex Boarding High School",
    "price": null,
    "categoryName": "Boarding school",
    "address": "MC5G+X8C, Suryabinayak 44800, Nepal",
    "neighborhood": "Sipadol",
    "street": "MC5G+X8C",
    "city": "Suryabinayak",
    "postalCode": "44800",
    "state": null,
    "countryCode": "NP",
    "phone": "+977 976-5343966",
    "phoneUnformatted": "+9779765343966",
    "claimThisBusiness": true,
    "location": {
      "lat": 27.65994,
      "lng": 85.425774
    },
    "permanentlyClosed": false,
    "temporarilyClosed": false,
    "placeId": "ChIJlSoxJUIR6zkR4nVroWwPGxs",
    "categories": [
      "Boarding school"
    ],
    "fid": "0x39eb114225312a95:0x1b1b0f6ca16b75e2",
    "cid": "1953171822634300898",
    "reviewsCount": 0,
    "imagesCount": 3,
    "imageCategories": [],
    "scrapedAt": "2025-11-14T08:41:36.375Z",
    "googleFoodUrl": null,
    "hotelAds": [],
    "openingHours": [
      {
        "day": "Monday",
        "hours": "9 AM to 4 PM"
      },
      {
        "day": "Tuesday",
        "hours": "9 AM to 4 PM"
      },
      {
        "day": "Wednesday",
        "hours": "9 AM to 4 PM"
      },
      {
        "day": "Thursday",
        "hours": "9 AM to 4 PM"
      },
      {
        "day": "Friday",
        "hours": "9 AM to 4 PM"
      },
      {
        "day": "Saturday",
        "hours": "Closed"
      },
      {
        "day": "Sunday",
        "hours": "9 AM to 4 PM"
      }
    ],
    "peopleAlsoSearch": [],
    "placesTags": [],
    "reviewsTags": [],
    "gasPrices": [],
    "url": "https://www.google.com/maps/search/?api=1&query=Apex%20Boarding%20High%20School&query_place_id=ChIJlSoxJUIR6zkR4nVroWwPGxs",
    "searchPageUrl": "https://www.google.com/maps/search/school/@27.659386046764457,85.42012009644444,17z?hl=en",
    "searchString": "school",
    "language": "en",
    "rank": 13,
    "isAdvertisement": false,
    "imageUrl": "https://streetviewpixels-pa.googleapis.com/v1/thumbnail?panoid=QBcge3iUW694lMYAIgrS0A&cb_client=search.gws-prod.gps&w=408&h=240&yaw=267.37943&pitch=0&thumbfov=100",
    "kgmid": "/g/11rffb2tw8"
  }
]