[
  {
    "title": "Genius Chinese Language Institute",
    "subTitle": "प्रतिभा चिनियाँ भाषा संस्थान",
    "price": null,
    "categoryName": "Chinese language school",
    "address": "Nagpokhari -04, Bhaktapur 44800, Nepal",
    "neighborhood": null,
    "street": "Nagpokhari -04",
    "city": "Bhaktapur",
    "postalCode": "44800",
    "state": null,
    "countryCode": "NP",
    "website": "https://sites.google.com/view/geniusmandarin/home",
    "phone": "+977 984-9126317",
    "phoneUnformatted": "+9779849126317",
    "claimThisBusiness": false,
    "location": {
      "lat": 27.6743095,
      "lng": 85.4330235
    },
    "totalScore": 5,
    "permanentlyClosed": false,
    "temporarilyClosed": false,
    "placeId": "ChIJ9_CgCLIa6zkRmyzYeidAse8",
    "categories": [
      "Chinese language school",
      "Educational institution"
    ],
    "fid": "0x39eb1ab208a0f0f7:0xefb140277ad82c9b",
    "cid": "17271656584251452571",
    "reviewsCount": 107,
    "reviewsDistribution": {
      "oneStar": 0,
      "twoStar": 0,
      "threeStar": 1,
      "fourStar": 2,
      "fiveStar": 104
    },
    "imagesCount": 80,
    "imageCategories": [],
    "scrapedAt": "2025-11-14T08:13:35.777Z",
    "googleFoodUrl": null,
    "hotelAds": [],
    "openingHours": [
      {
        "day": "Monday",
        "hours": "6 to 9 AM, 5 to 8 PM"
      },
      {
        "day": "Tuesday",
        "hours": "6 to 9 AM, 5 to 8 PM"
      },
      {
        "day": "Wednesday",
        "hours": "6 to 9 AM, 5 to 8 PM"
      },
      {
        "day": "Thursday",
        "hours": "6 to 9 AM, 5 to 8 PM"
      },
      {
        "day": "Friday",
        "hours": "6 to 9 AM, 5 to 8 PM"
      },
      {
        "day": "Saturday",
        "hours": "Closed"
      },
      {
        "day": "Sunday",
        "hours": "6 to 9 AM, 5 to 8 PM"
      }
    ],
    "peopleAlsoSearch": [],
    "placesTags": [],
    "reviewsTags": [],
    "additionalInfo": {
      "Service options": [
        {
          "Online classes": true
        },
        {
          "Onsite services": true
        }
      ],
      "Accessibility": [
        {
          "Wheelchair accessible entrance": true
        },
        {
          "Wheelchair accessible parking lot": true
        },
        {
          "Wheelchair accessible restroom": true
        },
        {
          "Wheelchair accessible seating": true
        }
      ],
      "Crowd": [
        {
          "LGBTQ+ friendly": true
        },
        {
          "Transgender safespace": true
        }
      ]
    },
    "gasPrices": [],
    "url": "https://www.google.com/maps/search/?api=1&query=Genius%20Chinese%20Language%20Institute&query_place_id=ChIJ9_CgCLIa6zkRmyzYeidAse8",
    "searchPageUrl": "https://www.google.com/maps/search/school/@27.67530454090198,85.43009086349416,17z?hl=en",
    "searchString": "school",
    "language": "en",
    "rank": 61,
    "isAdvertisement": false,
    "imageUrl": "https://lh3.googleusercontent.com/p/AF1QipNjHN_DtyBmahJDJpjop7TiWkG--qYpmcTaHioI=w408-h306-k-no",
    "kgmid": "/g/11b6v7j76j"
  },
  {
    "title": "Bhaktapur Chinese Language and Culture Center",
    "subTitle": "भक्तपुर चिनियाँ भाषा र संस्कृति केन्द्र",
    "price": null,
    "categoryName": "Chinese language school",
    "address": "Dekocha ( In front of Khwopa College, Bhaktapur, Nepal",
    "neighborhood": null,
    "street": "Dekocha ( In front of Khwopa College",
    "city": "Bhaktapur",
    "postalCode": null,
    "state": null,
    "countryCode": "NP",
    "phone": "+977 984-0796732",
    "phoneUnformatted": "+9779840796732",
    "claimThisBusiness": false,
    "location": {
      "lat": 27.6779731,
      "lng": 85.4331964
    },
    "totalScore": 4,
    "permanentlyClosed": false,
    "temporarilyClosed": false,
    "placeId": "ChIJe5H06VIF6zkR_oN0PBJXimg",
    "categories": [
      "Chinese language school",
      "Translation service"
    ],
    "fid": "0x39eb0552e9f4917b:0x688a57123c7483fe",
    "cid": "7532929062565872638",
    "reviewsCount": 2,
    "reviewsDistribution": {
      "oneStar": 0,
      "twoStar": 0,
      "threeStar": 1,
      "fourStar": 0,
      "fiveStar": 1
    },
    "imagesCount": 4,
    "imageCategories": [],
    "scrapedAt": "2025-11-14T08:13:35.777Z",
    "googleFoodUrl": null,
    "hotelAds": [],
    "openingHours": [
      {
        "day": "Monday",
        "hours": "8 to 11 AM, 12 to 3 PM"
      },
      {
        "day": "Tuesday",
        "hours": "8 to 11 AM, 12 to 3 PM"
      },
      {
        "day": "Wednesday",
        "hours": "8 to 11 AM, 12 to 3 PM"
      },
      {
        "day": "Thursday",
        "hours": "8 to 11 AM, 12 to 3 PM"
      },
      {
        "day": "Friday",
        "hours": "8 to 11 AM, 12 to 3 PM"
      },
      {
        "day": "Saturday",
        "hours": "Closed"
      },
      {
        "day": "Sunday",
        "hours": "Closed"
      }
    ],
    "peopleAlsoSearch": [],
    "placesTags": [],
    "reviewsTags": [],
    "additionalInfo": {
      "Accessibility": [
        {
          "Wheelchair accessible entrance": false
        },
        {
          "Wheelchair accessible parking lot": false
        }
      ]
    },
    "gasPrices": [],
    "url": "https://www.google.com/maps/search/?api=1&query=Bhaktapur%20Chinese%20Language%20and%20Culture%20Center&query_place_id=ChIJe5H06VIF6zkR_oN0PBJXimg",
    "searchPageUrl": "https://www.google.com/maps/search/school/@27.67530454090198,85.43009086349416,17z?hl=en",
    "searchString": "school",
    "language": "en",
    "rank": 68,
    "isAdvertisement": false,
    "imageUrl": "https://lh3.googleusercontent.com/p/AF1QipPaJhcKRKQ3J28RYGKOnZtJKygdz2pjTt_Z7uTU=w423-h240-k-no",
    "kgmid": "/g/11dxnq42lt"
  },
  {
    "title": "Genius Chinese Language Institute",
    "subTitle": "प्रतिभा चिनियाँ भाषा संस्थान",
    "price": null,
    "categoryName": "Chinese language school",
    "address": "Nagpokhari -04, Bhaktapur 44800, Nepal",
    "neighborhood": null,
    "street": "Nagpokhari -04",
    "city": "Bhaktapur",
    "postalCode": "44800",
    "state": null,
    "countryCode": "NP",
    "website": "https://sites.google.com/view/geniusmandarin/home",
    "phone": "+977 984-9126317",
    "phoneUnformatted": "+9779849126317",
    "claimThisBusiness": false,
    "location": {
      "lat": 27.6743095,
      "lng": 85.4330235
    },
    "totalScore": 5,
    "permanentlyClosed": false,
    "temporarilyClosed": false,
    "placeId": "ChIJ9_CgCLIa6zkRmyzYeidAse8",
    "categories": [
      "Chinese language school",
      "Educational institution"
    ],
    "fid": "0x39eb1ab208a0f0f7:0xefb140277ad82c9b",
    "cid": "17271656584251452571",
    "reviewsCount": 107,
    "reviewsDistribution": {
      "oneStar": 0,
      "twoStar": 0,
      "threeStar": 1,
      "fourStar": 2,
      "fiveStar": 104
    },
    "imagesCount": 80,
    "imageCategories": [],
    "scrapedAt": "2025-11-14T08:42:59.649Z",
    "googleFoodUrl": null,
    "hotelAds": [],
    "openingHours": [
      {
        "day": "Monday",
        "hours": "6 to 9 AM, 5 to 8 PM"
      },
      {
        "day": "Tuesday",
        "hours": "6 to 9 AM, 5 to 8 PM"
      },
      {
        "day": "Wednesday",
        "hours": "6 to 9 AM, 5 to 8 PM"
      },
      {
        "day": "Thursday",
        "hours": "6 to 9 AM, 5 to 8 PM"
      },
      {
        "day": "Friday",
        "hours": "6 to 9 AM, 5 to 8 PM"
      },
      {
        "day": "Saturday",
        "hours": "Closed"
      },
      {
        "day": "Sunday",
        "hours": "6 to 9 AM, 5 to 8 PM"
      }
    ],
    "peopleAlsoSearch": [],
    "placesTags": [],
    "reviewsTags": [],
    "additionalInfo": {
      "Service options": [
        {
          "Online classes": true
        },
        {
          "Onsite services": true
        }
      ],
      "Accessibility": [
        {
          "Wheelchair accessible entrance": true
        },
        {
          "Wheelchair accessible parking lot": true
        },
        {
          "Wheelchair accessible restroom": true
        },
        {
          "Wheelchair accessible seating": true
        }
      ],
      "Crowd": [
        {
          "LGBTQ+ friendly": true
        },
        {
          "Transgender safespace": true
        }
      ]
    },
    "gasPrices": [],
    "url": "https://www.google.com/maps/search/?api=1&query=Genius%20Chinese%20Language%20Institute&query_place_id=ChIJ9_CgCLIa6zkRmyzYeidAse8",
    "searchPageUrl": "https://www.google.com/maps/search/school/@27.674599999999995,85.43729330118518,17z?hl=en",
    "searchString": "school",
    "language": "en",
    "rank": 57,
    "isAdvertisement": false,
    "imageUrl": "https://lh3.googleusercontent.com/p/AF1QipNjHN_DtyBmahJDJpjop7TiWkG--qYpmcTaHioI=w408-h306-k-no",
    "kgmid": "/g/11b6v7j76j"
  },
  {
    "title": "Bhaktapur Chinese Language and Culture Center",
    "subTitle": "भक्तपुर चिनियाँ भाषा र संस्कृति केन्द्र",
    "price": null,
    "categoryName": "Chinese language school",
    "address": "Dekocha ( In front of Khwopa College, Bhaktapur, Nepal",
    "neighborhood": null,
    "street": "Dekocha ( In front of Khwopa College",
    "city": "Bhaktapur",
    "postalCode": null,
    "state": null,
    "countryCode": "NP",
    "phone": "+977 984-0796732",
    "phoneUnformatted": "+9779840796732",
    "claimThisBusiness": false,
    "location": {
      "lat": 27.6779731,
      "lng": 85.4331964
    },
    "totalScore": 4,
    "permanentlyClosed": false,
    "temporarilyClosed": false,
    "placeId": "ChIJe5H06VIF6zkR_oN0PBJXimg",
    "categories": [
      "Chinese language school",
      "Translation service"
    ],
    "fid": "0x39eb0552e9f4917b:0x688a57123c7483fe",
    "cid": "7532929062565872638",
    "reviewsCount": 2,
    "reviewsDistribution": {
      "oneStar": 0,
      "twoStar": 0,
      "threeStar": 1,
      "fourStar": 0,
      "fiveStar": 1
    },
    "imagesCount": 4,
    "imageCategories": [],
    "scrapedAt": "2025-11-14T08:43:00.356Z",
    "googleFoodUrl": null,
    "hotelAds": [],
    "openingHours": [
      {
        "day": "Monday",
        "hours": "8 to 11 AM, 12 to 3 PM"
      },
      {
        "day": "Tuesday",
        "hours": "8 to 11 AM, 12 to 3 PM"
      },
      {
        "day": "Wednesday",
        "hours": "8 to 11 AM, 12 to 3 PM"
      },
      {
        "day": "Thursday",
        "hours": "8 to 11 AM, 12 to 3 PM"
      },
      {
        "day": "Friday",
        "hours": "8 to 11 AM, 12 to 3 PM"
      },
      {
        "day": "Saturday",
        "hours": "Closed"
      },
      {
        "day": "Sunday",
        "hours": "Closed"
      }
    ],
    "peopleAlsoSearch": [],
    "placesTags": [],
    "reviewsTags": [],
    "additionalInfo": {
      "Accessibility": [
        {
          "Wheelchair accessible entrance": false
        },
        {
          "Wheelchair accessible parking lot": false
        }
      ]
    },
    "gasPrices": [],
    "url": "https://www.google.com/maps/search/?api=1&query=Bhaktapur%20Chinese%20Language%20and%20Culture%20Center&query_place_id=ChIJe5H06VIF6zkR_oN0PBJXimg",
    "searchPageUrl": "https://www.google.com/maps/search/school/@27.674599999999995,85.43729330118518,17z?hl=en",
    "searchString": "school",
    "language": "en",
    "rank": 67,
    "isAdvertisement": false,
    "imageUrl": "https://lh3.googleusercontent.com/p/AF1QipPaJhcKRKQ3J28RYGKOnZtJKygdz2pjTt_Z7uTU=w423-h240-k-no",
    "kgmid": "/g/11dxnq42lt"
  }
]