[
  {
    "title": "Mainpoint Computer Institute",
    "price": null,
    "categoryName": "Computer training school",
    "address": "MCCH+8MV, टौमदि सडक, Bhaktapur 44800, Nepal",
    "neighborhood": null,
    "street": "MCCH+8MV, टौमदि सडक",
    "city": "Bhaktapur",
    "postalCode": "44800",
    "state": null,
    "countryCode": "NP",
    "phone": "+977 984-4667722",
    "phoneUnformatted": "+9779844667722",
    "claimThisBusiness": true,
    "location": {
      "lat": 27.6708666,
      "lng": 85.4291646
    },
    "totalScore": 4,
    "permanentlyClosed": false,
    "temporarilyClosed": false,
    "placeId": "ChIJY0fEB68a6zkR9-5lSOYIOjU",
    "categories": [
      "Computer training school",
      "Trade school"
    ],
    "fid": "0x39eb1aaf07c44763:0x353a08e64865eef7",
    "cid": "3835387817809538807",
    "reviewsCount": 2,
    "imagesCount": 7,
    "imageCategories": [],
    "scrapedAt": "2025-11-14T08:13:38.946Z",
    "googleFoodUrl": null,
    "hotelAds": [],
    "openingHours": [
      {
        "day": "Monday",
        "hours": "7 AM to 10 PM"
      },
      {
        "day": "Tuesday",
        "hours": "7 AM to 10 PM"
      },
      {
        "day": "Wednesday",
        "hours": "7 AM to 10 PM"
      },
      {
        "day": "Thursday",
        "hours": "7 AM to 10 PM"
      },
      {
        "day": "Friday",
        "hours": "7 AM to 10 PM"
      },
      {
        "day": "Saturday",
        "hours": "Closed"
      },
      {
        "day": "Sunday",
        "hours": "7 AM to 10 PM"
      }
    ],
    "peopleAlsoSearch": [],
    "placesTags": [],
    "reviewsTags": [],
    "gasPrices": [],
    "url": "https://www.google.com/maps/search/?api=1&query=Mainpoint%20Computer%20Institute&query_place_id=ChIJY0fEB68a6zkR9-5lSOYIOjU",
    "searchPageUrl": "https://www.google.com/maps/search/training%20center/@27.67530454090198,85.43009086349416,17z?hl=en",
    "searchString": "training center",
    "language": "en",
    "rank": 10,
    "isAdvertisement": false,
    "imageUrl": "https://lh3.googleusercontent.com/gps-proxy/ALd4DhHJZpDhus5joevwufMJFYruBl4cqN5kTjaC_yiEPKKHPmLLRUBNowdSGZWeR12ME1Va7sYtSyDJqHj91Sw_K10vczlkpkYC1ImGnn0rrDvELtUH2OJeex9YEoQD1ur_mzQhe06cEpIWMgIhXU_BbiXoaTINGCkHMrRtWt1Jh393OIfHiWIpyCWu8rfyLG4Zd4P5ggc=w408-h306-k-no",
    "kgmid": "/g/1tjym3kn"
  },
  {
    "title": "Helens Computer Institute",
    "subTitle": "हेलेन्स कम्प्युटर इन्स्टिच्युट",
    "price": null,
    "categoryName": "Computer training school",
    "address": "Nagarkot Highway, Kamalbinayak, Bhaktapur Municipality #4, Bhaktapur, 44601, Nepal, Bhaktapur, Nepal",
    "neighborhood": null,
    "street": "Nagarkot Highway, Kamalbinayak, Bhaktapur Municipality #4, Bhaktapur, 44601, Nepal",
    "city": "Bhaktapur",
    "postalCode": null,
    "state": null,
    "countryCode": "NP",
    "phone": "+977 1-6619120",
    "phoneUnformatted": "+97716619120",
    "claimThisBusiness": true,
    "location": {
      "lat": 27.6774297,
      "lng": 85.4374605
    },
    "totalScore": 5,
    "permanentlyClosed": false,
    "temporarilyClosed": false,
    "placeId": "ChIJ8_8-K7Ma6zkRSyu5sp13Ss0",
    "categories": [
      "Computer training school"
    ],
    "fid": "0x39eb1ab32b3efff3:0xcd4a779db2b92b4b",
    "cid": "14792767445243865931",
    "reviewsCount": 2,
    "imagesCount": 7,
    "imageCategories": [],
    "scrapedAt": "2025-11-14T08:13:38.946Z",
    "googleFoodUrl": null,
    "hotelAds": [],
    "openingHours": [
      {
        "day": "Monday",
        "hours": "6 AM to 7 PM"
      },
      {
        "day": "Tuesday",
        "hours": "6 AM to 7 PM"
      },
      {
        "day": "Wednesday",
        "hours": "6 AM to 7 PM"
      },
      {
        "day": "Thursday",
        "hours": "6 AM to 7 PM"
      },
      {
        "day": "Friday",
        "hours": "6 AM to 7 PM"
      },
      {
        "day": "Saturday",
        "hours": "6 AM to 7 PM"
      },
      {
        "day": "Sunday",
        "hours": "6 AM to 7 PM"
      }
    ],
    "peopleAlsoSearch": [],
    "placesTags": [],
    "reviewsTags": [],
    "gasPrices": [],
    "url": "https://www.google.com/maps/search/?api=1&query=Helens%20Computer%20Institute&query_place_id=ChIJ8_8-K7Ma6zkRSyu5sp13Ss0",
    "searchPageUrl": "https://www.google.com/maps/search/training%20center/@27.67530454090198,85.43009086349416,17z?hl=en",
    "searchString": "training center",
    "language": "en",
    "rank": 15,
    "isAdvertisement": false,
    "imageUrl": "https://lh3.googleusercontent.com/gps-cs-s/AG0ilSy4zv7Mq_KLw7Igfg2dDW9FrXwojuABQYMcYas2J8ytx4Uq6Sxks31m0AA6v7jWpzxv2kuBv5ZXdo94CkfFnG2OYf4joBWWq2R4ii2_iv9fpwb2i-3FD1NAgEBvpbsrT9glqJFW=w408-h306-k-no",
    "kgmid": "/g/1tdj2mdv"
  },
  {
    "title": "World Vision Computer Institute",
    "price": null,
    "categoryName": "Computer training school",
    "address": "MC8F+57Q, Pandobazar, Bhaktapur 44800, Nepal",
    "neighborhood": "Bharisthan",
    "street": "MC8F+57Q, Pandobazar",
    "city": "Bhaktapur",
    "postalCode": null,
    "state": null,
    "countryCode": "NP",
    "website": "http://www.worldvisionnepal.blogspot.com/",
    "phone": "+977 1-5092182",
    "phoneUnformatted": "+97715092182",
    "claimThisBusiness": true,
    "location": {
      "lat": 27.6654637,
      "lng": 85.4232435
    },
    "totalScore": 3.3,
    "permanentlyClosed": false,
    "temporarilyClosed": false,
    "placeId": "ChIJZ7WG56Ya6zkRNwvX6ofnK88",
    "categories": [
      "Computer training school"
    ],
    "fid": "0x39eb1aa6e786b567:0xcf2be787ead70b37",
    "cid": "14928279960796203831",
    "reviewsCount": 3,
    "imagesCount": 2,
    "imageCategories": [],
    "scrapedAt": "2025-11-14T08:13:59.982Z",
    "googleFoodUrl": null,
    "hotelAds": [],
    "openingHours": [
      {
        "day": "Monday",
        "hours": "9 AM to 5 PM"
      },
      {
        "day": "Tuesday",
        "hours": "9 AM to 5 PM"
      },
      {
        "day": "Wednesday",
        "hours": "9 AM to 5 PM"
      },
      {
        "day": "Thursday",
        "hours": "9 AM to 5 PM"
      },
      {
        "day": "Friday",
        "hours": "9 AM to 5 PM"
      },
      {
        "day": "Saturday",
        "hours": "Closed"
      },
      {
        "day": "Sunday",
        "hours": "9 AM to 5 PM"
      }
    ],
    "peopleAlsoSearch": [],
    "placesTags": [],
    "reviewsTags": [],
    "gasPrices": [],
    "url": "https://www.google.com/maps/search/?api=1&query=World%20Vision%20Computer%20Institute&query_place_id=ChIJZ7WG56Ya6zkRNwvX6ofnK88",
    "searchPageUrl": "https://www.google.com/maps/search/training%20center/@27.667695459098024,85.42150000000001,17z?hl=en",
    "searchString": "training center",
    "language": "en",
    "rank": 13,
    "isAdvertisement": false,
    "imageUrl": "https://streetviewpixels-pa.googleapis.com/v1/thumbnail?panoid=Z1l31jotmZm-uTHrChUrtA&cb_client=search.gws-prod.gps&w=408&h=240&yaw=188.16042&pitch=0&thumbfov=100",
    "kgmid": "/g/1hf0fxh8d"
  },
  {
    "title": "C.Net Computer Education",
    "price": null,
    "categoryName": "Computer training school",
    "address": "F099, Suryabinayak 44800, Nepal",
    "neighborhood": null,
    "street": "F099",
    "city": "Suryabinayak",
    "postalCode": "44800",
    "state": null,
    "countryCode": "NP",
    "phone": "+977 1-6611501",
    "phoneUnformatted": "+97716611501",
    "claimThisBusiness": false,
    "location": {
      "lat": 27.6659903,
      "lng": 85.4258603
    },
    "totalScore": 3.1,
    "permanentlyClosed": false,
    "temporarilyClosed": false,
    "placeId": "ChIJizbPTaYa6zkRd9oo4nNjxMw",
    "categories": [
      "Computer training school",
      "Computer consultant",
      "Computer repair service",
      "Computers"
    ],
    "fid": "0x39eb1aa64dcf368b:0xccc46373e228da77",
    "cid": "14755027628539304567",
    "reviewsCount": 7,
    "reviewsDistribution": {
      "oneStar": 3,
      "twoStar": 0,
      "threeStar": 0,
      "fourStar": 1,
      "fiveStar": 3
    },
    "imagesCount": 5,
    "imageCategories": [],
    "scrapedAt": "2025-11-14T08:14:01.076Z",
    "googleFoodUrl": null,
    "hotelAds": [],
    "openingHours": [
      {
        "day": "Monday",
        "hours": "6 AM to 8 PM"
      },
      {
        "day": "Tuesday",
        "hours": "6 AM to 8 PM"
      },
      {
        "day": "Wednesday",
        "hours": "6 AM to 8 PM"
      },
      {
        "day": "Thursday",
        "hours": "6 AM to 8 PM"
      },
      {
        "day": "Friday",
        "hours": "6 AM to 8 PM"
      },
      {
        "day": "Saturday",
        "hours": "Closed"
      },
      {
        "day": "Sunday",
        "hours": "6 AM to 8 PM"
      }
    ],
    "peopleAlsoSearch": [],
    "placesTags": [],
    "reviewsTags": [],
    "gasPrices": [],
    "url": "https://www.google.com/maps/search/?api=1&query=C.Net%20Computer%20Education&query_place_id=ChIJizbPTaYa6zkRd9oo4nNjxMw",
    "searchPageUrl": "https://www.google.com/maps/search/training%20center/@27.667695459098024,85.42150000000001,17z?hl=en",
    "searchString": "training center",
    "language": "en",
    "rank": 34,
    "isAdvertisement": false,
    "imageUrl": "https://lh3.googleusercontent.com/gps-cs-s/AG0ilSyaf-w1L1jKXX06u_hLLiOEYw2WGlSsn7kXcjRoZzF8GaWs9nhqePQxXg2sR2BpRj7VGran_gBH80avLy5wXV-a98Oq-nx6ejbHFfBWwt8PReenMFusPE9LN8JDKRnymOeuX53D=w408-h306-k-no",
    "kgmid": "/g/12hlj8sjw"
  },
  {
    "title": "Graphika Academy",
    "price": null,
    "categoryName": "Computer training school",
    "address": "Bhaktapur 4, Nepal",
    "neighborhood": null,
    "street": null,
    "city": "Bhaktapur",
    "postalCode": "4",
    "state": null,
    "countryCode": "NP",
    "phone": "+977 976-7931002",
    "phoneUnformatted": "+9779767931002",
    "claimThisBusiness": false,
    "location": {
      "lat": 27.6674447,
      "lng": 85.4267293
    },
    "totalScore": 5,
    "permanentlyClosed": false,
    "temporarilyClosed": false,
    "placeId": "ChIJ1fGWuo8b6zkRvqTQFlUUNkw",
    "categories": [
      "Computer training school"
    ],
    "fid": "0x39eb1b8fba96f1d5:0x4c36145516d0a4be",
    "cid": "5491599151312446654",
    "reviewsCount": 11,
    "reviewsDistribution": {
      "oneStar": 0,
      "twoStar": 0,
      "threeStar": 0,
      "fourStar": 0,
      "fiveStar": 11
    },
    "imagesCount": 9,
    "imageCategories": [],
    "scrapedAt": "2025-11-14T08:14:01.076Z",
    "googleFoodUrl": null,
    "hotelAds": [],
    "openingHours": [
      {
        "day": "Monday",
        "hours": "7 AM to 7 PM"
      },
      {
        "day": "Tuesday",
        "hours": "7 AM to 7 PM"
      },
      {
        "day": "Wednesday",
        "hours": "7 AM to 7 PM"
      },
      {
        "day": "Thursday",
        "hours": "7 AM to 7 PM"
      },
      {
        "day": "Friday",
        "hours": "7 AM to 7 PM"
      },
      {
        "day": "Saturday",
        "hours": "7 AM to 7:30 PM"
      },
      {
        "day": "Sunday",
        "hours": "7 AM to 7 PM"
      }
    ],
    "peopleAlsoSearch": [],
    "placesTags": [],
    "reviewsTags": [],
    "gasPrices": [],
    "url": "https://www.google.com/maps/search/?api=1&query=Graphika%20Academy&query_place_id=ChIJ1fGWuo8b6zkRvqTQFlUUNkw",
    "searchPageUrl": "https://www.google.com/maps/search/training%20center/@27.667695459098024,85.42150000000001,17z?hl=en",
    "searchString": "training center",
    "language": "en",
    "rank": 36,
    "isAdvertisement": false,
    "imageUrl": "https://lh3.googleusercontent.com/p/AF1QipOHxRAZZjtS4APm-S87af2-a0UhhF6Zco6YKsoy=w426-h240-k-no",
    "kgmid": "/g/11vwm_ml0c"
  },
  {
    "title": "Animax Animation Academy Bhaktapur",
    "price": null,
    "categoryName": "Computer training school",
    "address": "Bhaktapur Party Venue, Gapali chowk beside, Bhaktapur 44800, Nepal",
    "neighborhood": null,
    "street": "Bhaktapur Party Venue, Gapali chowk beside",
    "city": "Bhaktapur",
    "postalCode": "44800",
    "state": null,
    "countryCode": "NP",
    "website": "http://www.animaxacademy.com/",
    "phone": "+977 1-6620343",
    "phoneUnformatted": "+97716620343",
    "claimThisBusiness": false,
    "location": {
      "lat": 27.6668076,
      "lng": 85.4254265
    },
    "totalScore": 3.3,
    "permanentlyClosed": false,
    "temporarilyClosed": false,
    "placeId": "ChIJz7REbaYa6zkRk__oZSVHG5w",
    "categories": [
      "Computer training school",
      "Animation studio"
    ],
    "fid": "0x39eb1aa66d44b4cf:0x9c1b472565e8ff93",
    "cid": "11248662720237076371",
    "reviewsCount": 10,
    "reviewsDistribution": {
      "oneStar": 3,
      "twoStar": 1,
      "threeStar": 0,
      "fourStar": 2,
      "fiveStar": 4
    },
    "imagesCount": 9,
    "imageCategories": [],
    "scrapedAt": "2025-11-14T08:14:02.092Z",
    "googleFoodUrl": null,
    "hotelAds": [],
    "openingHours": [
      {
        "day": "Monday",
        "hours": "7 AM to 7 PM"
      },
      {
        "day": "Tuesday",
        "hours": "7 AM to 5 PM"
      },
      {
        "day": "Wednesday",
        "hours": "7 AM to 7 PM"
      },
      {
        "day": "Thursday",
        "hours": "7 AM to 7 PM"
      },
      {
        "day": "Friday",
        "hours": "7 AM to 7 PM"
      },
      {
        "day": "Saturday",
        "hours": "Closed"
      },
      {
        "day": "Sunday",
        "hours": "7 AM to 7 PM"
      }
    ],
    "peopleAlsoSearch": [],
    "placesTags": [],
    "reviewsTags": [],
    "additionalInfo": {
      "Service options": [
        {
          "Online classes": true
        }
      ],
      "Accessibility": [
        {
          "Wheelchair accessible entrance": false
        },
        {
          "Wheelchair accessible parking lot": false
        }
      ]
    },
    "gasPrices": [],
    "url": "https://www.google.com/maps/search/?api=1&query=Animax%20Animation%20Academy%20Bhaktapur&query_place_id=ChIJz7REbaYa6zkRk__oZSVHG5w",
    "searchPageUrl": "https://www.google.com/maps/search/training%20center/@27.667695459098024,85.42150000000001,17z?hl=en",
    "searchString": "training center",
    "language": "en",
    "rank": 41,
    "isAdvertisement": false,
    "imageUrl": "https://lh3.googleusercontent.com/gps-cs-s/AG0ilSya9Cvwzl2_20ptv3KuXfzmdahOQcrzBdhYhdkR2ELgeuyZGvZm6A8U8mAbrjlhT_r-Iz4HHClEG2fPSIFO4LB18Krvvio28ZdJxFnAQrRgpbbp8eKYPwsUwLb1Qtdag7324nO4=w408-h543-k-no",
    "kgmid": "/g/11f4pjfb39"
  },
  {
    "title": "Graphika Academy",
    "price": null,
    "categoryName": "Computer training school",
    "address": "Bhaktapur 4, Nepal",
    "neighborhood": null,
    "street": null,
    "city": "Bhaktapur",
    "postalCode": "4",
    "state": null,
    "countryCode": "NP",
    "phone": "+977 976-7931002",
    "phoneUnformatted": "+9779767931002",
    "claimThisBusiness": false,
    "location": {
      "lat": 27.6674447,
      "lng": 85.4267293
    },
    "totalScore": 5,
    "permanentlyClosed": false,
    "temporarilyClosed": false,
    "placeId": "ChIJ1fGWuo8b6zkRvqTQFlUUNkw",
    "categories": [
      "Computer training school"
    ],
    "fid": "0x39eb1b8fba96f1d5:0x4c36145516d0a4be",
    "cid": "5491599151312446654",
    "reviewsCount": 11,
    "reviewsDistribution": {
      "oneStar": 0,
      "twoStar": 0,
      "threeStar": 0,
      "fourStar": 0,
      "fiveStar": 11
    },
    "imagesCount": 9,
    "imageCategories": [],
    "scrapedAt": "2025-11-14T08:40:59.378Z",
    "googleFoodUrl": null,
    "hotelAds": [],
    "openingHours": [
      {
        "day": "Monday",
        "hours": "7 AM to 7 PM"
      },
      {
        "day": "Tuesday",
        "hours": "7 AM to 7 PM"
      },
      {
        "day": "Wednesday",
        "hours": "7 AM to 7 PM"
      },
      {
        "day": "Thursday",
        "hours": "7 AM to 7 PM"
      },
      {
        "day": "Friday",
        "hours": "7 AM to 7 PM"
      },
      {
        "day": "Saturday",
        "hours": "7 AM to 7:30 PM"
      },
      {
        "day": "Sunday",
        "hours": "7 AM to 7 PM"
      }
    ],
    "peopleAlsoSearch": [],
    "placesTags": [],
    "reviewsTags": [],
    "gasPrices": [],
    "url": "https://www.google.com/maps/search/?api=1&query=Graphika%20Academy&query_place_id=ChIJ1fGWuo8b6zkRvqTQFlUUNkw",
    "searchPageUrl": "https://www.google.com/maps/search/school/@27.666993023382226,85.4287066988148,17z?hl=en",
    "searchString": "school",
    "language": "en",
    "rank": 79,
    "isAdvertisement": false,
    "imageUrl": "https://lh3.googleusercontent.com/p/AF1QipObr0OFqrVal0MkknV0sFTclR-GCducE-AjLQbu=w408-h306-k-no",
    "kgmid": "/g/11vwm_ml0c"
  },
  {
    "title": "Animax Animation Academy Bhaktapur",
    "price": null,
    "categoryName": "Computer training school",
    "address": "Bhaktapur Party Venue, Gapali chowk beside, Bhaktapur 44800, Nepal",
    "neighborhood": null,
    "street": "Bhaktapur Party Venue, Gapali chowk beside",
    "city": "Bhaktapur",
    "postalCode": "44800",
    "state": null,
    "countryCode": "NP",
    "website": "http://www.animaxacademy.com/",
    "phone": "+977 1-6620343",
    "phoneUnformatted": "+97716620343",
    "claimThisBusiness": false,
    "location": {
      "lat": 27.6668076,
      "lng": 85.4254265
    },
    "totalScore": 3.3,
    "permanentlyClosed": false,
    "temporarilyClosed": false,
    "placeId": "ChIJz7REbaYa6zkRk__oZSVHG5w",
    "categories": [
      "Computer training school",
      "Animation studio"
    ],
    "fid": "0x39eb1aa66d44b4cf:0x9c1b472565e8ff93",
    "cid": "11248662720237076371",
    "reviewsCount": 10,
    "reviewsDistribution": {
      "oneStar": 3,
      "twoStar": 1,
      "threeStar": 0,
      "fourStar": 2,
      "fiveStar": 4
    },
    "imagesCount": 9,
    "imageCategories": [],
    "scrapedAt": "2025-11-14T08:41:00.191Z",
    "googleFoodUrl": null,
    "hotelAds": [],
    "openingHours": [
      {
        "day": "Monday",
        "hours": "7 AM to 7 PM"
      },
      {
        "day": "Tuesday",
        "hours": "7 AM to 5 PM"
      },
      {
        "day": "Wednesday",
        "hours": "7 AM to 7 PM"
      },
      {
        "day": "Thursday",
        "hours": "7 AM to 7 PM"
      },
      {
        "day": "Friday",
        "hours": "7 AM to 7 PM"
      },
      {
        "day": "Saturday",
        "hours": "Closed"
      },
      {
        "day": "Sunday",
        "hours": "7 AM to 7 PM"
      }
    ],
    "peopleAlsoSearch": [],
    "placesTags": [],
    "reviewsTags": [],
    "additionalInfo": {
      "Service options": [
        {
          "Online classes": true
        }
      ],
      "Accessibility": [
        {
          "Wheelchair accessible entrance": false
        },
        {
          "Wheelchair accessible parking lot": false
        }
      ]
    },
    "gasPrices": [],
    "url": "https://www.google.com/maps/search/?api=1&query=Animax%20Animation%20Academy%20Bhaktapur&query_place_id=ChIJz7REbaYa6zkRk__oZSVHG5w",
    "searchPageUrl": "https://www.google.com/maps/search/school/@27.666993023382226,85.4287066988148,17z?hl=en",
    "searchString": "school",
    "language": "en",
    "rank": 88,
    "isAdvertisement": false,
    "imageUrl": "https://lh3.googleusercontent.com/gps-cs-s/AG0ilSya9Cvwzl2_20ptv3KuXfzmdahOQcrzBdhYhdkR2ELgeuyZGvZm6A8U8mAbrjlhT_r-Iz4HHClEG2fPSIFO4LB18Krvvio28ZdJxFnAQrRgpbbp8eKYPwsUwLb1Qtdag7324nO4=w408-h543-k-no",
    "kgmid": "/g/11f4pjfb39"
  },
  {
    "title": "World Vision Computer Institute",
    "price": null,
    "categoryName": "Computer training school",
    "address": "MC8F+57Q, Pandobazar, Bhaktapur 44800, Nepal",
    "neighborhood": "Bharisthan",
    "street": "MC8F+57Q, Pandobazar",
    "city": "Bhaktapur",
    "postalCode": null,
    "state": null,
    "countryCode": "NP",
    "website": "http://www.worldvisionnepal.blogspot.com/",
    "phone": "+977 1-5092182",
    "phoneUnformatted": "+97715092182",
    "claimThisBusiness": true,
    "location": {
      "lat": 27.6654637,
      "lng": 85.4232435
    },
    "totalScore": 3.3,
    "permanentlyClosed": false,
    "temporarilyClosed": false,
    "placeId": "ChIJZ7WG56Ya6zkRNwvX6ofnK88",
    "categories": [
      "Computer training school"
    ],
    "fid": "0x39eb1aa6e786b567:0xcf2be787ead70b37",
    "cid": "14928279960796203831",
    "reviewsCount": 3,
    "reviewsDistribution": {
      "oneStar": 1,
      "twoStar": 0,
      "threeStar": 0,
      "fourStar": 1,
      "fiveStar": 1
    },
    "imagesCount": 2,
    "imageCategories": [],
    "scrapedAt": "2025-11-14T08:41:00.191Z",
    "googleFoodUrl": null,
    "hotelAds": [],
    "openingHours": [
      {
        "day": "Monday",
        "hours": "9 AM to 5 PM"
      },
      {
        "day": "Tuesday",
        "hours": "9 AM to 5 PM"
      },
      {
        "day": "Wednesday",
        "hours": "9 AM to 5 PM"
      },
      {
        "day": "Thursday",
        "hours": "9 AM to 5 PM"
      },
      {
        "day": "Friday",
        "hours": "9 AM to 5 PM"
      },
      {
        "day": "Saturday",
        "hours": "Closed"
      },
      {
        "day": "Sunday",
        "hours": "9 AM to 5 PM"
      }
    ],
    "peopleAlsoSearch": [],
    "placesTags": [],
    "reviewsTags": [],
    "gasPrices": [],
    "url": "https://www.google.com/maps/search/?api=1&query=World%20Vision%20Computer%20Institute&query_place_id=ChIJZ7WG56Ya6zkRNwvX6ofnK88",
    "searchPageUrl": "https://www.google.com/maps/search/school/@27.666993023382226,85.4287066988148,17z?hl=en",
    "searchString": "school",
    "language": "en",
    "rank": 91,
    "isAdvertisement": false,
    "imageUrl": "https://streetviewpixels-pa.googleapis.com/v1/thumbnail?panoid=Z1l31jotmZm-uTHrChUrtA&cb_client=search.gws-prod.gps&w=408&h=240&yaw=188.16042&pitch=0&thumbfov=100",
    "kgmid": "/g/1hf0fxh8d"
  },
  {
    "title": "C.Net Computer Education",
    "price": null,
    "categoryName": "Computer training school",
    "address": "F099, Suryabinayak 44800, Nepal",
    "neighborhood": null,
    "street": "F099",
    "city": "Suryabinayak",
    "postalCode": "44800",
    "state": null,
    "countryCode": "NP",
    "phone": "+977 1-6611501",
    "phoneUnformatted": "+97716611501",
    "claimThisBusiness": false,
    "location": {
      "lat": 27.6659903,
      "lng": 85.4258603
    },
    "totalScore": 3.1,
    "permanentlyClosed": false,
    "temporarilyClosed": false,
    "placeId": "ChIJizbPTaYa6zkRd9oo4nNjxMw",
    "categories": [
      "Computer training school",
      "Computer consultant",
      "Computer repair service",
      "Computers"
    ],
    "fid": "0x39eb1aa64dcf368b:0xccc46373e228da77",
    "cid": "14755027628539304567",
    "reviewsCount": 7,
    "reviewsDistribution": {
      "oneStar": 3,
      "twoStar": 0,
      "threeStar": 0,
      "fourStar": 1,
      "fiveStar": 3
    },
    "imagesCount": 5,
    "imageCategories": [],
    "scrapedAt": "2025-11-14T08:41:00.191Z",
    "googleFoodUrl": null,
    "hotelAds": [],
    "openingHours": [
      {
        "day": "Monday",
        "hours": "6 AM to 8 PM"
      },
      {
        "day": "Tuesday",
        "hours": "6 AM to 8 PM"
      },
      {
        "day": "Wednesday",
        "hours": "6 AM to 8 PM"
      },
      {
        "day": "Thursday",
        "hours": "6 AM to 8 PM"
      },
      {
        "day": "Friday",
        "hours": "6 AM to 8 PM"
      },
      {
        "day": "Saturday",
        "hours": "Closed"
      },
      {
        "day": "Sunday",
        "hours": "6 AM to 8 PM"
      }
    ],
    "peopleAlsoSearch": [],
    "placesTags": [],
    "reviewsTags": [],
    "gasPrices": [],
    "url": "https://www.google.com/maps/search/?api=1&query=C.Net%20Computer%20Education&query_place_id=ChIJizbPTaYa6zkRd9oo4nNjxMw",
    "searchPageUrl": "https://www.google.com/maps/search/school/@27.666993023382226,85.4287066988148,17z?hl=en",
    "searchString": "school",
    "language": "en",
    "rank": 94,
    "isAdvertisement": false,
    "imageUrl": "https://lh3.googleusercontent.com/gps-cs-s/AG0ilSyaf-w1L1jKXX06u_hLLiOEYw2WGlSsn7kXcjRoZzF8GaWs9nhqePQxXg2sR2BpRj7VGran_gBH80avLy5wXV-a98Oq-nx6ejbHFfBWwt8PReenMFusPE9LN8JDKRnymOeuX53D=w408-h306-k-no",
    "kgmid": "/g/12hlj8sjw"
  },
  {
    "title": "SHOVASA COMPUTER TECHNOLOGY",
    "price": null,
    "categoryName": "Computer training school",
    "address": "MCFQ+879, Bhaktapur 44800, Nepal",
    "neighborhood": null,
    "street": "MCFQ+879",
    "city": "Bhaktapur",
    "postalCode": "44800",
    "state": null,
    "countryCode": "NP",
    "phone": "+977 1-6619480",
    "phoneUnformatted": "+97716619480",
    "claimThisBusiness": true,
    "location": {
      "lat": 27.6732817,
      "lng": 85.4382234
    },
    "totalScore": 4.7,
    "permanentlyClosed": false,
    "temporarilyClosed": false,
    "placeId": "ChIJ38dkulIF6zkRBtOcPYLhjTA",
    "categories": [
      "Computer training school"
    ],
    "fid": "0x39eb0552ba64c7df:0x308de1823d9cd306",
    "cid": "3498700435032429318",
    "reviewsCount": 3,
    "reviewsDistribution": {
      "oneStar": 0,
      "twoStar": 0,
      "threeStar": 0,
      "fourStar": 1,
      "fiveStar": 2
    },
    "imagesCount": 14,
    "imageCategories": [],
    "scrapedAt": "2025-11-14T08:42:59.649Z",
    "googleFoodUrl": null,
    "hotelAds": [],
    "openingHours": [
      {
        "day": "Monday",
        "hours": "7 AM to 7 PM"
      },
      {
        "day": "Tuesday",
        "hours": "7 AM to 7 PM"
      },
      {
        "day": "Wednesday",
        "hours": "7 AM to 7 PM"
      },
      {
        "day": "Thursday",
        "hours": "7 AM to 7 PM"
      },
      {
        "day": "Friday",
        "hours": "7 AM to 7 PM"
      },
      {
        "day": "Saturday",
        "hours": "Closed"
      },
      {
        "day": "Sunday",
        "hours": "7 AM to 7 PM"
      }
    ],
    "peopleAlsoSearch": [],
    "placesTags": [],
    "reviewsTags": [],
    "gasPrices": [],
    "url": "https://www.google.com/maps/search/?api=1&query=SHOVASA%20COMPUTER%20TECHNOLOGY&query_place_id=ChIJ38dkulIF6zkRBtOcPYLhjTA",
    "searchPageUrl": "https://www.google.com/maps/search/school/@27.674599999999995,85.43729330118518,17z?hl=en",
    "searchString": "school",
    "language": "en",
    "rank": 59,
    "isAdvertisement": false,
    "imageUrl": "https://lh3.googleusercontent.com/gps-cs-s/AG0ilSybKtuzQhrmZt8j8tDOF2_Fl7wGzGj143XDlekBKrXtA6tZ_iQ6Cv-3RNrfyNC5BWznI6RH4oKDKIBdCucpCDQYd0U0KUXl6SaJzLRFO4SdbSemnDR-7x6uLH2_UbIGmmUXWLu3=w408-h306-k-no",
    "kgmid": "/g/11b6s6jzkq"
  },
  {
    "title": "Helens Computer Institute",
    "subTitle": "हेलेन्स कम्प्युटर इन्स्टिच्युट",
    "price": null,
    "categoryName": "Computer training school",
    "address": "Nagarkot Highway, Kamalbinayak, Bhaktapur Municipality #4, Bhaktapur, 44601, Nepal, Bhaktapur, Nepal",
    "neighborhood": null,
    "street": "Nagarkot Highway, Kamalbinayak, Bhaktapur Municipality #4, Bhaktapur, 44601, Nepal",
    "city": "Bhaktapur",
    "postalCode": null,
    "state": null,
    "countryCode": "NP",
    "phone": "+977 1-6619120",
    "phoneUnformatted": "+97716619120",
    "claimThisBusiness": true,
    "location": {
      "lat": 27.6774297,
      "lng": 85.4374605
    },
    "totalScore": 5,
    "permanentlyClosed": false,
    "temporarilyClosed": false,
    "placeId": "ChIJ8_8-K7Ma6zkRSyu5sp13Ss0",
    "categories": [
      "Computer training school"
    ],
    "fid": "0x39eb1ab32b3efff3:0xcd4a779db2b92b4b",
    "cid": "14792767445243865931",
    "reviewsCount": 2,
    "reviewsDistribution": {
      "oneStar": 0,
      "twoStar": 0,
      "threeStar": 0,
      "fourStar": 0,
      "fiveStar": 2
    },
    "imagesCount": 7,
    "imageCategories": [],
    "scrapedAt": "2025-11-14T08:43:00.356Z",
    "googleFoodUrl": null,
    "hotelAds": [],
    "openingHours": [
      {
        "day": "Monday",
        "hours": "6 AM to 7 PM"
      },
      {
        "day": "Tuesday",
        "hours": "6 AM to 7 PM"
      },
      {
        "day": "Wednesday",
        "hours": "6 AM to 7 PM"
      },
      {
        "day": "Thursday",
        "hours": "6 AM to 7 PM"
      },
      {
        "day": "Friday",
        "hours": "6 AM to 7 PM"
      },
      {
        "day": "Saturday",
        "hours": "6 AM to 7 PM"
      },
      {
        "day": "Sunday",
        "hours": "6 AM to 7 PM"
      }
    ],
    "peopleAlsoSearch": [],
    "placesTags": [],
    "reviewsTags": [],
    "gasPrices": [],
    "url": "https://www.google.com/maps/search/?api=1&query=Helens%20Computer%20Institute&query_place_id=ChIJ8_8-K7Ma6zkRSyu5sp13Ss0",
    "searchPageUrl": "https://www.google.com/maps/search/school/@27.674599999999995,85.43729330118518,17z?hl=en",
    "searchString": "school",
    "language": "en",
    "rank": 72,
    "isAdvertisement": false,
    "imageUrl": "https://lh3.googleusercontent.com/gps-cs-s/AG0ilSy4zv7Mq_KLw7Igfg2dDW9FrXwojuABQYMcYas2J8ytx4Uq6Sxks31m0AA6v7jWpzxv2kuBv5ZXdo94CkfFnG2OYf4joBWWq2R4ii2_iv9fpwb2i-3FD1NAgEBvpbsrT9glqJFW=w408-h306-k-no",
    "kgmid": "/g/1tdj2mdv"
  },
  {
    "title": "Indreni Computer Institute",
    "price": null,
    "categoryName": "Computer training school",
    "address": "MCC5+H89, Araniko Highway, Suryabinayak 44800, Nepal",
    "neighborhood": "Katunje",
    "street": "MCC5+H89, Araniko Highway",
    "city": "Suryabinayak",
    "postalCode": "44800",
    "state": null,
    "countryCode": "NP",
    "phone": "+977 984-1208025",
    "phoneUnformatted": "+9779841208025",
    "claimThisBusiness": true,
    "location": {
      "lat": 27.671402,
      "lng": 85.40835
    },
    "totalScore": 1,
    "permanentlyClosed": false,
    "temporarilyClosed": false,
    "placeId": "ChIJBTSC7poa6zkR2aFAHJTN2KM",
    "categories": [
      "Computer training school"
    ],
    "fid": "0x39eb1a9aee823405:0xa3d8cd941c40a1d9",
    "cid": "11806412459164606937",
    "reviewsCount": 1,
    "reviewsDistribution": {
      "oneStar": 1,
      "twoStar": 0,
      "threeStar": 0,
      "fourStar": 0,
      "fiveStar": 0
    },
    "imagesCount": 3,
    "imageCategories": [],
    "scrapedAt": "2025-11-14T08:43:01.856Z",
    "googleFoodUrl": null,
    "hotelAds": [],
    "openingHours": [
      {
        "day": "Monday",
        "hours": "8 AM to 6 PM"
      },
      {
        "day": "Tuesday",
        "hours": "8 AM to 6 PM"
      },
      {
        "day": "Wednesday",
        "hours": "8 AM to 6 PM"
      },
      {
        "day": "Thursday",
        "hours": "8 AM to 6 PM"
      },
      {
        "day": "Friday",
        "hours": "8 AM to 6 PM"
      },
      {
        "day": "Saturday",
        "hours": "8 AM to 6 PM"
      },
      {
        "day": "Sunday",
        "hours": "8 AM to 6 PM"
      }
    ],
    "peopleAlsoSearch": [],
    "placesTags": [],
    "reviewsTags": [],
    "gasPrices": [],
    "url": "https://www.google.com/maps/search/?api=1&query=Indreni%20Computer%20Institute&query_place_id=ChIJBTSC7poa6zkR2aFAHJTN2KM",
    "searchPageUrl": "https://www.google.com/maps/search/school/@27.674599999999995,85.40294689170369,17z?hl=en",
    "searchString": "school",
    "language": "en",
    "rank": 50,
    "isAdvertisement": false,
    "imageUrl": "https://lh3.googleusercontent.com/gps-proxy/ALd4DhEhtmhJr2_L_bD6vh39xpzzOsjZn068Exix2Mb8eM9z8g_k4xwKMWZVveZ4FZr1vDWUO1-ySdPUQcALlshLDMib8DHZZAi6rWqRb1osVBVWq8FZJDFz3ziUbkJzz8vO47D87STtiHDtjFXJ2m89Dy5X0hEdfICaM-osWK_2SmxHhozbXQpu2dSFmBKqatVYuKfMMA=w426-h240-k-no",
    "kgmid": "/g/11b6sk8s5l"
  }
]