[
  {
    "title": "Suryabinayak driving centre",
    "price": null,
    "categoryName": "Driving school",
    "address": "MC7G+M8P, Suryabinayak 44800, Nepal",
    "neighborhood": "Sipadol",
    "street": "MC7G+M8P",
    "city": "Suryabinayak",
    "postalCode": null,
    "state": null,
    "countryCode": "NP",
    "phone": "+977 986-0512556",
    "phoneUnformatted": "+9779860512556",
    "claimThisBusiness": true,
    "location": {
      "lat": 27.6642026,
      "lng": 85.4258261
    },
    "permanentlyClosed": false,
    "temporarilyClosed": false,
    "placeId": "ChIJg4c2QREb6zkR-n9IPMkOkPM",
    "categories": [
      "Driving school"
    ],
    "fid": "0x39eb1b1141368783:0xf3900ec93c487ffa",
    "cid": "17550544005325422586",
    "reviewsCount": 0,
    "imagesCount": 2,
    "imageCategories": [],
    "scrapedAt": "2025-11-14T08:14:02.093Z",
    "googleFoodUrl": null,
    "hotelAds": [],
    "openingHours": [
      {
        "day": "Monday",
        "hours": "Open 24 hours"
      },
      {
        "day": "Tuesday",
        "hours": "Open 24 hours"
      },
      {
        "day": "Wednesday",
        "hours": "Open 24 hours"
      },
      {
        "day": "Thursday",
        "hours": "Open 24 hours"
      },
      {
        "day": "Friday",
        "hours": "Open 24 hours"
      },
      {
        "day": "Saturday",
        "hours": "Open 24 hours"
      },
      {
        "day": "Sunday",
        "hours": "Open 24 hours"
      }
    ],
    "peopleAlsoSearch": [],
    "placesTags": [],
    "reviewsTags": [],
    "gasPrices": [],
    "url": "https://www.google.com/maps/search/?api=1&query=Suryabinayak%20driving%20centre&query_place_id=ChIJg4c2QREb6zkR-n9IPMkOkPM",
    "searchPageUrl": "https://www.google.com/maps/search/training%20center/@27.667695459098024,85.42150000000001,17z?hl=en",
    "searchString": "training center",
    "language": "en",
    "rank": 53,
    "isAdvertisement": false,
    "imageUrl": "https://streetviewpixels-pa.googleapis.com/v1/thumbnail?panoid=NNWJxKLSh1RAjeWOZ2e8Aw&cb_client=search.gws-prod.gps&w=408&h=240&yaw=243.89969&pitch=0&thumbfov=100",
    "kgmid": "/g/11j4vlp4ks"
  },
  {
    "title": "Antique Driving School",
    "price": null,
    "categoryName": "Driving school",
    "address": "MC9J+6C7, Kalhacha, Bhaktapur 44800, Nepal",
    "neighborhood": null,
    "street": "MC9J+6C7, Kalhacha",
    "city": "Bhaktapur",
    "postalCode": "44800",
    "state": null,
    "countryCode": "NP",
    "phone": "+977 984-3182055",
    "phoneUnformatted": "+9779843182055",
    "claimThisBusiness": true,
    "location": {
      "lat": 27.6680464,
      "lng": 85.4310557
    },
    "totalScore": 4.1,
    "permanentlyClosed": false,
    "temporarilyClosed": false,
    "placeId": "ChIJZSCNGvgb6zkRMDT9YxKlR3k",
    "categories": [
      "Driving school"
    ],
    "fid": "0x39eb1bf81a8d2065:0x7947a51263fd3430",
    "cid": "8739135100341269552",
    "reviewsCount": 35,
    "reviewsDistribution": {
      "oneStar": 2,
      "twoStar": 0,
      "threeStar": 7,
      "fourStar": 9,
      "fiveStar": 17
    },
    "imagesCount": 75,
    "imageCategories": [],
    "scrapedAt": "2025-11-14T08:40:59.377Z",
    "googleFoodUrl": null,
    "hotelAds": [],
    "openingHours": [
      {
        "day": "Monday",
        "hours": "6:30 AM to 6 PM"
      },
      {
        "day": "Tuesday",
        "hours": "6:30 AM to 6 PM"
      },
      {
        "day": "Wednesday",
        "hours": "6:30 AM to 6 PM"
      },
      {
        "day": "Thursday",
        "hours": "6:30 AM to 6 PM"
      },
      {
        "day": "Friday",
        "hours": "6:30 AM to 6 PM"
      },
      {
        "day": "Saturday",
        "hours": "6:30 AM to 6 PM"
      },
      {
        "day": "Sunday",
        "hours": "6:30 AM to 6 PM"
      }
    ],
    "peopleAlsoSearch": [],
    "placesTags": [],
    "reviewsTags": [],
    "additionalInfo": {
      "Service options": [
        {
          "Online classes": false
        }
      ],
      "Accessibility": [
        {
          "Wheelchair accessible entrance": true
        },
        {
          "Wheelchair accessible parking lot": true
        }
      ]
    },
    "gasPrices": [],
    "url": "https://www.google.com/maps/search/?api=1&query=Antique%20Driving%20School&query_place_id=ChIJZSCNGvgb6zkRMDT9YxKlR3k",
    "searchPageUrl": "https://www.google.com/maps/search/school/@27.666993023382226,85.4287066988148,17z?hl=en",
    "searchString": "school",
    "language": "en",
    "rank": 76,
    "isAdvertisement": false,
    "imageUrl": "https://lh3.googleusercontent.com/gps-cs-s/AG0ilSzX0WasJxkiV6F0htzZBIhOwyADE7002PUPXizynoqGjucJFpS2Cu3oFQXXOpfMNUupQFJmSYSTIx0szo0-MzISKC6Uxws0T1ljC_3X5MSLXg0oVc0dkdpXAdGs0aOTV3Bc_ZOk=w408-h306-k-no",
    "kgmid": "/g/11jdgxv7j1"
  },
  {
    "title": "Suryabinayak driving centre",
    "price": null,
    "categoryName": "Driving school",
    "address": "MC7G+M8P, Suryabinayak 44800, Nepal",
    "neighborhood": "Sipadol",
    "street": "MC7G+M8P",
    "city": "Suryabinayak",
    "postalCode": null,
    "state": null,
    "countryCode": "NP",
    "phone": "+977 986-0512556",
    "phoneUnformatted": "+9779860512556",
    "claimThisBusiness": true,
    "location": {
      "lat": 27.6642026,
      "lng": 85.4258261
    },
    "permanentlyClosed": false,
    "temporarilyClosed": false,
    "placeId": "ChIJg4c2QREb6zkR-n9IPMkOkPM",
    "categories": [
      "Driving school"
    ],
    "fid": "0x39eb1b1141368783:0xf3900ec93c487ffa",
    "cid": "17550544005325422586",
    "reviewsCount": 0,
    "imagesCount": 2,
    "imageCategories": [],
    "scrapedAt": "2025-11-14T08:41:00.192Z",
    "googleFoodUrl": null,
    "hotelAds": [],
    "openingHours": [
      {
        "day": "Monday",
        "hours": "Open 24 hours"
      },
      {
        "day": "Tuesday",
        "hours": "Open 24 hours"
      },
      {
        "day": "Wednesday",
        "hours": "Open 24 hours"
      },
      {
        "day": "Thursday",
        "hours": "Open 24 hours"
      },
      {
        "day": "Friday",
        "hours": "Open 24 hours"
      },
      {
        "day": "Saturday",
        "hours": "Open 24 hours"
      },
      {
        "day": "Sunday",
        "hours": "Open 24 hours"
      }
    ],
    "peopleAlsoSearch": [],
    "placesTags": [],
    "reviewsTags": [],
    "gasPrices": [],
    "url": "https://www.google.com/maps/search/?api=1&query=Suryabinayak%20driving%20centre&query_place_id=ChIJg4c2QREb6zkR-n9IPMkOkPM",
    "searchPageUrl": "https://www.google.com/maps/search/school/@27.666993023382226,85.4287066988148,17z?hl=en",
    "searchString": "school",
    "language": "en",
    "rank": 96,
    "isAdvertisement": false,
    "imageUrl": "https://streetviewpixels-pa.googleapis.com/v1/thumbnail?panoid=NNWJxKLSh1RAjeWOZ2e8Aw&cb_client=search.gws-prod.gps&w=408&h=240&yaw=243.89969&pitch=0&thumbfov=100",
    "kgmid": "/g/11j4vlp4ks"
  },
  {
    "title": "Driving Skill Development Centre Nepal pvt.ltd.",
    "price": null,
    "categoryName": "Driving school",
    "address": "MCPJ+P4X, Mandev Marg, Changunarayan 44800, Nepal",
    "neighborhood": "Jhaukhel",
    "street": "MCPJ+P4X, Mandev Marg",
    "city": "Changunarayan",
    "postalCode": "44800",
    "state": null,
    "countryCode": "NP",
    "phone": "+977 976-7238975",
    "phoneUnformatted": "+9779767238975",
    "claimThisBusiness": true,
    "location": {
      "lat": 27.6871905,
      "lng": 85.4303574
    },
    "totalScore": 4.9,
    "permanentlyClosed": false,
    "temporarilyClosed": false,
    "placeId": "ChIJ9-p_RAAb6zkRXe0J_bsVyMc",
    "categories": [
      "Driving school"
    ],
    "fid": "0x39eb1b00447feaf7:0xc7c815bbfd09ed5d",
    "cid": "14395780106038144349",
    "reviewsCount": 7,
    "reviewsDistribution": {
      "oneStar": 0,
      "twoStar": 0,
      "threeStar": 0,
      "fourStar": 1,
      "fiveStar": 6
    },
    "imagesCount": 8,
    "imageCategories": [],
    "scrapedAt": "2025-11-14T08:41:04.713Z",
    "googleFoodUrl": null,
    "hotelAds": [],
    "openingHours": [],
    "peopleAlsoSearch": [],
    "placesTags": [],
    "reviewsTags": [],
    "gasPrices": [],
    "url": "https://www.google.com/maps/search/?api=1&query=Driving%20Skill%20Development%20Centre%20Nepal%20pvt.ltd.&query_place_id=ChIJ9-p_RAAb6zkRXe0J_bsVyMc",
    "searchPageUrl": "https://www.google.com/maps/search/school/@27.689813953235532,85.43729330118518,17z?hl=en",
    "searchString": "school",
    "language": "en",
    "rank": 21,
    "isAdvertisement": false,
    "imageUrl": "https://lh3.googleusercontent.com/gps-cs-s/AG0ilSysRYgoT2fVjpaeP1N65QFzVdVlnCF3zHRqoO86_gnlq_HoZq8-HCloJC5m_g9IaLOg219lEqA0yaiFQVzH_AKSjTNSTKNIqFhSN7SdQgEPl-paxsQORmR7ByvT1JnwuKNVe9b8cMu3TpP8=w408-h306-k-no",
    "kgmid": "/g/11vy6c5fgx"
  },
  {
    "title": "Duwakot driving institute",
    "price": null,
    "categoryName": "Driving school",
    "address": "Duwakot VDC, Sallaghari- Duwakot Rd, Changunarayan, Nepal",
    "neighborhood": "Duwakot",
    "street": "Duwakot VDC, Sallaghari- Duwakot Rd",
    "city": "Changunarayan",
    "postalCode": null,
    "state": null,
    "countryCode": "NP",
    "phone": "+977 985-1082881",
    "phoneUnformatted": "+9779851082881",
    "claimThisBusiness": true,
    "location": {
      "lat": 27.6869334,
      "lng": 85.4115947
    },
    "totalScore": 5,
    "permanentlyClosed": false,
    "temporarilyClosed": false,
    "placeId": "ChIJ4UFd_u8b6zkRpLZoCxpL9To",
    "categories": [
      "Driving school"
    ],
    "fid": "0x39eb1beffe5d41e1:0x3af54b1a0b68b6a4",
    "cid": "4248384398726575780",
    "reviewsCount": 4,
    "imagesCount": 10,
    "imageCategories": [],
    "scrapedAt": "2025-11-14T08:42:29.011Z",
    "googleFoodUrl": null,
    "hotelAds": [],
    "openingHours": [
      {
        "day": "Monday",
        "hours": "5 AM to 8 PM"
      },
      {
        "day": "Tuesday",
        "hours": "5 AM to 8 PM"
      },
      {
        "day": "Wednesday",
        "hours": "5 AM to 8 PM"
      },
      {
        "day": "Thursday",
        "hours": "5 AM to 8 PM"
      },
      {
        "day": "Friday",
        "hours": "5 AM to 8 PM"
      },
      {
        "day": "Saturday",
        "hours": "5 AM to 8 PM"
      },
      {
        "day": "Sunday",
        "hours": "5 AM to 8 PM"
      }
    ],
    "peopleAlsoSearch": [],
    "placesTags": [],
    "reviewsTags": [],
    "gasPrices": [],
    "url": "https://www.google.com/maps/search/?api=1&query=Duwakot%20driving%20institute&query_place_id=ChIJ4UFd_u8b6zkRpLZoCxpL9To",
    "searchPageUrl": "https://www.google.com/maps/search/school/@27.689813953235532,85.41153349407406,17z?hl=en",
    "searchString": "school",
    "language": "en",
    "rank": 20,
    "isAdvertisement": false,
    "imageUrl": "https://lh3.googleusercontent.com/gps-cs-s/AG0ilSwN08sAhTHcx2FDoTFVSwrrG8GHU_2a_vNldIwbHIK9fxjytG2NzfI8l2ZH5fAwC1Kkzkd3aMPOgSmwitz96P5ByfJiFXtiVskZGNoId8b8kP8Ei4N9S1D-_hqtrVGnvXAt7Ms=w408-h725-k-no",
    "kgmid": "/g/11syr3bgzh"
  },
  {
    "title": "Khwopa Moter Driving Training Center",
    "price": null,
    "categoryName": "Driving school",
    "address": "Degaina ganesh tempal -9 nala road, Nepal",
    "neighborhood": null,
    "street": "Degaina ganesh tempal -9 nala road",
    "city": "Bhaktapur",
    "postalCode": null,
    "state": null,
    "countryCode": "NP",
    "phone": "+977 985-1044049",
    "phoneUnformatted": "+9779851044049",
    "claimThisBusiness": false,
    "location": {
      "lat": 27.6736055,
      "lng": 85.4409466
    },
    "permanentlyClosed": false,
    "temporarilyClosed": false,
    "placeId": "ChIJB_1aGKMF6zkRo2xtxC-boao",
    "categories": [
      "Driving school"
    ],
    "fid": "0x39eb05a3185afd07:0xaaa19b2fc46d6ca3",
    "cid": "12295279087159438499",
    "reviewsCount": 0,
    "imagesCount": 15,
    "imageCategories": [],
    "scrapedAt": "2025-11-14T08:43:00.356Z",
    "googleFoodUrl": null,
    "hotelAds": [],
    "openingHours": [
      {
        "day": "Monday",
        "hours": "6:30 AM to 6 PM"
      },
      {
        "day": "Tuesday",
        "hours": "6 AM to 6 PM"
      },
      {
        "day": "Wednesday",
        "hours": "6 AM to 6 PM"
      },
      {
        "day": "Thursday",
        "hours": "6 AM to 6 PM"
      },
      {
        "day": "Friday",
        "hours": "6 AM to 5 PM"
      },
      {
        "day": "Saturday",
        "hours": "Closed"
      },
      {
        "day": "Sunday",
        "hours": "6 AM to 12 AM"
      }
    ],
    "peopleAlsoSearch": [],
    "placesTags": [],
    "reviewsTags": [],
    "gasPrices": [],
    "url": "https://www.google.com/maps/search/?api=1&query=Khwopa%20Moter%20Driving%20Training%20Center&query_place_id=ChIJB_1aGKMF6zkRo2xtxC-boao",
    "searchPageUrl": "https://www.google.com/maps/search/school/@27.674599999999995,85.43729330118518,17z?hl=en",
    "searchString": "school",
    "language": "en",
    "rank": 70,
    "isAdvertisement": false,
    "imageUrl": "https://lh3.googleusercontent.com/p/AF1QipO61nosOJjL_SWkBo90UKW8V9shkrqDi5JtVDFs=w408-h725-k-no",
    "kgmid": "/g/11tcf9pvyc"
  },
  {
    "title": "Bhaktapur Motor Driving Centre",
    "subTitle": "भक्तपुर मोटर ड्राइभिङ्ग केन्द्र",
    "price": null,
    "categoryName": "Driving school",
    "address": "MCCQ+W9V, Bhaktapur 44800, Nepal",
    "neighborhood": null,
    "street": "MCCQ+W9V",
    "city": "Bhaktapur",
    "postalCode": "44800",
    "state": null,
    "countryCode": "NP",
    "phone": "+977 974-1319614",
    "phoneUnformatted": "+9779741319614",
    "claimThisBusiness": true,
    "location": {
      "lat": 27.6723636,
      "lng": 85.4384343
    },
    "totalScore": 2.8,
    "permanentlyClosed": false,
    "temporarilyClosed": false,
    "placeId": "ChIJlwhPxFIF6zkRhjr9aD7cdQg",
    "categories": [
      "Driving school"
    ],
    "fid": "0x39eb0552c44f0897:0x875dc3e68fd3a86",
    "cid": "609635485186079366",
    "reviewsCount": 5,
    "reviewsDistribution": {
      "oneStar": 2,
      "twoStar": 1,
      "threeStar": 0,
      "fourStar": 0,
      "fiveStar": 2
    },
    "imagesCount": 2,
    "imageCategories": [],
    "scrapedAt": "2025-11-14T08:43:00.356Z",
    "googleFoodUrl": null,
    "hotelAds": [],
    "openingHours": [],
    "peopleAlsoSearch": [],
    "placesTags": [],
    "reviewsTags": [],
    "gasPrices": [],
    "url": "https://www.google.com/maps/search/?api=1&query=Bhaktapur%20Motor%20Driving%20Centre&query_place_id=ChIJlwhPxFIF6zkRhjr9aD7cdQg",
    "searchPageUrl": "https://www.google.com/maps/search/school/@27.674599999999995,85.43729330118518,17z?hl=en",
    "searchString": "school",
    "language": "en",
    "rank": 73,
    "isAdvertisement": false,
    "imageUrl": "https://lh3.googleusercontent.com/gps-cs-s/AG0ilSxMqR-lm_IuSvZoms6mxUE6U99GzZnC-CeyMbtpADoX5pqvRNWvWzT-zZxNABdzTZV2wK_5LuWmKIz5NzNcwBz2mAb13_Ih8NVLjQiZjaUDjXK4j5XvVTOPMAj5Mgl06ieqSqEU1A=w426-h240-k-no",
    "kgmid": "/g/11dyxncrjp"
  },
  {
    "title": "Bhaktapur Driving School",
    "price": null,
    "categoryName": "Driving school",
    "address": "MCG4+GHM, Unnamed Road, Bhaktapur 44800, Nepal",
    "neighborhood": null,
    "street": "MCG4+GHM, Unnamed Road",
    "city": "Bhaktapur",
    "postalCode": "44800",
    "state": null,
    "countryCode": "NP",
    "phone": "+977 985-1003303",
    "phoneUnformatted": "+9779851003303",
    "claimThisBusiness": true,
    "location": {
      "lat": 27.6763302,
      "lng": 85.4064309
    },
    "totalScore": 3.6,
    "permanentlyClosed": false,
    "temporarilyClosed": false,
    "placeId": "ChIJpSnz3hIb6zkRB82smdbYAIk",
    "categories": [
      "Driving school"
    ],
    "fid": "0x39eb1b12def329a5:0x8900d8d699accd07",
    "cid": "9872128799408966919",
    "reviewsCount": 21,
    "reviewsDistribution": {
      "oneStar": 4,
      "twoStar": 1,
      "threeStar": 4,
      "fourStar": 2,
      "fiveStar": 10
    },
    "imagesCount": 30,
    "imageCategories": [],
    "scrapedAt": "2025-11-14T08:43:01.056Z",
    "googleFoodUrl": null,
    "hotelAds": [],
    "openingHours": [
      {
        "day": "Monday",
        "hours": "6 AM to 6:30 PM"
      },
      {
        "day": "Tuesday",
        "hours": "6 AM to 6:30 PM"
      },
      {
        "day": "Wednesday",
        "hours": "6 AM to 6:30 PM"
      },
      {
        "day": "Thursday",
        "hours": "6 AM to 6:30 PM"
      },
      {
        "day": "Friday",
        "hours": "6 AM to 6:30 PM"
      },
      {
        "day": "Saturday",
        "hours": "5 AM to 7:30 PM"
      },
      {
        "day": "Sunday",
        "hours": "5 AM to 7:30 PM"
      }
    ],
    "peopleAlsoSearch": [],
    "placesTags": [],
    "reviewsTags": [],
    "additionalInfo": {
      "Service options": [
        {
          "Online classes": false
        }
      ],
      "Accessibility": [
        {
          "Wheelchair accessible entrance": true
        },
        {
          "Wheelchair accessible parking lot": true
        }
      ]
    },
    "gasPrices": [],
    "url": "https://www.google.com/maps/search/?api=1&query=Bhaktapur%20Driving%20School&query_place_id=ChIJpSnz3hIb6zkRB82smdbYAIk",
    "searchPageUrl": "https://www.google.com/maps/search/school/@27.674599999999995,85.40294689170369,17z?hl=en",
    "searchString": "school",
    "language": "en",
    "rank": 39,
    "isAdvertisement": false,
    "imageUrl": "https://lh3.googleusercontent.com/gps-cs-s/AG0ilSyKOsLPDC0cN_xxCklUU-jj4vIHeCI_NMuyJlUZdhiJoYO1fU6MCQMG_2JEI6OqIjqX_hSZaOOb4zqKyPd7fgFH5fgXeJkLwlK9MRAhKXRq6KDnS4-VsEgOpxKpSU_6aFKRYQ3JrA=w426-h240-k-no",
    "kgmid": "/g/11qsw8w4f_"
  },
  {
    "title": "Jaya Ganesh Motor Driving Centre",
    "subTitle": "जय गणेश मोटर ड्राइभिङ्ग सेन्टर",
    "price": null,
    "categoryName": "Driving school",
    "address": "MCC4+CVP, Suryabinayak 44800, Nepal",
    "neighborhood": "Katunje",
    "street": "MCC4+CVP",
    "city": "Suryabinayak",
    "postalCode": null,
    "state": null,
    "countryCode": "NP",
    "phone": "+977 985-1134499",
    "phoneUnformatted": "+9779851134499",
    "claimThisBusiness": false,
    "location": {
      "lat": 27.6710435,
      "lng": 85.4071454
    },
    "totalScore": 4.9,
    "permanentlyClosed": false,
    "temporarilyClosed": false,
    "placeId": "ChIJOXdtoqsa6zkRLyDVdidFJHE",
    "categories": [
      "Driving school"
    ],
    "fid": "0x39eb1aaba26d7739:0x7124452776d5202f",
    "cid": "8152717261247160367",
    "reviewsCount": 115,
    "reviewsDistribution": {
      "oneStar": 1,
      "twoStar": 2,
      "threeStar": 0,
      "fourStar": 3,
      "fiveStar": 109
    },
    "imagesCount": 75,
    "imageCategories": [],
    "scrapedAt": "2025-11-14T08:43:01.856Z",
    "googleFoodUrl": null,
    "hotelAds": [],
    "openingHours": [
      {
        "day": "Monday",
        "hours": "6 AM to 6:30 PM"
      },
      {
        "day": "Tuesday",
        "hours": "6 AM to 6:30 PM"
      },
      {
        "day": "Wednesday",
        "hours": "6 AM to 6:30 PM"
      },
      {
        "day": "Thursday",
        "hours": "6 AM to 6:30 PM"
      },
      {
        "day": "Friday",
        "hours": "6 AM to 6:30 PM"
      },
      {
        "day": "Saturday",
        "hours": "6 AM to 6:30 PM"
      },
      {
        "day": "Sunday",
        "hours": "6 AM to 6:30 PM"
      }
    ],
    "peopleAlsoSearch": [],
    "placesTags": [],
    "reviewsTags": [],
    "additionalInfo": {
      "Service options": [
        {
          "Online classes": false
        }
      ],
      "Accessibility": [
        {
          "Wheelchair accessible entrance": true
        },
        {
          "Wheelchair accessible parking lot": true
        }
      ]
    },
    "gasPrices": [],
    "url": "https://www.google.com/maps/search/?api=1&query=Jaya%20Ganesh%20Motor%20Driving%20Centre&query_place_id=ChIJOXdtoqsa6zkRLyDVdidFJHE",
    "searchPageUrl": "https://www.google.com/maps/search/school/@27.674599999999995,85.40294689170369,17z?hl=en",
    "searchString": "school",
    "language": "en",
    "rank": 45,
    "isAdvertisement": false,
    "imageUrl": "https://lh3.googleusercontent.com/gps-proxy/ALd4DhF3eIj6Max3c4vkpXjDKHfIGuklf7qG9HRnT4CdS_RZ1pB9gQUhD9Otx6sk_G3ZKvTpSAJEl9gOoCg80o2ZrAad1fqtj1UlJUS3MypWm8EfvEh6bDcTvhsszuEw9RnpT4-bfEKhqh3sjlci_ciW2RNGJL9Hs9D2taae4oS9Myu5DhcAHosR6o3XS9n6hAmgJEAz0g=w408-h306-k-no",
    "kgmid": "/g/11b6nw47_3"
  },
  {
    "title": "Rambhole Motor Driving",
    "price": null,
    "categoryName": "Driving school",
    "address": "MCF5+2MH, Nagarkot Road, Bhaktapur 44800, Nepal",
    "neighborhood": "SallaGhari",
    "street": "MCF5+2MH, Nagarkot Road",
    "city": "Bhaktapur",
    "postalCode": "44800",
    "state": null,
    "countryCode": "NP",
    "phone": "+977 985-1042141",
    "phoneUnformatted": "+9779851042141",
    "claimThisBusiness": true,
    "location": {
      "lat": 27.6725645,
      "lng": 85.4092339
    },
    "totalScore": 3.8,
    "permanentlyClosed": false,
    "temporarilyClosed": false,
    "placeId": "ChIJJ4LgLI4b6zkRoFswhfSSPoM",
    "categories": [
      "Driving school"
    ],
    "fid": "0x39eb1b8e2ce08227:0x833e92f485305ba0",
    "cid": "9457157846428834720",
    "reviewsCount": 10,
    "reviewsDistribution": {
      "oneStar": 2,
      "twoStar": 0,
      "threeStar": 1,
      "fourStar": 2,
      "fiveStar": 5
    },
    "imagesCount": 20,
    "imageCategories": [],
    "scrapedAt": "2025-11-14T08:43:01.856Z",
    "googleFoodUrl": null,
    "hotelAds": [],
    "openingHours": [
      {
        "day": "Monday",
        "hours": "5:30 AM to 8 PM"
      },
      {
        "day": "Tuesday",
        "hours": "5:30 AM to 8 PM"
      },
      {
        "day": "Wednesday",
        "hours": "5:30 AM to 8 PM"
      },
      {
        "day": "Thursday",
        "hours": "5:30 AM to 8 PM"
      },
      {
        "day": "Friday",
        "hours": "5:30 AM to 8 PM"
      },
      {
        "day": "Saturday",
        "hours": "5:30 AM to 8 PM"
      },
      {
        "day": "Sunday",
        "hours": "5:30 AM to 8 PM"
      }
    ],
    "peopleAlsoSearch": [],
    "placesTags": [],
    "reviewsTags": [],
    "additionalInfo": {
      "Accessibility": [
        {
          "Wheelchair accessible entrance": true
        },
        {
          "Wheelchair accessible parking lot": true
        }
      ]
    },
    "gasPrices": [],
    "url": "https://www.google.com/maps/search/?api=1&query=Rambhole%20Motor%20Driving&query_place_id=ChIJJ4LgLI4b6zkRoFswhfSSPoM",
    "searchPageUrl": "https://www.google.com/maps/search/school/@27.674599999999995,85.40294689170369,17z?hl=en",
    "searchString": "school",
    "language": "en",
    "rank": 49,
    "isAdvertisement": false,
    "imageUrl": "https://lh3.googleusercontent.com/gps-cs-s/AG0ilSychO6meH76ECw7k-X9jn-iUwVDyFA2ZKX7IfZIJ0-J3pdAsWZvQw9kJFBcgRIwsIVJgUKAcNv5uaEJPfqkiq1KVKZfhOwPsQOHVlmrhDuhCn6_s9qdhjNp14RbYJNgGXQQ4QjK=w408-h305-k-no",
    "kgmid": "/g/11fjmz4kxq"
  },
  {
    "title": "suman motor driving center",
    "subTitle": "सुमन ड्राईभिङ सेन्टर",
    "price": null,
    "categoryName": "Driving school",
    "address": "MCF4+R85, Bhaktapur 44800, Nepal",
    "neighborhood": "SallaGhari",
    "street": "MCF4+R85",
    "city": "Bhaktapur",
    "postalCode": "44800",
    "state": null,
    "countryCode": "NP",
    "phone": "+977 984-1257860",
    "phoneUnformatted": "+9779841257860",
    "claimThisBusiness": false,
    "location": {
      "lat": 27.6740871,
      "lng": 85.4063465
    },
    "totalScore": 3.4,
    "permanentlyClosed": false,
    "temporarilyClosed": false,
    "placeId": "ChIJ83rm348a6zkRfQR4ugkwqr0",
    "categories": [
      "Driving school"
    ],
    "fid": "0x39eb1a8fdfe67af3:0xbdaa3009ba78047d",
    "cid": "13666788837550457981",
    "reviewsCount": 29,
    "reviewsDistribution": {
      "oneStar": 6,
      "twoStar": 2,
      "threeStar": 3,
      "fourStar": 9,
      "fiveStar": 9
    },
    "imagesCount": 162,
    "imageCategories": [],
    "scrapedAt": "2025-11-14T08:43:01.856Z",
    "googleFoodUrl": null,
    "hotelAds": [],
    "openingHours": [
      {
        "day": "Monday",
        "hours": "6 AM to 6:30 PM"
      },
      {
        "day": "Tuesday",
        "hours": "6 AM to 6:30 PM"
      },
      {
        "day": "Wednesday",
        "hours": "6 AM to 6:30 PM"
      },
      {
        "day": "Thursday",
        "hours": "6 AM to 6:30 PM"
      },
      {
        "day": "Friday",
        "hours": "6 AM to 6:30 PM"
      },
      {
        "day": "Saturday",
        "hours": "6 AM to 3 PM"
      },
      {
        "day": "Sunday",
        "hours": "6 AM to 6:30 PM"
      }
    ],
    "peopleAlsoSearch": [],
    "placesTags": [],
    "reviewsTags": [],
    "additionalInfo": {
      "Service options": [
        {
          "Online classes": false
        }
      ]
    },
    "gasPrices": [],
    "url": "https://www.google.com/maps/search/?api=1&query=suman%20motor%20driving%20center&query_place_id=ChIJ83rm348a6zkRfQR4ugkwqr0",
    "searchPageUrl": "https://www.google.com/maps/search/school/@27.674599999999995,85.40294689170369,17z?hl=en",
    "searchString": "school",
    "language": "en",
    "rank": 52,
    "isAdvertisement": false,
    "imageUrl": "https://lh3.googleusercontent.com/gps-cs-s/AG0ilSzYwrMO_lguOHLy3k7A8c5xadlBXmfwNQzMyatOfm_YKFH_7hslD-J-GbwuwjjJKs-2pWyrhJ9lmvCzavCHd7wWTQGtKSRkDqSdBAdI7xo_CLun7EePmMHzH1gwjNRBbiNx1IA=w408-h306-k-no",
    "kgmid": "/g/11d_tv8ll6"
  },
  {
    "title": "H A Driving School",
    "price": null,
    "categoryName": "Driving school",
    "address": "MCG7+6JQ, Bhaktapur 44800, Nepal",
    "neighborhood": null,
    "street": "MCG7+6JQ",
    "city": "Bhaktapur",
    "postalCode": null,
    "state": null,
    "countryCode": "NP",
    "phone": "+977 976-6447632",
    "phoneUnformatted": "+9779766447632",
    "claimThisBusiness": true,
    "location": {
      "lat": 27.6755894,
      "lng": 85.4141143
    },
    "totalScore": 5,
    "permanentlyClosed": false,
    "temporarilyClosed": false,
    "placeId": "ChIJ7UboUwAb6zkRxFofKW_sgag",
    "categories": [
      "Driving school"
    ],
    "fid": "0x39eb1b0053e846ed:0xa881ec6f291f5ac4",
    "cid": "12142246032543013572",
    "reviewsCount": 2,
    "reviewsDistribution": {
      "oneStar": 0,
      "twoStar": 0,
      "threeStar": 0,
      "fourStar": 0,
      "fiveStar": 2
    },
    "imagesCount": 8,
    "imageCategories": [],
    "scrapedAt": "2025-11-14T08:43:25.062Z",
    "googleFoodUrl": null,
    "hotelAds": [],
    "openingHours": [
      {
        "day": "Monday",
        "hours": "6:30 AM to 6:30 PM"
      },
      {
        "day": "Tuesday",
        "hours": "6:30 AM to 6:30 PM"
      },
      {
        "day": "Wednesday",
        "hours": "6:30 AM to 6:30 PM"
      },
      {
        "day": "Thursday",
        "hours": "6:30 AM to 6:30 PM"
      },
      {
        "day": "Friday",
        "hours": "6:30 AM to 6:30 PM"
      },
      {
        "day": "Saturday",
        "hours": "Closed"
      },
      {
        "day": "Sunday",
        "hours": "6:30 AM to 6:30 PM"
      }
    ],
    "peopleAlsoSearch": [],
    "placesTags": [],
    "reviewsTags": [],
    "gasPrices": [],
    "url": "https://www.google.com/maps/search/?api=1&query=H%20A%20Driving%20School&query_place_id=ChIJ7UboUwAb6zkRxFofKW_sgag",
    "searchPageUrl": "https://www.google.com/maps/search/school/@27.674599999999995,85.41153349407406,17z?hl=en",
    "searchString": "school",
    "language": "en",
    "rank": 50,
    "isAdvertisement": false,
    "imageUrl": "https://lh3.googleusercontent.com/gps-cs-s/AG0ilSyxAbXzkml94W6LZQF2AG818RHQyzycjiq07E1gyzzQm0o1eTrqDdLRNuNcowH_ZmHghz6WJjk7FVVLesnHMmk0KVCH7oGxUGgubhw9k8kF3w7okImu7343hnu9eSsY1rpXaqEA=w408-h306-k-no",
    "kgmid": "/g/11vpnct36v"
  }
]