[
  {
    "title": "ABF Driving Institute",
    "price": null,
    "categoryName": "Drivers license training school",
    "address": "MC7G+PC4, F099, Suryabinayak 44800, Nepal",
    "neighborhood": "Sipadol",
    "street": "MC7G+PC4, F099",
    "city": "Suryabinayak",
    "postalCode": "44800",
    "state": null,
    "countryCode": "NP",
    "phone": "+977 980-3135559",
    "phoneUnformatted": "+9779803135559",
    "claimThisBusiness": true,
    "location": {
      "lat": 27.6642585,
      "lng": 85.4260681
    },
    "permanentlyClosed": false,
    "temporarilyClosed": false,
    "placeId": "ChIJdXjuj3Yb6zkRZqiOeYP3Wpk",
    "categories": [
      "Drivers license training school"
    ],
    "fid": "0x39eb1b768fee7875:0x995af783798ea866",
    "cid": "11050416779759102054",
    "reviewsCount": 0,
    "imagesCount": 3,
    "imageCategories": [],
    "scrapedAt": "2025-11-14T08:14:02.093Z",
    "googleFoodUrl": null,
    "hotelAds": [],
    "openingHours": [
      {
        "day": "Monday",
        "hours": "6 AM to 6 PM"
      },
      {
        "day": "Tuesday",
        "hours": "6 AM to 6 PM"
      },
      {
        "day": "Wednesday",
        "hours": "6 AM to 6 PM"
      },
      {
        "day": "Thursday",
        "hours": "6 AM to 6 PM"
      },
      {
        "day": "Friday",
        "hours": "6 AM to 6 PM"
      },
      {
        "day": "Saturday",
        "hours": "6 AM to 6 PM"
      },
      {
        "day": "Sunday",
        "hours": "6 AM to 6 PM"
      }
    ],
    "peopleAlsoSearch": [],
    "placesTags": [],
    "reviewsTags": [],
    "gasPrices": [],
    "url": "https://www.google.com/maps/search/?api=1&query=ABF%20Driving%20Institute&query_place_id=ChIJdXjuj3Yb6zkRZqiOeYP3Wpk",
    "searchPageUrl": "https://www.google.com/maps/search/training%20center/@27.667695459098024,85.42150000000001,17z?hl=en",
    "searchString": "training center",
    "language": "en",
    "rank": 52,
    "isAdvertisement": false,
    "imageUrl": "https://lh3.googleusercontent.com/gps-cs-s/AG0ilSwX2_d6TeOjNwcK0Cx9PTEHVUJZll-4tKBD9eFNs_8au7KSmucVCNYR5rE2I-lHcjJQxaGRJTBbF82bKZElQHtBtjku4EwjDwW38T-IYP70m5DW262u8QkcEIhApXGFa6b2ptl1=w408-h725-k-no",
    "kgmid": "/g/11j1ccyqh3"
  },
  {
    "title": "ABF Driving Institute",
    "price": null,
    "categoryName": "Drivers license training school",
    "address": "MC7G+PC4, F099, Suryabinayak 44800, Nepal",
    "neighborhood": "Sipadol",
    "street": "MC7G+PC4, F099",
    "city": "Suryabinayak",
    "postalCode": "44800",
    "state": null,
    "countryCode": "NP",
    "phone": "+977 980-3135559",
    "phoneUnformatted": "+9779803135559",
    "claimThisBusiness": true,
    "location": {
      "lat": 27.6642585,
      "lng": 85.4260681
    },
    "permanentlyClosed": false,
    "temporarilyClosed": false,
    "placeId": "ChIJdXjuj3Yb6zkRZqiOeYP3Wpk",
    "categories": [
      "Drivers license training school"
    ],
    "fid": "0x39eb1b768fee7875:0x995af783798ea866",
    "cid": "11050416779759102054",
    "reviewsCount": 0,
    "imagesCount": 3,
    "imageCategories": [],
    "scrapedAt": "2025-11-14T08:41:00.191Z",
    "googleFoodUrl": null,
    "hotelAds": [],
    "openingHours": [
      {
        "day": "Monday",
        "hours": "6 AM to 6 PM"
      },
      {
        "day": "Tuesday",
        "hours": "6 AM to 6 PM"
      },
      {
        "day": "Wednesday",
        "hours": "6 AM to 6 PM"
      },
      {
        "day": "Thursday",
        "hours": "6 AM to 6 PM"
      },
      {
        "day": "Friday",
        "hours": "6 AM to 6 PM"
      },
      {
        "day": "Saturday",
        "hours": "6 AM to 6 PM"
      },
      {
        "day": "Sunday",
        "hours": "6 AM to 6 PM"
      }
    ],
    "peopleAlsoSearch": [],
    "placesTags": [],
    "reviewsTags": [],
    "gasPrices": [],
    "url": "https://www.google.com/maps/search/?api=1&query=ABF%20Driving%20Institute&query_place_id=ChIJdXjuj3Yb6zkRZqiOeYP3Wpk",
    "searchPageUrl": "https://www.google.com/maps/search/school/@27.666993023382226,85.4287066988148,17z?hl=en",
    "searchString": "school",
    "language": "en",
    "rank": 92,
    "isAdvertisement": false,
    "imageUrl": "https://lh3.googleusercontent.com/gps-cs-s/AG0ilSwX2_d6TeOjNwcK0Cx9PTEHVUJZll-4tKBD9eFNs_8au7KSmucVCNYR5rE2I-lHcjJQxaGRJTBbF82bKZElQHtBtjku4EwjDwW38T-IYP70m5DW262u8QkcEIhApXGFa6b2ptl1=w408-h725-k-no",
    "kgmid": "/g/11j1ccyqh3"
  },
  {
    "title": "Jaya Ganesh Driving Trail Spot",
    "price": null,
    "categoryName": "Drivers license training school",
    "address": "MCF4+MCH, Unnamed Road, Bhaktapur 44800, Nepal",
    "neighborhood": "SallaGhari",
    "street": "MCF4+MCH, Unnamed Road",
    "city": "Bhaktapur",
    "postalCode": "44800",
    "state": null,
    "countryCode": "NP",
    "phone": "+977 984-0213890",
    "phoneUnformatted": "+9779840213890",
    "claimThisBusiness": true,
    "location": {
      "lat": 27.6741808,
      "lng": 85.4061183
    },
    "totalScore": 4.5,
    "permanentlyClosed": false,
    "temporarilyClosed": false,
    "placeId": "ChIJk89Bmhwb6zkR58Ld_ayaM8s",
    "categories": [
      "Drivers license training school"
    ],
    "fid": "0x39eb1b1c9a41cf93:0xcb339aacfdddc2e7",
    "cid": "14642216881295835879",
    "reviewsCount": 13,
    "reviewsDistribution": {
      "oneStar": 1,
      "twoStar": 0,
      "threeStar": 1,
      "fourStar": 1,
      "fiveStar": 10
    },
    "imagesCount": 17,
    "imageCategories": [],
    "scrapedAt": "2025-11-14T08:43:01.856Z",
    "googleFoodUrl": null,
    "hotelAds": [],
    "openingHours": [],
    "peopleAlsoSearch": [],
    "placesTags": [],
    "reviewsTags": [],
    "additionalInfo": {
      "Service options": [
        {
          "Online classes": false
        }
      ]
    },
    "gasPrices": [],
    "url": "https://www.google.com/maps/search/?api=1&query=Jaya%20Ganesh%20Driving%20Trail%20Spot&query_place_id=ChIJk89Bmhwb6zkR58Ld_ayaM8s",
    "searchPageUrl": "https://www.google.com/maps/search/school/@27.674599999999995,85.40294689170369,17z?hl=en",
    "searchString": "school",
    "language": "en",
    "rank": 51,
    "isAdvertisement": false,
    "imageUrl": "https://lh3.googleusercontent.com/gps-cs-s/AG0ilSwClewoBzKBME8YeUOdWL5fdAW3QQTGnlgJFu2a4htcTjf_9l532p3EX1lU1EKleqqqEdN-AL1ZFtskOy39vjR6y_6ARGjdy4QYwl52bZMfklglw1wrWhOUcThoM1k19q8SVo94=w408-h305-k-no",
    "kgmid": "/g/11h49jb6v_"
  }
]