[
  {
    "title": "Bal Mandir School",
    "subTitle": "श्री बाल मन्दिर प्राथमिक विद्यालय",
    "price": null,
    "categoryName": "Primary school",
    "address": "MCCG+QXH, Bhaktapur 44800, Nepal",
    "neighborhood": null,
    "street": "MCCG+QXH",
    "city": "Bhaktapur",
    "postalCode": "44800",
    "state": null,
    "countryCode": "NP",
    "phone": "+977 1-6610187",
    "phoneUnformatted": "+97716610187",
    "claimThisBusiness": true,
    "location": {
      "lat": 27.6719265,
      "lng": 85.4274701
    },
    "permanentlyClosed": false,
    "temporarilyClosed": false,
    "placeId": "ChIJg-hSia8a6zkRXjclHq8uIs8",
    "categories": [
      "Primary school"
    ],
    "fid": "0x39eb1aaf8952e883:0xcf222eaf1e25375e",
    "cid": "14925543444719155038",
    "reviewsCount": 0,
    "imagesCount": 6,
    "imageCategories": [],
    "scrapedAt": "2025-11-14T08:13:31.792Z",
    "googleFoodUrl": null,
    "hotelAds": [],
    "openingHours": [
      {
        "day": "Monday",
        "hours": "10 AM to 4 PM"
      },
      {
        "day": "Tuesday",
        "hours": "10 AM to 4 PM"
      },
      {
        "day": "Wednesday",
        "hours": "10 AM to 4 PM"
      },
      {
        "day": "Thursday",
        "hours": "10 AM to 4 PM"
      },
      {
        "day": "Friday",
        "hours": "10 AM to 4 PM"
      },
      {
        "day": "Saturday",
        "hours": "Closed"
      },
      {
        "day": "Sunday",
        "hours": "10 AM to 4 PM"
      }
    ],
    "peopleAlsoSearch": [],
    "placesTags": [],
    "reviewsTags": [],
    "gasPrices": [],
    "url": "https://www.google.com/maps/search/?api=1&query=Bal%20Mandir%20School&query_place_id=ChIJg-hSia8a6zkRXjclHq8uIs8",
    "searchPageUrl": "https://www.google.com/maps/search/school/@27.67530454090198,85.43009086349416,17z?hl=en",
    "searchString": "school",
    "language": "en",
    "rank": 1,
    "isAdvertisement": false,
    "imageUrl": "https://lh3.googleusercontent.com/gps-cs-s/AG0ilSyA7ggI_mPYv00dX2T2dNutk8Xiz2xUP6ljD3IlgxjCTSrs8AlKCP_PMEkU5xZzSXvu2A6sEoRM_rlXtN3edfLwdTklF8AOhZIcEWkarHbR0QpPgqdeNgdF4gcyetccle44jAE=w408-h541-k-no",
    "kgmid": "/g/11b6p68sjn"
  },
  {
    "title": "Shree Basic School श्री आधारभूत विद्यालय",
    "price": null,
    "categoryName": "Primary school",
    "address": "MCFJ+CXQ, Yachhen-Thalachhen Rd, Bhaktapur 44800, Nepal",
    "neighborhood": null,
    "street": "MCFJ+CXQ, Yachhen-Thalachhen Rd",
    "city": "Bhaktapur",
    "postalCode": "44800",
    "state": null,
    "countryCode": "NP",
    "phone": "+977 984-1670570",
    "phoneUnformatted": "+9779841670570",
    "claimThisBusiness": true,
    "location": {
      "lat": 27.6734994,
      "lng": 85.4324365
    },
    "permanentlyClosed": false,
    "temporarilyClosed": false,
    "placeId": "ChIJywv0VQAb6zkRpeQD5qoGxB4",
    "categories": [
      "Primary school"
    ],
    "fid": "0x39eb1b0055f40bcb:0x1ec406aae603e4a5",
    "cid": "2216904247646348453",
    "reviewsCount": 0,
    "imagesCount": 7,
    "imageCategories": [],
    "scrapedAt": "2025-11-14T08:13:31.793Z",
    "googleFoodUrl": null,
    "hotelAds": [],
    "openingHours": [
      {
        "day": "Monday",
        "hours": "9 AM to 4 PM"
      },
      {
        "day": "Tuesday",
        "hours": "9 AM to 4 PM"
      },
      {
        "day": "Wednesday",
        "hours": "9 AM to 4 PM"
      },
      {
        "day": "Thursday",
        "hours": "9 AM to 4 PM"
      },
      {
        "day": "Friday",
        "hours": "9 AM to 12 AM"
      },
      {
        "day": "Saturday",
        "hours": "Closed"
      },
      {
        "day": "Sunday",
        "hours": "9 AM to 4 PM"
      }
    ],
    "peopleAlsoSearch": [],
    "placesTags": [],
    "reviewsTags": [],
    "gasPrices": [],
    "url": "https://www.google.com/maps/search/?api=1&query=Shree%20Basic%20School%20%E0%A4%B6%E0%A5%8D%E0%A4%B0%E0%A5%80%20%E0%A4%86%E0%A4%A7%E0%A4%BE%E0%A4%B0%E0%A4%AD%E0%A5%82%E0%A4%A4%20%E0%A4%B5%E0%A4%BF%E0%A4%A6%E0%A5%8D%E0%A4%AF%E0%A4%BE%E0%A4%B2%E0%A4%AF&query_place_id=ChIJywv0VQAb6zkRpeQD5qoGxB4",
    "searchPageUrl": "https://www.google.com/maps/search/school/@27.67530454090198,85.43009086349416,17z?hl=en",
    "searchString": "school",
    "language": "en",
    "rank": 15,
    "isAdvertisement": false,
    "imageUrl": "https://lh3.googleusercontent.com/gps-cs-s/AG0ilSyyZuXLrHKiULmn_ODCGsQStTqtwhk39iDm0gzKxfmuiqC6DFFfcABh8IpoEQrH9hky_2srcjWNSISvlzV-P-_QgSi91z7VVowiMfFMUTUru8P6vh-fco1a8HGPd8wxabOIoOo=w408-h306-k-no",
    "kgmid": "/g/11ld9bfkj0"
  },
  {
    "title": "Shree Hansa Bahini Basic School",
    "subTitle": "श्री हंस बाहिनी बिद्यालय",
    "price": null,
    "categoryName": "Primary school",
    "address": "MCGM+67P Mahalaxmi, Bhaktapur 44800, Nepal",
    "neighborhood": null,
    "street": "MCGM+67P Mahalaxmi",
    "city": "Bhaktapur",
    "postalCode": "44800",
    "state": null,
    "countryCode": "NP",
    "website": "https://hansabahini.wordpress.com/",
    "claimThisBusiness": true,
    "location": {
      "lat": 27.6755938,
      "lng": 85.4331948
    },
    "permanentlyClosed": false,
    "temporarilyClosed": false,
    "placeId": "ChIJN9tNPLIa6zkRhGX9h8hLlEI",
    "categories": [
      "Primary school"
    ],
    "fid": "0x39eb1ab23c4ddb37:0x42944bc887fd6584",
    "cid": "4797542827703494020",
    "reviewsCount": 0,
    "imagesCount": 2,
    "imageCategories": [],
    "scrapedAt": "2025-11-14T08:13:34.373Z",
    "googleFoodUrl": null,
    "hotelAds": [],
    "openingHours": [
      {
        "day": "Monday",
        "hours": "10 AM to 4:30 PM"
      },
      {
        "day": "Tuesday",
        "hours": "10 AM to 4:30 PM"
      },
      {
        "day": "Wednesday",
        "hours": "10 AM to 4:30 PM"
      },
      {
        "day": "Thursday",
        "hours": "10 AM to 4:30 PM"
      },
      {
        "day": "Friday",
        "hours": "10 AM to 4:30 PM"
      },
      {
        "day": "Saturday",
        "hours": "Closed"
      },
      {
        "day": "Sunday",
        "hours": "10 AM to 4:30 PM"
      }
    ],
    "peopleAlsoSearch": [],
    "placesTags": [],
    "reviewsTags": [],
    "gasPrices": [],
    "url": "https://www.google.com/maps/search/?api=1&query=Shree%20Hansa%20Bahini%20Basic%20School&query_place_id=ChIJN9tNPLIa6zkRhGX9h8hLlEI",
    "searchPageUrl": "https://www.google.com/maps/search/school/@27.67530454090198,85.43009086349416,17z?hl=en",
    "searchString": "school",
    "language": "en",
    "rank": 42,
    "isAdvertisement": false,
    "imageUrl": "https://streetviewpixels-pa.googleapis.com/v1/thumbnail?panoid=aaB_Ny9QzjZTKVXiGQXR6g&cb_client=search.gws-prod.gps&w=408&h=240&yaw=176.83746&pitch=0&thumbfov=100",
    "kgmid": "/g/11b6q6wfwr"
  },
  {
    "title": "Kamalbinayak-10, Bhaktapur",
    "price": null,
    "categoryName": "Primary school",
    "address": "MCGM+76X, Bhaktapur 44800, Nepal",
    "neighborhood": null,
    "street": "MCGM+76X",
    "city": "Bhaktapur",
    "postalCode": null,
    "state": null,
    "countryCode": "NP",
    "claimThisBusiness": true,
    "location": {
      "lat": 27.6757318,
      "lng": 85.4331137
    },
    "permanentlyClosed": false,
    "temporarilyClosed": false,
    "placeId": "ChIJL4t_agAb6zkRj1AChWKtz4c",
    "categories": [
      "Primary school"
    ],
    "fid": "0x39eb1b006a7f8b2f:0x87cfad628502508f",
    "cid": "9786231153949298831",
    "reviewsCount": 0,
    "imagesCount": 3,
    "imageCategories": [],
    "scrapedAt": "2025-11-14T08:13:34.373Z",
    "googleFoodUrl": null,
    "hotelAds": [],
    "openingHours": [],
    "peopleAlsoSearch": [],
    "placesTags": [],
    "reviewsTags": [],
    "gasPrices": [],
    "url": "https://www.google.com/maps/search/?api=1&query=Kamalbinayak-10%2C%20Bhaktapur&query_place_id=ChIJL4t_agAb6zkRj1AChWKtz4c",
    "searchPageUrl": "https://www.google.com/maps/search/school/@27.67530454090198,85.43009086349416,17z?hl=en",
    "searchString": "school",
    "language": "en",
    "rank": 47,
    "isAdvertisement": false,
    "imageUrl": "https://lh3.googleusercontent.com/gps-cs-s/AG0ilSz8xcf6yJ7AOwjTlQZnQNlK87Ou-Oks9QSzrl7LZK-bPKlzjUpnm35sg1s9S2pTlrkHqMnJqsiiY6mHg76VAAFQVLuUt8Oc2AxI3sN-gV_NEOCKKeNXGzAHEWmhD-WWfgdDSmuWkQ=w408-h306-k-no",
    "kgmid": "/g/11ltj2bnyy"
  },
  {
    "title": "Shree Sarda Primary School",
    "subTitle": "श्री सारदा प्राथमिक विद्यालय",
    "price": null,
    "categoryName": "Primary school",
    "address": "MC9F+9XC, Bhaktapur 44800, Nepal",
    "neighborhood": null,
    "street": "MC9F+9XC",
    "city": "Bhaktapur",
    "postalCode": "44800",
    "state": null,
    "countryCode": "NP",
    "phone": "+977 984-9128545",
    "phoneUnformatted": "+9779849128545",
    "claimThisBusiness": true,
    "location": {
      "lat": 27.6684436,
      "lng": 85.4249031
    },
    "permanentlyClosed": false,
    "temporarilyClosed": false,
    "placeId": "ChIJa8a306Ua6zkR0hs6hqhs3Z4",
    "categories": [
      "Primary school"
    ],
    "fid": "0x39eb1aa5d3b7c66b:0x9edd6ca8863a1bd2",
    "cid": "11447425298907929554",
    "reviewsCount": 0,
    "imagesCount": 6,
    "imageCategories": [],
    "scrapedAt": "2025-11-14T08:13:57.485Z",
    "googleFoodUrl": null,
    "hotelAds": [],
    "openingHours": [
      {
        "day": "Monday",
        "hours": "10 AM to 4 PM"
      },
      {
        "day": "Tuesday",
        "hours": "10 AM to 4 PM"
      },
      {
        "day": "Wednesday",
        "hours": "10 AM to 4 PM"
      },
      {
        "day": "Thursday",
        "hours": "10 AM to 4 PM"
      },
      {
        "day": "Friday",
        "hours": "10 AM to 4 PM"
      },
      {
        "day": "Saturday",
        "hours": "10 AM to 4 PM"
      },
      {
        "day": "Sunday",
        "hours": "10 AM to 4 PM"
      }
    ],
    "peopleAlsoSearch": [],
    "placesTags": [],
    "reviewsTags": [],
    "gasPrices": [],
    "url": "https://www.google.com/maps/search/?api=1&query=Shree%20Sarda%20Primary%20School&query_place_id=ChIJa8a306Ua6zkR0hs6hqhs3Z4",
    "searchPageUrl": "https://www.google.com/maps/search/school/@27.667695459098024,85.42150000000001,17z?hl=en",
    "searchString": "school",
    "language": "en",
    "rank": 6,
    "isAdvertisement": false,
    "imageUrl": "https://lh3.googleusercontent.com/gps-cs-s/AG0ilSxFQ-MqI6NMP1fHvKVdUspYTISVcOGdNtodDsmIhTQSW3v7LKxOF2DFgZV2jOELOXwGLiRnyS-r5Bu6twsZLG67Spvg8XYcOAS9a9iv_fHTt9jTuWeQ9LN9hYc3GjXieB5xK3r_59uxi-E=w408-h544-k-no",
    "kgmid": "/g/12jbkwdkp"
  },
  {
    "title": "Shanti Niketan School",
    "subTitle": "शान्ति निकेतन माध्यमिक विद्यालय",
    "price": null,
    "categoryName": "Primary school",
    "address": "MC9H+83M, Rammandir Rd, Bhaktapur 44800, Nepal",
    "neighborhood": null,
    "street": "MC9H+83M, Rammandir Rd",
    "city": "Bhaktapur",
    "postalCode": "44800",
    "state": null,
    "countryCode": "NP",
    "phone": "+977 1-6611317",
    "phoneUnformatted": "+97716611317",
    "claimThisBusiness": true,
    "location": {
      "lat": 27.6683452,
      "lng": 85.4276836
    },
    "permanentlyClosed": false,
    "temporarilyClosed": false,
    "placeId": "ChIJmdCTU68a6zkRNFdFzgy57hk",
    "categories": [
      "Primary school"
    ],
    "fid": "0x39eb1aaf5393d099:0x19eeb90cce455734",
    "cid": "1868634360056731444",
    "reviewsCount": 0,
    "imagesCount": 9,
    "imageCategories": [],
    "scrapedAt": "2025-11-14T08:13:57.486Z",
    "googleFoodUrl": null,
    "hotelAds": [],
    "openingHours": [
      {
        "day": "Monday",
        "hours": "10 AM to 5 PM"
      },
      {
        "day": "Tuesday",
        "hours": "10 AM to 5 PM"
      },
      {
        "day": "Wednesday",
        "hours": "10 AM to 5 PM"
      },
      {
        "day": "Thursday",
        "hours": "10 AM to 5 PM"
      },
      {
        "day": "Friday",
        "hours": "10 AM to 5 PM"
      },
      {
        "day": "Saturday",
        "hours": "Closed"
      },
      {
        "day": "Sunday",
        "hours": "10 AM to 5 PM"
      }
    ],
    "peopleAlsoSearch": [],
    "placesTags": [],
    "reviewsTags": [],
    "gasPrices": [],
    "url": "https://www.google.com/maps/search/?api=1&query=Shanti%20Niketan%20School&query_place_id=ChIJmdCTU68a6zkRNFdFzgy57hk",
    "searchPageUrl": "https://www.google.com/maps/search/school/@27.667695459098024,85.42150000000001,17z?hl=en",
    "searchString": "school",
    "language": "en",
    "rank": 13,
    "isAdvertisement": false,
    "imageUrl": "https://lh3.googleusercontent.com/gps-cs-s/AG0ilSzcNQhB8WAmrTopQpP8TJ31Vr9rJIdiRbkOi78PMhp6Zvx4ii5pzH1tTV-2fd3b4E6hJjOvf-OQ7sAmZtcCbtgaAGdNdLxoPHFgoSXqx7--Qr6fdyrjtme_FnQlfIYt_pTxGWFlKw=w408-h725-k-no",
    "kgmid": "/g/1v75q9pq"
  },
  {
    "title": "श्री जनसेवा प्राथमिक विद्यालय",
    "price": null,
    "categoryName": "Primary school",
    "address": "MC9G+HG5, Mangal Ghat, Bhaktapur 44800, Nepal",
    "neighborhood": null,
    "street": "MC9G+HG5, Mangal Ghat",
    "city": "Bhaktapur",
    "postalCode": "44800",
    "state": null,
    "countryCode": "NP",
    "phone": "+977 984-1358212",
    "phoneUnformatted": "+9779841358212",
    "claimThisBusiness": true,
    "location": {
      "lat": 27.6689,
      "lng": 85.4263656
    },
    "permanentlyClosed": false,
    "temporarilyClosed": false,
    "placeId": "ChIJy0E776Ua6zkR2C312efDzyM",
    "categories": [
      "Primary school"
    ],
    "fid": "0x39eb1aa5ef3b41cb:0x23cfc3e7d9f52dd8",
    "cid": "2580496512068169176",
    "reviewsCount": 0,
    "imagesCount": 1,
    "imageCategories": [],
    "scrapedAt": "2025-11-14T08:13:58.411Z",
    "googleFoodUrl": null,
    "hotelAds": [],
    "openingHours": [
      {
        "day": "Monday",
        "hours": "10 AM to 9 PM"
      },
      {
        "day": "Tuesday",
        "hours": "10 AM to 9 PM"
      },
      {
        "day": "Wednesday",
        "hours": "10 AM to 9 PM"
      },
      {
        "day": "Thursday",
        "hours": "10 AM to 9 PM"
      },
      {
        "day": "Friday",
        "hours": "10 AM to 9 PM"
      },
      {
        "day": "Saturday",
        "hours": "Closed"
      },
      {
        "day": "Sunday",
        "hours": "10 AM to 9 PM"
      }
    ],
    "peopleAlsoSearch": [],
    "placesTags": [],
    "reviewsTags": [],
    "gasPrices": [],
    "url": "https://www.google.com/maps/search/?api=1&query=%E0%A4%B6%E0%A5%8D%E0%A4%B0%E0%A5%80%20%E0%A4%9C%E0%A4%A8%E0%A4%B8%E0%A5%87%E0%A4%B5%E0%A4%BE%20%E0%A4%AA%E0%A5%8D%E0%A4%B0%E0%A4%BE%E0%A4%A5%E0%A4%AE%E0%A4%BF%E0%A4%95%20%E0%A4%B5%E0%A4%BF%E0%A4%A6%E0%A5%8D%E0%A4%AF%E0%A4%BE%E0%A4%B2%E0%A4%AF&query_place_id=ChIJy0E776Ua6zkR2C312efDzyM",
    "searchPageUrl": "https://www.google.com/maps/search/school/@27.667695459098024,85.42150000000001,17z?hl=en",
    "searchString": "school",
    "language": "en",
    "rank": 40,
    "isAdvertisement": false,
    "imageUrl": "https://streetviewpixels-pa.googleapis.com/v1/thumbnail?panoid=qQHeJmWH8O5oivTTTUgcrw&cb_client=search.gws-prod.gps&w=408&h=240&yaw=169.1666&pitch=0&thumbfov=100",
    "kgmid": "/g/11b6s6695d"
  },
  {
    "title": "Dyola Primary School",
    "price": null,
    "categoryName": "Primary school",
    "address": "MC9J+M59, Araniko Highway, Bhaktapur 44800, Nepal",
    "neighborhood": null,
    "street": "MC9J+M59, Araniko Highway",
    "city": "Bhaktapur",
    "postalCode": "44800",
    "state": null,
    "countryCode": "NP",
    "phone": "+977 1-6616640",
    "phoneUnformatted": "+97716616640",
    "claimThisBusiness": true,
    "location": {
      "lat": 27.6691694,
      "lng": 85.4304783
    },
    "permanentlyClosed": false,
    "temporarilyClosed": false,
    "placeId": "ChIJpXWpxK4a6zkR7jzjjHt90tc",
    "categories": [
      "Primary school"
    ],
    "fid": "0x39eb1aaec4a975a5:0xd7d27d7b8ce33cee",
    "cid": "15551630432861895918",
    "reviewsCount": 0,
    "imagesCount": 2,
    "imageCategories": [],
    "scrapedAt": "2025-11-14T08:40:29.986Z",
    "googleFoodUrl": null,
    "hotelAds": [],
    "openingHours": [
      {
        "day": "Monday",
        "hours": "10 AM to 3 PM"
      },
      {
        "day": "Tuesday",
        "hours": "10 AM to 3 PM"
      },
      {
        "day": "Wednesday",
        "hours": "10 AM to 3 PM"
      },
      {
        "day": "Thursday",
        "hours": "10 AM to 3 PM"
      },
      {
        "day": "Friday",
        "hours": "10 AM to 3 PM"
      },
      {
        "day": "Saturday",
        "hours": "Closed"
      },
      {
        "day": "Sunday",
        "hours": "10 AM to 3 PM"
      }
    ],
    "peopleAlsoSearch": [],
    "placesTags": [],
    "reviewsTags": [],
    "gasPrices": [],
    "url": "https://www.google.com/maps/search/?api=1&query=Dyola%20Primary%20School&query_place_id=ChIJpXWpxK4a6zkR7jzjjHt90tc",
    "searchPageUrl": "https://www.google.com/maps/search/school/@27.64417209352892,85.44587990355555,17z?hl=en",
    "searchString": "school",
    "language": "en",
    "rank": 10,
    "isAdvertisement": false,
    "imageUrl": "https://streetviewpixels-pa.googleapis.com/v1/thumbnail?panoid=5J2zIvTVHgCRtPdLIDEYVQ&cb_client=search.gws-prod.gps&w=408&h=240&yaw=358.5677&pitch=0&thumbfov=100",
    "kgmid": "/g/11b6r_wzwg"
  },
  {
    "title": "Shree Dandapati Primary School",
    "price": null,
    "categoryName": "Primary school",
    "address": "MF65+2RH, Mahamanjushree Nagarkot, Nepal",
    "neighborhood": "Chittapol",
    "street": "MF65+2RH",
    "city": "Mahamanjushree Nagarkot",
    "postalCode": null,
    "state": null,
    "countryCode": "NP",
    "phone": "+977 984-1453323",
    "phoneUnformatted": "+9779841453323",
    "claimThisBusiness": true,
    "location": {
      "lat": 27.6600561,
      "lng": 85.4596201
    },
    "permanentlyClosed": false,
    "temporarilyClosed": false,
    "placeId": "ChIJ7XxHGYsP6zkRWdUjZJIWNyE",
    "categories": [
      "Primary school"
    ],
    "fid": "0x39eb0f8b19477ced:0x213716926423d559",
    "cid": "2393406544971814233",
    "reviewsCount": 0,
    "imagesCount": 2,
    "imageCategories": [],
    "scrapedAt": "2025-11-14T08:40:29.986Z",
    "googleFoodUrl": null,
    "hotelAds": [],
    "openingHours": [],
    "peopleAlsoSearch": [],
    "placesTags": [],
    "reviewsTags": [],
    "additionalInfo": {
      "Accessibility": [
        {
          "Wheelchair accessible entrance": true
        },
        {
          "Wheelchair accessible parking lot": true
        }
      ]
    },
    "gasPrices": [],
    "url": "https://www.google.com/maps/search/?api=1&query=Shree%20Dandapati%20Primary%20School&query_place_id=ChIJ7XxHGYsP6zkRWdUjZJIWNyE",
    "searchPageUrl": "https://www.google.com/maps/search/school/@27.64417209352892,85.44587990355555,17z?hl=en",
    "searchString": "school",
    "language": "en",
    "rank": 17,
    "isAdvertisement": false,
    "imageUrl": "https://streetviewpixels-pa.googleapis.com/v1/thumbnail?panoid=0ZbE3IlFzX_vKHoxq3_2OQ&cb_client=search.gws-prod.gps&w=408&h=240&yaw=260.8257&pitch=0&thumbfov=100",
    "kgmid": "/g/12hqymsn5"
  },
  {
    "title": "Deuja Gaun Basic School",
    "price": null,
    "categoryName": "Primary school",
    "address": "Suryabinayak, Nepal",
    "neighborhood": "Chittapol",
    "street": null,
    "city": "Suryabinayak",
    "postalCode": null,
    "state": null,
    "countryCode": "NP",
    "claimThisBusiness": false,
    "location": {
      "lat": 27.6571887,
      "lng": 85.4628552
    },
    "permanentlyClosed": false,
    "temporarilyClosed": false,
    "placeId": "ChIJY6eLBowP6zkRms4G5gXhFEU",
    "categories": [
      "Primary school"
    ],
    "fid": "0x39eb0f8c068ba763:0x4514e105e606ce9a",
    "cid": "4977850903601532570",
    "reviewsCount": 0,
    "imagesCount": 7,
    "imageCategories": [],
    "scrapedAt": "2025-11-14T08:40:29.986Z",
    "googleFoodUrl": null,
    "hotelAds": [],
    "openingHours": [],
    "peopleAlsoSearch": [],
    "placesTags": [],
    "reviewsTags": [],
    "additionalInfo": {
      "Accessibility": [
        {
          "Wheelchair accessible entrance": true
        },
        {
          "Wheelchair accessible parking lot": true
        }
      ]
    },
    "gasPrices": [],
    "url": "https://www.google.com/maps/search/?api=1&query=Deuja%20Gaun%20Basic%20School&query_place_id=ChIJY6eLBowP6zkRms4G5gXhFEU",
    "searchPageUrl": "https://www.google.com/maps/search/school/@27.64417209352892,85.44587990355555,17z?hl=en",
    "searchString": "school",
    "language": "en",
    "rank": 18,
    "isAdvertisement": false,
    "imageUrl": "https://lh3.googleusercontent.com/gps-cs-s/AG0ilSw5NGkbwU6g6lfZZYHuUchEJU6nSnjZk-jerB6fMfxVB8yiZGwdpLx1n_zx1t_TEZS4AJ1Dzi_w4R-T7w88pz6nDl60cyX9JuEurc0-zYT7w3oIH4Sp0YQ8JE3PCSjCYdjpCxRG=w533-h240-k-no",
    "kgmid": "/g/12hm04lk9"
  },
  {
    "title": "Aradhana Gyankunja",
    "price": null,
    "categoryName": "Primary school",
    "address": "MCVX+5CX, Changunarayan, Nepal",
    "neighborhood": "Chhaling",
    "street": "MCVX+5CX",
    "city": "Changunarayan",
    "postalCode": null,
    "state": null,
    "countryCode": "NP",
    "claimThisBusiness": true,
    "location": {
      "lat": 27.693614,
      "lng": 85.448899
    },
    "permanentlyClosed": false,
    "temporarilyClosed": false,
    "placeId": "ChIJCclmnewF6zkRWKp8c0VON80",
    "categories": [
      "Primary school"
    ],
    "fid": "0x39eb05ec9d66c909:0xcd374e45737caa58",
    "cid": "14787373961691572824",
    "reviewsCount": 0,
    "imagesCount": 77,
    "imageCategories": [],
    "scrapedAt": "2025-11-14T08:40:37.893Z",
    "googleFoodUrl": null,
    "hotelAds": [],
    "openingHours": [],
    "peopleAlsoSearch": [],
    "placesTags": [],
    "reviewsTags": [],
    "gasPrices": [],
    "url": "https://www.google.com/maps/search/?api=1&query=Aradhana%20Gyankunja&query_place_id=ChIJCclmnewF6zkRWKp8c0VON80",
    "searchPageUrl": "https://www.google.com/maps/search/school/@27.689813953235532,85.45446650592592,17z?hl=en",
    "searchString": "school",
    "language": "en",
    "rank": 1,
    "isAdvertisement": false,
    "imageUrl": "https://lh3.googleusercontent.com/gps-cs-s/AG0ilSwglMJnIcA0GREbO_X_xcufdtNIIDydv9jxnSc2z-SM4DKDYYIDuvqQ05vJN6pD9kxKjQCxR6H89vPUrEv07sKuNP7S-ZYtg8siCscQ9MZqP-CNzenqeuOFIz3uZL7-3a1WO_byxw=w408-h306-k-no",
    "kgmid": "/g/11tdftj_49"
  },
  {
    "title": "\"Tranquil\" Ratna Shikshya Sadan English School",
    "price": null,
    "categoryName": "Primary school",
    "address": "MCWX+5RJ, Chhaling Road, Changunarayan, Nepal",
    "neighborhood": "Chhaling",
    "street": "MCWX+5RJ, Chhaling Road",
    "city": "Changunarayan",
    "postalCode": null,
    "state": null,
    "countryCode": "NP",
    "website": "https://www.facebook.com/tranquil.ratnasikshyasadan",
    "phone": "+977 985-1107252",
    "phoneUnformatted": "+9779851107252",
    "claimThisBusiness": true,
    "location": {
      "lat": 27.6954508,
      "lng": 85.4495013
    },
    "permanentlyClosed": false,
    "temporarilyClosed": false,
    "placeId": "ChIJX82Kk0IF6zkRSNxlaUFCri8",
    "categories": [
      "Primary school"
    ],
    "fid": "0x39eb0542938acd5f:0x2fae42416965dc48",
    "cid": "3435756414438857800",
    "reviewsCount": 0,
    "imagesCount": 27,
    "imageCategories": [],
    "scrapedAt": "2025-11-14T08:40:37.893Z",
    "googleFoodUrl": null,
    "hotelAds": [],
    "openingHours": [
      {
        "day": "Monday",
        "hours": "9 AM to 3:30 PM"
      },
      {
        "day": "Tuesday",
        "hours": "9 AM to 3:30 PM"
      },
      {
        "day": "Wednesday",
        "hours": "9 AM to 3:30 PM"
      },
      {
        "day": "Thursday",
        "hours": "9 AM to 3:30 PM"
      },
      {
        "day": "Friday",
        "hours": "9 AM to 3:30 PM"
      },
      {
        "day": "Saturday",
        "hours": "Closed"
      },
      {
        "day": "Sunday",
        "hours": "9 AM to 3:30 PM"
      }
    ],
    "peopleAlsoSearch": [],
    "placesTags": [],
    "reviewsTags": [],
    "gasPrices": [],
    "url": "https://www.google.com/maps/search/?api=1&query=%22Tranquil%22%20Ratna%20Shikshya%20Sadan%20English%20School&query_place_id=ChIJX82Kk0IF6zkRSNxlaUFCri8",
    "searchPageUrl": "https://www.google.com/maps/search/school/@27.689813953235532,85.45446650592592,17z?hl=en",
    "searchString": "school",
    "language": "en",
    "rank": 3,
    "isAdvertisement": false,
    "imageUrl": "https://lh3.googleusercontent.com/gps-cs-s/AG0ilSwdZrkMILSlVPpiHlKJVytozMceR8xOTlLqXInmCJx7dJm44LFkWVaK8LfwQAboBoyVsuTI25FjkaUQz4RGTSq-ML5AJjkY6j_QesjLhcxSIm4iM4R0R1LaGwdYAHxvQkZOljqtoQ=w408-h306-k-no",
    "kgmid": "/g/11h002w674"
  },
  {
    "title": "Shanti Niketan School",
    "subTitle": "शान्ति निकेतन माध्यमिक विद्यालय",
    "price": null,
    "categoryName": "Primary school",
    "address": "MC9H+83M, Rammandir Rd, Bhaktapur 44800, Nepal",
    "neighborhood": null,
    "street": "MC9H+83M, Rammandir Rd",
    "city": "Bhaktapur",
    "postalCode": "44800",
    "state": null,
    "countryCode": "NP",
    "phone": "+977 1-6611317",
    "phoneUnformatted": "+97716611317",
    "claimThisBusiness": true,
    "location": {
      "lat": 27.6683452,
      "lng": 85.4276836
    },
    "permanentlyClosed": false,
    "temporarilyClosed": false,
    "placeId": "ChIJmdCTU68a6zkRNFdFzgy57hk",
    "categories": [
      "Primary school"
    ],
    "fid": "0x39eb1aaf5393d099:0x19eeb90cce455734",
    "cid": "1868634360056731444",
    "reviewsCount": 0,
    "imagesCount": 9,
    "imageCategories": [],
    "scrapedAt": "2025-11-14T08:40:48.450Z",
    "googleFoodUrl": null,
    "hotelAds": [],
    "openingHours": [
      {
        "day": "Monday",
        "hours": "10 AM to 5 PM"
      },
      {
        "day": "Tuesday",
        "hours": "10 AM to 5 PM"
      },
      {
        "day": "Wednesday",
        "hours": "10 AM to 5 PM"
      },
      {
        "day": "Thursday",
        "hours": "10 AM to 5 PM"
      },
      {
        "day": "Friday",
        "hours": "10 AM to 5 PM"
      },
      {
        "day": "Saturday",
        "hours": "Closed"
      },
      {
        "day": "Sunday",
        "hours": "10 AM to 5 PM"
      }
    ],
    "peopleAlsoSearch": [],
    "placesTags": [],
    "reviewsTags": [],
    "gasPrices": [],
    "url": "https://www.google.com/maps/search/?api=1&query=Shanti%20Niketan%20School&query_place_id=ChIJmdCTU68a6zkRNFdFzgy57hk",
    "searchPageUrl": "https://www.google.com/maps/search/school/@27.63656511691115,85.43729330118518,17z?hl=en",
    "searchString": "school",
    "language": "en",
    "rank": 17,
    "isAdvertisement": false,
    "imageUrl": "https://lh3.googleusercontent.com/gps-cs-s/AG0ilSzcNQhB8WAmrTopQpP8TJ31Vr9rJIdiRbkOi78PMhp6Zvx4ii5pzH1tTV-2fd3b4E6hJjOvf-OQ7sAmZtcCbtgaAGdNdLxoPHFgoSXqx7--Qr6fdyrjtme_FnQlfIYt_pTxGWFlKw=w408-h725-k-no",
    "kgmid": "/g/1v75q9pq"
  },
  {
    "title": "Shree Sarda Primary School",
    "subTitle": "श्री सारदा प्राथमिक विद्यालय",
    "price": null,
    "categoryName": "Primary school",
    "address": "MC9F+9XC, Bhaktapur 44800, Nepal",
    "neighborhood": null,
    "street": "MC9F+9XC",
    "city": "Bhaktapur",
    "postalCode": "44800",
    "state": null,
    "countryCode": "NP",
    "phone": "+977 984-9128545",
    "phoneUnformatted": "+9779849128545",
    "claimThisBusiness": true,
    "location": {
      "lat": 27.6684436,
      "lng": 85.4249031
    },
    "permanentlyClosed": false,
    "temporarilyClosed": false,
    "placeId": "ChIJa8a306Ua6zkR0hs6hqhs3Z4",
    "categories": [
      "Primary school"
    ],
    "fid": "0x39eb1aa5d3b7c66b:0x9edd6ca8863a1bd2",
    "cid": "11447425298907929554",
    "reviewsCount": 0,
    "imagesCount": 6,
    "imageCategories": [],
    "scrapedAt": "2025-11-14T08:40:56.485Z",
    "googleFoodUrl": null,
    "hotelAds": [],
    "openingHours": [
      {
        "day": "Monday",
        "hours": "10 AM to 4 PM"
      },
      {
        "day": "Tuesday",
        "hours": "10 AM to 4 PM"
      },
      {
        "day": "Wednesday",
        "hours": "10 AM to 4 PM"
      },
      {
        "day": "Thursday",
        "hours": "10 AM to 4 PM"
      },
      {
        "day": "Friday",
        "hours": "10 AM to 4 PM"
      },
      {
        "day": "Saturday",
        "hours": "10 AM to 4 PM"
      },
      {
        "day": "Sunday",
        "hours": "10 AM to 4 PM"
      }
    ],
    "peopleAlsoSearch": [],
    "placesTags": [],
    "reviewsTags": [],
    "gasPrices": [],
    "url": "https://www.google.com/maps/search/?api=1&query=Shree%20Sarda%20Primary%20School&query_place_id=ChIJa8a306Ua6zkR0hs6hqhs3Z4",
    "searchPageUrl": "https://www.google.com/maps/search/school/@27.666993023382226,85.4287066988148,17z?hl=en",
    "searchString": "school",
    "language": "en",
    "rank": 9,
    "isAdvertisement": false,
    "imageUrl": "https://lh3.googleusercontent.com/gps-cs-s/AG0ilSxFQ-MqI6NMP1fHvKVdUspYTISVcOGdNtodDsmIhTQSW3v7LKxOF2DFgZV2jOELOXwGLiRnyS-r5Bu6twsZLG67Spvg8XYcOAS9a9iv_fHTt9jTuWeQ9LN9hYc3GjXieB5xK3r_59uxi-E=w408-h544-k-no",
    "kgmid": "/g/12jbkwdkp"
  },
  {
    "title": "Bal Mandir School",
    "subTitle": "श्री बाल मन्दिर प्राथमिक विद्यालय",
    "price": null,
    "categoryName": "Primary school",
    "address": "MCCG+QXH, Bhaktapur 44800, Nepal",
    "neighborhood": null,
    "street": "MCCG+QXH",
    "city": "Bhaktapur",
    "postalCode": "44800",
    "state": null,
    "countryCode": "NP",
    "phone": "+977 1-6610187",
    "phoneUnformatted": "+97716610187",
    "claimThisBusiness": true,
    "location": {
      "lat": 27.6719265,
      "lng": 85.4274701
    },
    "permanentlyClosed": false,
    "temporarilyClosed": false,
    "placeId": "ChIJg-hSia8a6zkRXjclHq8uIs8",
    "categories": [
      "Primary school"
    ],
    "fid": "0x39eb1aaf8952e883:0xcf222eaf1e25375e",
    "cid": "14925543444719155038",
    "reviewsCount": 0,
    "imagesCount": 6,
    "imageCategories": [],
    "scrapedAt": "2025-11-14T08:40:56.485Z",
    "googleFoodUrl": null,
    "hotelAds": [],
    "openingHours": [
      {
        "day": "Monday",
        "hours": "10 AM to 4 PM"
      },
      {
        "day": "Tuesday",
        "hours": "10 AM to 4 PM"
      },
      {
        "day": "Wednesday",
        "hours": "10 AM to 4 PM"
      },
      {
        "day": "Thursday",
        "hours": "10 AM to 4 PM"
      },
      {
        "day": "Friday",
        "hours": "10 AM to 4 PM"
      },
      {
        "day": "Saturday",
        "hours": "Closed"
      },
      {
        "day": "Sunday",
        "hours": "10 AM to 4 PM"
      }
    ],
    "peopleAlsoSearch": [],
    "placesTags": [],
    "reviewsTags": [],
    "gasPrices": [],
    "url": "https://www.google.com/maps/search/?api=1&query=Bal%20Mandir%20School&query_place_id=ChIJg-hSia8a6zkRXjclHq8uIs8",
    "searchPageUrl": "https://www.google.com/maps/search/school/@27.666993023382226,85.4287066988148,17z?hl=en",
    "searchString": "school",
    "language": "en",
    "rank": 13,
    "isAdvertisement": false,
    "imageUrl": "https://lh3.googleusercontent.com/gps-cs-s/AG0ilSyA7ggI_mPYv00dX2T2dNutk8Xiz2xUP6ljD3IlgxjCTSrs8AlKCP_PMEkU5xZzSXvu2A6sEoRM_rlXtN3edfLwdTklF8AOhZIcEWkarHbR0QpPgqdeNgdF4gcyetccle44jAE=w408-h541-k-no",
    "kgmid": "/g/11b6p68sjn"
  },
  {
    "title": "Chandeshworee Basic School",
    "price": null,
    "categoryName": "Primary school",
    "address": "MC9M+CGM, Bhaktapur 44800, Nepal",
    "neighborhood": null,
    "street": "MC9M+CGM",
    "city": "Bhaktapur",
    "postalCode": "44800",
    "state": null,
    "countryCode": "NP",
    "phone": "+977 984-1692881",
    "phoneUnformatted": "+9779841692881",
    "claimThisBusiness": true,
    "location": {
      "lat": 27.6685976,
      "lng": 85.4338103
    },
    "permanentlyClosed": false,
    "temporarilyClosed": false,
    "placeId": "ChIJvf0Y9qsa6zkR4U80j5Rm-OE",
    "categories": [
      "Primary school"
    ],
    "fid": "0x39eb1aabf618fdbd:0xe1f866948f344fe1",
    "cid": "16282877241001791457",
    "reviewsCount": 0,
    "imagesCount": 1,
    "imageCategories": [],
    "scrapedAt": "2025-11-14T08:40:57.340Z",
    "googleFoodUrl": null,
    "hotelAds": [],
    "openingHours": [],
    "peopleAlsoSearch": [],
    "placesTags": [],
    "reviewsTags": [],
    "gasPrices": [],
    "url": "https://www.google.com/maps/search/?api=1&query=Chandeshworee%20Basic%20School&query_place_id=ChIJvf0Y9qsa6zkR4U80j5Rm-OE",
    "searchPageUrl": "https://www.google.com/maps/search/school/@27.666993023382226,85.4287066988148,17z?hl=en",
    "searchString": "school",
    "language": "en",
    "rank": 38,
    "isAdvertisement": false,
    "imageUrl": "https://streetviewpixels-pa.googleapis.com/v1/thumbnail?panoid=IEdFYSrgSrD64evcmHrxJw&cb_client=search.gws-prod.gps&w=408&h=240&yaw=333.7541&pitch=0&thumbfov=100",
    "kgmid": "/g/11f0kvbf0h"
  },
  {
    "title": "श्री जनसेवा प्राथमिक विद्यालय",
    "price": null,
    "categoryName": "Primary school",
    "address": "MC9G+HG5, Mangal Ghat, Bhaktapur 44800, Nepal",
    "neighborhood": null,
    "street": "MC9G+HG5, Mangal Ghat",
    "city": "Bhaktapur",
    "postalCode": "44800",
    "state": null,
    "countryCode": "NP",
    "phone": "+977 984-1358212",
    "phoneUnformatted": "+9779841358212",
    "claimThisBusiness": true,
    "location": {
      "lat": 27.6689,
      "lng": 85.4263656
    },
    "permanentlyClosed": false,
    "temporarilyClosed": false,
    "placeId": "ChIJy0E776Ua6zkR2C312efDzyM",
    "categories": [
      "Primary school"
    ],
    "fid": "0x39eb1aa5ef3b41cb:0x23cfc3e7d9f52dd8",
    "cid": "2580496512068169176",
    "reviewsCount": 0,
    "imagesCount": 1,
    "imageCategories": [],
    "scrapedAt": "2025-11-14T08:40:58.364Z",
    "googleFoodUrl": null,
    "hotelAds": [],
    "openingHours": [
      {
        "day": "Monday",
        "hours": "10 AM to 9 PM"
      },
      {
        "day": "Tuesday",
        "hours": "10 AM to 9 PM"
      },
      {
        "day": "Wednesday",
        "hours": "10 AM to 9 PM"
      },
      {
        "day": "Thursday",
        "hours": "10 AM to 9 PM"
      },
      {
        "day": "Friday",
        "hours": "10 AM to 9 PM"
      },
      {
        "day": "Saturday",
        "hours": "Closed"
      },
      {
        "day": "Sunday",
        "hours": "10 AM to 9 PM"
      }
    ],
    "peopleAlsoSearch": [],
    "placesTags": [],
    "reviewsTags": [],
    "gasPrices": [],
    "url": "https://www.google.com/maps/search/?api=1&query=%E0%A4%B6%E0%A5%8D%E0%A4%B0%E0%A5%80%20%E0%A4%9C%E0%A4%A8%E0%A4%B8%E0%A5%87%E0%A4%B5%E0%A4%BE%20%E0%A4%AA%E0%A5%8D%E0%A4%B0%E0%A4%BE%E0%A4%A5%E0%A4%AE%E0%A4%BF%E0%A4%95%20%E0%A4%B5%E0%A4%BF%E0%A4%A6%E0%A5%8D%E0%A4%AF%E0%A4%BE%E0%A4%B2%E0%A4%AF&query_place_id=ChIJy0E776Ua6zkR2C312efDzyM",
    "searchPageUrl": "https://www.google.com/maps/search/school/@27.666993023382226,85.4287066988148,17z?hl=en",
    "searchString": "school",
    "language": "en",
    "rank": 48,
    "isAdvertisement": false,
    "imageUrl": "https://streetviewpixels-pa.googleapis.com/v1/thumbnail?panoid=qQHeJmWH8O5oivTTTUgcrw&cb_client=search.gws-prod.gps&w=408&h=240&yaw=169.1666&pitch=0&thumbfov=100",
    "kgmid": "/g/11b6s6695d"
  },
  {
    "title": "KiDSCARE SCHOOL",
    "price": null,
    "categoryName": "Primary school",
    "address": "MCQH+9WV, Changunarayan 44800, Nepal",
    "neighborhood": "Jhaukhel",
    "street": "MCQH+9WV",
    "city": "Changunarayan",
    "postalCode": null,
    "state": null,
    "countryCode": "NP",
    "phone": "+977 985-1011954",
    "phoneUnformatted": "+9779851011954",
    "claimThisBusiness": true,
    "location": {
      "lat": 27.6884826,
      "lng": 85.4298079
    },
    "permanentlyClosed": false,
    "temporarilyClosed": false,
    "placeId": "ChIJVXSTlyMb6zkR2KoLMfoUxXA",
    "categories": [
      "Primary school"
    ],
    "fid": "0x39eb1b2397937455:0x70c514fa310baad8",
    "cid": "8125924167457155800",
    "reviewsCount": 0,
    "imagesCount": 11,
    "imageCategories": [],
    "scrapedAt": "2025-11-14T08:41:04.209Z",
    "googleFoodUrl": null,
    "hotelAds": [],
    "openingHours": [],
    "peopleAlsoSearch": [],
    "placesTags": [],
    "reviewsTags": [],
    "gasPrices": [],
    "url": "https://www.google.com/maps/search/?api=1&query=KiDSCARE%20SCHOOL&query_place_id=ChIJVXSTlyMb6zkR2KoLMfoUxXA",
    "searchPageUrl": "https://www.google.com/maps/search/school/@27.689813953235532,85.43729330118518,17z?hl=en",
    "searchString": "school",
    "language": "en",
    "rank": 2,
    "isAdvertisement": false,
    "imageUrl": "https://lh3.googleusercontent.com/gps-cs-s/AG0ilSxRMgoJo0kS4NWxxtrldzNPx-Y7wwaMIcHEJnEw5Q476PnTS0-B6jFYUjs8IXWp55WnT11rlJ3hNdHLLRwuWEDzFCSz6KllvujRJxOV5m--DHJ-xHNuDM0HQH477ooQdQ5uhgPs=w408-h306-k-no",
    "kgmid": "/g/11v0snb0kz"
  },
  {
    "title": "Phaidhoka School फैढोका स्कुल",
    "price": null,
    "categoryName": "Primary school",
    "address": "फैढोका बस स्टप, Mahamanjushree Nagarkot, Nepal",
    "neighborhood": "Tathali",
    "street": "फैढोका बस स्टप",
    "city": "Mahamanjushree Nagarkot",
    "postalCode": null,
    "state": null,
    "countryCode": "NP",
    "claimThisBusiness": true,
    "location": {
      "lat": 27.6697111,
      "lng": 85.4649894
    },
    "permanentlyClosed": false,
    "temporarilyClosed": false,
    "placeId": "ChIJRSTBVqgF6zkROY8PtlxKrdc",
    "categories": [
      "Primary school"
    ],
    "fid": "0x39eb05a856c12445:0xd7ad4a5cb60f8f39",
    "cid": "15541159651177369401",
    "reviewsCount": 0,
    "imagesCount": 13,
    "imageCategories": [],
    "scrapedAt": "2025-11-14T08:41:08.394Z",
    "googleFoodUrl": null,
    "hotelAds": [],
    "openingHours": [],
    "peopleAlsoSearch": [],
    "placesTags": [],
    "reviewsTags": [],
    "gasPrices": [],
    "url": "https://www.google.com/maps/search/?api=1&query=Phaidhoka%20School%20%E0%A4%AB%E0%A5%88%E0%A4%A2%E0%A5%8B%E0%A4%95%E0%A4%BE%20%E0%A4%B8%E0%A5%8D%E0%A4%95%E0%A5%81%E0%A4%B2&query_place_id=ChIJRSTBVqgF6zkROY8PtlxKrdc",
    "searchPageUrl": "https://www.google.com/maps/search/school/@27.666993023382226,85.45446650592592,17z?hl=en",
    "searchString": "school",
    "language": "en",
    "rank": 10,
    "isAdvertisement": false,
    "imageUrl": "https://lh3.googleusercontent.com/gps-cs-s/AG0ilSyf8uCpT6oV3o_rcP73BIA9FKW6eDO1qFA1VmESPFDweGkkmvzN6pwgkV5AWLaMcUuJZIqHTrDQytUNpUuPsM4zmoYotJwk82MhCD25Q6uMw7MhIXWbxx6S9wOQMpaoIqUU97Ae=w426-h240-k-no",
    "kgmid": "/g/11hz6n53p6"
  },
  {
    "title": "Kids Town Montessori School",
    "price": null,
    "categoryName": "Primary school",
    "address": "MCWC+R53, Changunarayan 44600, Nepal",
    "neighborhood": "Duwakot",
    "street": "MCWC+R53",
    "city": "Changunarayan",
    "postalCode": null,
    "state": null,
    "countryCode": "NP",
    "website": "https://www.facebook.com/profile.php?id=100004598432988",
    "phone": "+977 984-1029666",
    "phoneUnformatted": "+9779841029666",
    "claimThisBusiness": true,
    "location": {
      "lat": 27.6970151,
      "lng": 85.4204217
    },
    "permanentlyClosed": false,
    "temporarilyClosed": false,
    "placeId": "ChIJkQgOGwAb6zkR8yARKmi0Xjo",
    "categories": [
      "Primary school"
    ],
    "fid": "0x39eb1b001b0e0891:0x3a5eb4682a1120f3",
    "cid": "4205997461485986035",
    "reviewsCount": 0,
    "imagesCount": 1,
    "imageCategories": [],
    "scrapedAt": "2025-11-14T08:41:15.202Z",
    "googleFoodUrl": null,
    "hotelAds": [],
    "openingHours": [
      {
        "day": "Monday",
        "hours": "9 AM to 4:30 PM"
      },
      {
        "day": "Tuesday",
        "hours": "9 AM to 4:30 PM"
      },
      {
        "day": "Wednesday",
        "hours": "9 AM to 4:30 PM"
      },
      {
        "day": "Thursday",
        "hours": "9 AM to 4:30 PM"
      },
      {
        "day": "Friday",
        "hours": "9 AM to 4:30 PM"
      },
      {
        "day": "Saturday",
        "hours": "Closed"
      },
      {
        "day": "Sunday",
        "hours": "9 AM to 4:30 PM"
      }
    ],
    "peopleAlsoSearch": [],
    "placesTags": [],
    "reviewsTags": [],
    "gasPrices": [],
    "url": "https://www.google.com/maps/search/?api=1&query=Kids%20Town%20Montessori%20School&query_place_id=ChIJkQgOGwAb6zkR8yARKmi0Xjo",
    "searchPageUrl": "https://www.google.com/maps/search/preschool/@27.71263488308884,85.43729330118518,17z?hl=en",
    "searchString": "preschool",
    "language": "en",
    "rank": 17,
    "isAdvertisement": false,
    "imageUrl": "https://streetviewpixels-pa.googleapis.com/v1/thumbnail?panoid=8QNVrYAAIxAdZ2sYzMVocw&cb_client=search.gws-prod.gps&w=408&h=240&yaw=318.32483&pitch=0&thumbfov=100",
    "kgmid": "/g/11ldd16xcd"
  },
  {
    "title": "Setidevi Basic School",
    "price": null,
    "categoryName": "Primary school",
    "address": "MC79+42X, Phasku 45500, Nepal",
    "neighborhood": "Katunje",
    "street": "MC79+42X",
    "city": "Phasku",
    "postalCode": "45500",
    "state": null,
    "countryCode": "NP",
    "claimThisBusiness": true,
    "location": {
      "lat": 27.6628717,
      "lng": 85.4175995
    },
    "permanentlyClosed": false,
    "temporarilyClosed": false,
    "placeId": "ChIJFbSPMPzH6zkRTabezVqgPyE",
    "categories": [
      "Primary school"
    ],
    "fid": "0x39ebc7fc308fb415:0x213fa05acddea64d",
    "cid": "2395809838645814861",
    "reviewsCount": 0,
    "imagesCount": 2,
    "imageCategories": [],
    "scrapedAt": "2025-11-14T08:41:25.070Z",
    "googleFoodUrl": null,
    "hotelAds": [],
    "openingHours": [],
    "peopleAlsoSearch": [],
    "placesTags": [],
    "reviewsTags": [],
    "gasPrices": [],
    "url": "https://www.google.com/maps/search/?api=1&query=Setidevi%20Basic%20School&query_place_id=ChIJFbSPMPzH6zkRTabezVqgPyE",
    "searchPageUrl": "https://www.google.com/maps/search/school/@27.659386046764457,85.41153349407406,17z?hl=en",
    "searchString": "school",
    "language": "en",
    "rank": 3,
    "isAdvertisement": false,
    "imageUrl": "https://lh3.googleusercontent.com/gps-cs-s/AG0ilSxrD34wvzdCj15QB8QV7wmk90vN5u9ry6qVik8ZjU2gu8nmHTjDx1MSUdw2dMQ_B-KjN4mUYvP0iqi7fdt8SoceNA2zklNyHyes_QoLe-z2kxNziWsGMezvmTE7UAHnRClrw1vL=w408-h306-k-no",
    "kgmid": "/g/11fmq9wnzh"
  },
  {
    "title": "Subarneshwor primary School",
    "price": null,
    "categoryName": "Primary school",
    "address": "MC75+QPR, Suryabinayak 44800, Nepal",
    "neighborhood": "Katunje",
    "street": "MC75+QPR",
    "city": "Suryabinayak",
    "postalCode": null,
    "state": null,
    "countryCode": "NP",
    "phone": "+977 984-7868407",
    "phoneUnformatted": "+9779847868407",
    "claimThisBusiness": true,
    "location": {
      "lat": 27.6644992,
      "lng": 85.4092605
    },
    "permanentlyClosed": false,
    "temporarilyClosed": false,
    "placeId": "ChIJzwF79IAb6zkRr8Wnied6N44",
    "categories": [
      "Primary school"
    ],
    "fid": "0x39eb1b80f47b01cf:0x8e377ae789a7c5af",
    "cid": "10247794611970360751",
    "reviewsCount": 0,
    "imagesCount": 1,
    "imageCategories": [],
    "scrapedAt": "2025-11-14T08:41:25.070Z",
    "googleFoodUrl": null,
    "hotelAds": [],
    "openingHours": [],
    "peopleAlsoSearch": [],
    "placesTags": [],
    "reviewsTags": [],
    "gasPrices": [],
    "url": "https://www.google.com/maps/search/?api=1&query=Subarneshwor%20primary%20School&query_place_id=ChIJzwF79IAb6zkRr8Wnied6N44",
    "searchPageUrl": "https://www.google.com/maps/search/school/@27.659386046764457,85.41153349407406,17z?hl=en",
    "searchString": "school",
    "language": "en",
    "rank": 7,
    "isAdvertisement": false,
    "imageUrl": "https://streetviewpixels-pa.googleapis.com/v1/thumbnail?panoid=vHDMOaYrWa5Z_Q8gdWHXvQ&cb_client=search.gws-prod.gps&w=408&h=240&yaw=306.0346&pitch=0&thumbfov=100",
    "kgmid": "/g/11h269s17j"
  },
  {
    "title": "Shree yapee Bhairab Basic School",
    "price": null,
    "categoryName": "Primary school",
    "address": "MCXC+C6R, Changunarayan 44600, Nepal",
    "neighborhood": "Duwakot",
    "street": "MCXC+C6R",
    "city": "Changunarayan",
    "postalCode": "44600",
    "state": null,
    "countryCode": "NP",
    "claimThisBusiness": true,
    "location": {
      "lat": 27.6986063,
      "lng": 85.42053
    },
    "permanentlyClosed": false,
    "temporarilyClosed": false,
    "placeId": "ChIJhWvDHekb6zkRqt42EGdqx04",
    "categories": [
      "Primary school"
    ],
    "fid": "0x39eb1be91dc36b85:0x4ec76a671036deaa",
    "cid": "5676622846210006698",
    "reviewsCount": 0,
    "imagesCount": 2,
    "imageCategories": [],
    "scrapedAt": "2025-11-14T08:41:34.643Z",
    "googleFoodUrl": null,
    "hotelAds": [],
    "openingHours": [],
    "peopleAlsoSearch": [],
    "placesTags": [],
    "reviewsTags": [],
    "gasPrices": [],
    "url": "https://www.google.com/maps/search/?api=1&query=Shree%20yapee%20Bhairab%20Basic%20School&query_place_id=ChIJhWvDHekb6zkRqt42EGdqx04",
    "searchPageUrl": "https://www.google.com/maps/search/school/@27.6974209298533,85.4287066988148,17z?hl=en",
    "searchString": "school",
    "language": "en",
    "rank": 8,
    "isAdvertisement": false,
    "imageUrl": "https://streetviewpixels-pa.googleapis.com/v1/thumbnail?panoid=v8-JtxXV03D-RHO0VlVcjA&cb_client=search.gws-prod.gps&w=408&h=240&yaw=29.135723&pitch=0&thumbfov=100",
    "kgmid": "/g/11sbpryz3c"
  },
  {
    "title": "Mamti National Academy",
    "price": null,
    "categoryName": "Primary school",
    "address": "MC6C+MPM, Suryabinayak 44800, Nepal",
    "neighborhood": "Katunje",
    "street": "MC6C+MPM",
    "city": "Suryabinayak",
    "postalCode": "44800",
    "state": null,
    "countryCode": "NP",
    "website": "http://www.mamti.edu.np/",
    "phone": "+977 1-5177164",
    "phoneUnformatted": "+97715177164",
    "claimThisBusiness": true,
    "location": {
      "lat": 27.6617003,
      "lng": 85.4218031
    },
    "permanentlyClosed": false,
    "temporarilyClosed": false,
    "placeId": "ChIJ4anjhVcR6zkRCeamFLgBYOE",
    "categories": [
      "Primary school"
    ],
    "fid": "0x39eb115785e3a9e1:0xe16001b814a6e609",
    "cid": "16239982146430101001",
    "reviewsCount": 0,
    "imagesCount": 8,
    "imageCategories": [],
    "scrapedAt": "2025-11-14T08:41:36.374Z",
    "googleFoodUrl": null,
    "hotelAds": [],
    "openingHours": [
      {
        "day": "Monday",
        "hours": "9 AM to 5 PM"
      },
      {
        "day": "Tuesday",
        "hours": "9 AM to 5 AM"
      },
      {
        "day": "Wednesday",
        "hours": "9 AM to 5 PM"
      },
      {
        "day": "Thursday",
        "hours": "9 AM to 5 AM"
      },
      {
        "day": "Friday",
        "hours": "9 AM to 5 PM"
      },
      {
        "day": "Saturday",
        "hours": "Closed"
      },
      {
        "day": "Sunday",
        "hours": "9 AM to 5 PM"
      }
    ],
    "peopleAlsoSearch": [],
    "placesTags": [],
    "reviewsTags": [],
    "additionalInfo": {
      "Accessibility": [
        {
          "Wheelchair accessible entrance": true
        },
        {
          "Wheelchair accessible parking lot": true
        }
      ]
    },
    "gasPrices": [],
    "url": "https://www.google.com/maps/search/?api=1&query=Mamti%20National%20Academy&query_place_id=ChIJ4anjhVcR6zkRCeamFLgBYOE",
    "searchPageUrl": "https://www.google.com/maps/search/school/@27.659386046764457,85.42012009644444,17z?hl=en",
    "searchString": "school",
    "language": "en",
    "rank": 5,
    "isAdvertisement": false,
    "imageUrl": "https://lh3.googleusercontent.com/gps-cs-s/AG0ilSxsiFnRU797JCxC2lQQKk6DCgAK7yiO19nkD9G_bzFitGIbzwi0HsLf8gbdZJFEzeenP-1NXQrW6tNqmHbdmlMyVeCNZvPdSjI05JpgufYW5fYm_LkafufETJMl5GWIIu92NJ9pCw=w408-h306-k-no",
    "kgmid": "/g/11rkff82pw"
  },
  {
    "title": "Gurukul Bidyamandir, Changunarayan-1, Duwakot",
    "price": null,
    "categoryName": "Primary school",
    "address": "Changunarayan 44600, Nepal",
    "neighborhood": "Duwakot",
    "street": null,
    "city": "Changunarayan",
    "postalCode": "44600",
    "state": null,
    "countryCode": "NP",
    "website": "http://www.gurukulbidyamandir.edu.np/",
    "phone": "+977 985-1166545",
    "phoneUnformatted": "+9779851166545",
    "claimThisBusiness": false,
    "location": {
      "lat": 27.7018429,
      "lng": 85.4139654
    },
    "permanentlyClosed": false,
    "temporarilyClosed": false,
    "placeId": "ChIJM2AvTAAb6zkR8Xl6kokVF1Y",
    "categories": [
      "Primary school",
      "Montessori school"
    ],
    "fid": "0x39eb1b004c2f6033:0x56171589927a79f1",
    "cid": "6203450692338350577",
    "reviewsCount": 0,
    "imagesCount": 23,
    "imageCategories": [],
    "scrapedAt": "2025-11-14T08:42:18.604Z",
    "googleFoodUrl": null,
    "hotelAds": [],
    "openingHours": [
      {
        "day": "Monday",
        "hours": "7 AM to 5:30 PM"
      },
      {
        "day": "Tuesday",
        "hours": "7 AM to 5:30 PM"
      },
      {
        "day": "Wednesday",
        "hours": "7 AM to 5:30 PM"
      },
      {
        "day": "Thursday",
        "hours": "7 AM to 5:30 PM"
      },
      {
        "day": "Friday",
        "hours": "7 AM to 5:30 PM"
      },
      {
        "day": "Saturday",
        "hours": "Closed"
      },
      {
        "day": "Sunday",
        "hours": "7 AM to 5:30 PM"
      }
    ],
    "additionalOpeningHours": {
      "Kitchen": [
        {
          "day": "Monday",
          "hours": "2:30–3:30 PM"
        },
        {
          "day": "Tuesday",
          "hours": "2:30–3:30 PM"
        },
        {
          "day": "Wednesday",
          "hours": "2:30–3:30 PM"
        },
        {
          "day": "Thursday",
          "hours": "2:30–3:30 PM"
        },
        {
          "day": "Friday",
          "hours": "2:30–3:30 PM"
        },
        {
          "day": "Saturday",
          "hours": "Closed"
        },
        {
          "day": "Sunday",
          "hours": "2:30–3:30 PM"
        }
      ],
      "Lunch": [
        {
          "day": "Monday",
          "hours": "11 AM–12:30 PM"
        },
        {
          "day": "Tuesday",
          "hours": "11 AM–12:30 PM"
        },
        {
          "day": "Wednesday",
          "hours": "11 AM–12:30 PM"
        },
        {
          "day": "Thursday",
          "hours": "11 AM–12:30 PM"
        },
        {
          "day": "Friday",
          "hours": "11 AM–12:30 PM"
        },
        {
          "day": "Saturday",
          "hours": "Closed"
        },
        {
          "day": "Sunday",
          "hours": "11 AM–12:30 PM"
        }
      ]
    },
    "peopleAlsoSearch": [],
    "placesTags": [],
    "reviewsTags": [],
    "gasPrices": [],
    "url": "https://www.google.com/maps/search/?api=1&query=Gurukul%20Bidyamandir%2C%20Changunarayan-1%2C%20Duwakot&query_place_id=ChIJM2AvTAAb6zkR8Xl6kokVF1Y",
    "searchPageUrl": "https://www.google.com/maps/search/school/@27.70502790647107,85.41153349407406,17z?hl=en",
    "searchString": "school",
    "language": "en",
    "rank": 3,
    "isAdvertisement": false,
    "imageUrl": "https://lh3.googleusercontent.com/p/AF1QipPmNWO2FCdP-iCZR5yHXK8TKgV2PUK2BsxcwMpc=w408-h306-k-no",
    "kgmid": "/g/11y2qfhk1n"
  },
  {
    "title": "Shree Hansa Bahini Basic School",
    "subTitle": "श्री हंस बाहिनी बिद्यालय",
    "price": null,
    "categoryName": "Primary school",
    "address": "MCGM+67P Mahalaxmi, Bhaktapur 44800, Nepal",
    "neighborhood": null,
    "street": "MCGM+67P Mahalaxmi",
    "city": "Bhaktapur",
    "postalCode": "44800",
    "state": null,
    "countryCode": "NP",
    "website": "https://hansabahini.wordpress.com/",
    "claimThisBusiness": true,
    "location": {
      "lat": 27.6755938,
      "lng": 85.4331948
    },
    "permanentlyClosed": false,
    "temporarilyClosed": false,
    "placeId": "ChIJN9tNPLIa6zkRhGX9h8hLlEI",
    "categories": [
      "Primary school"
    ],
    "fid": "0x39eb1ab23c4ddb37:0x42944bc887fd6584",
    "cid": "4797542827703494020",
    "reviewsCount": 0,
    "imagesCount": 2,
    "imageCategories": [],
    "scrapedAt": "2025-11-14T08:42:58.391Z",
    "googleFoodUrl": null,
    "hotelAds": [],
    "openingHours": [
      {
        "day": "Monday",
        "hours": "10 AM to 4:30 PM"
      },
      {
        "day": "Tuesday",
        "hours": "10 AM to 4:30 PM"
      },
      {
        "day": "Wednesday",
        "hours": "10 AM to 4:30 PM"
      },
      {
        "day": "Thursday",
        "hours": "10 AM to 4:30 PM"
      },
      {
        "day": "Friday",
        "hours": "10 AM to 4:30 PM"
      },
      {
        "day": "Saturday",
        "hours": "Closed"
      },
      {
        "day": "Sunday",
        "hours": "10 AM to 4:30 PM"
      }
    ],
    "peopleAlsoSearch": [],
    "placesTags": [],
    "reviewsTags": [],
    "gasPrices": [],
    "url": "https://www.google.com/maps/search/?api=1&query=Shree%20Hansa%20Bahini%20Basic%20School&query_place_id=ChIJN9tNPLIa6zkRhGX9h8hLlEI",
    "searchPageUrl": "https://www.google.com/maps/search/school/@27.674599999999995,85.43729330118518,17z?hl=en",
    "searchString": "school",
    "language": "en",
    "rank": 15,
    "isAdvertisement": false,
    "imageUrl": "https://streetviewpixels-pa.googleapis.com/v1/thumbnail?panoid=aaB_Ny9QzjZTKVXiGQXR6g&cb_client=search.gws-prod.gps&w=408&h=240&yaw=176.83746&pitch=0&thumbfov=100",
    "kgmid": "/g/11b6q6wfwr"
  },
  {
    "title": "Shree Basic School श्री आधारभूत विद्यालय",
    "price": null,
    "categoryName": "Primary school",
    "address": "MCFJ+CXQ, Yachhen-Thalachhen Rd, Bhaktapur 44800, Nepal",
    "neighborhood": null,
    "street": "MCFJ+CXQ, Yachhen-Thalachhen Rd",
    "city": "Bhaktapur",
    "postalCode": "44800",
    "state": null,
    "countryCode": "NP",
    "phone": "+977 984-1670570",
    "phoneUnformatted": "+9779841670570",
    "claimThisBusiness": true,
    "location": {
      "lat": 27.6734994,
      "lng": 85.4324365
    },
    "permanentlyClosed": false,
    "temporarilyClosed": false,
    "placeId": "ChIJywv0VQAb6zkRpeQD5qoGxB4",
    "categories": [
      "Primary school"
    ],
    "fid": "0x39eb1b0055f40bcb:0x1ec406aae603e4a5",
    "cid": "2216904247646348453",
    "reviewsCount": 0,
    "imagesCount": 7,
    "imageCategories": [],
    "scrapedAt": "2025-11-14T08:42:58.391Z",
    "googleFoodUrl": null,
    "hotelAds": [],
    "openingHours": [
      {
        "day": "Monday",
        "hours": "9 AM to 4 PM"
      },
      {
        "day": "Tuesday",
        "hours": "9 AM to 4 PM"
      },
      {
        "day": "Wednesday",
        "hours": "9 AM to 4 PM"
      },
      {
        "day": "Thursday",
        "hours": "9 AM to 4 PM"
      },
      {
        "day": "Friday",
        "hours": "9 AM to 12 AM"
      },
      {
        "day": "Saturday",
        "hours": "Closed"
      },
      {
        "day": "Sunday",
        "hours": "9 AM to 4 PM"
      }
    ],
    "peopleAlsoSearch": [],
    "placesTags": [],
    "reviewsTags": [],
    "gasPrices": [],
    "url": "https://www.google.com/maps/search/?api=1&query=Shree%20Basic%20School%20%E0%A4%B6%E0%A5%8D%E0%A4%B0%E0%A5%80%20%E0%A4%86%E0%A4%A7%E0%A4%BE%E0%A4%B0%E0%A4%AD%E0%A5%82%E0%A4%A4%20%E0%A4%B5%E0%A4%BF%E0%A4%A6%E0%A5%8D%E0%A4%AF%E0%A4%BE%E0%A4%B2%E0%A4%AF&query_place_id=ChIJywv0VQAb6zkRpeQD5qoGxB4",
    "searchPageUrl": "https://www.google.com/maps/search/school/@27.674599999999995,85.43729330118518,17z?hl=en",
    "searchString": "school",
    "language": "en",
    "rank": 16,
    "isAdvertisement": false,
    "imageUrl": "https://lh3.googleusercontent.com/gps-cs-s/AG0ilSyyZuXLrHKiULmn_ODCGsQStTqtwhk39iDm0gzKxfmuiqC6DFFfcABh8IpoEQrH9hky_2srcjWNSISvlzV-P-_QgSi91z7VVowiMfFMUTUru8P6vh-fco1a8HGPd8wxabOIoOo=w408-h306-k-no",
    "kgmid": "/g/11ld9bfkj0"
  },
  {
    "title": "Kamalbinayak-10, Bhaktapur",
    "price": null,
    "categoryName": "Primary school",
    "address": "MCGM+76X, Bhaktapur 44800, Nepal",
    "neighborhood": null,
    "street": "MCGM+76X",
    "city": "Bhaktapur",
    "postalCode": null,
    "state": null,
    "countryCode": "NP",
    "claimThisBusiness": true,
    "location": {
      "lat": 27.6757318,
      "lng": 85.4331137
    },
    "permanentlyClosed": false,
    "temporarilyClosed": false,
    "placeId": "ChIJL4t_agAb6zkRj1AChWKtz4c",
    "categories": [
      "Primary school"
    ],
    "fid": "0x39eb1b006a7f8b2f:0x87cfad628502508f",
    "cid": "9786231153949298831",
    "reviewsCount": 0,
    "imagesCount": 3,
    "imageCategories": [],
    "scrapedAt": "2025-11-14T08:42:59.649Z",
    "googleFoodUrl": null,
    "hotelAds": [],
    "openingHours": [],
    "peopleAlsoSearch": [],
    "placesTags": [],
    "reviewsTags": [],
    "gasPrices": [],
    "url": "https://www.google.com/maps/search/?api=1&query=Kamalbinayak-10%2C%20Bhaktapur&query_place_id=ChIJL4t_agAb6zkRj1AChWKtz4c",
    "searchPageUrl": "https://www.google.com/maps/search/school/@27.674599999999995,85.43729330118518,17z?hl=en",
    "searchString": "school",
    "language": "en",
    "rank": 43,
    "isAdvertisement": false,
    "imageUrl": "https://lh3.googleusercontent.com/gps-cs-s/AG0ilSz8xcf6yJ7AOwjTlQZnQNlK87Ou-Oks9QSzrl7LZK-bPKlzjUpnm35sg1s9S2pTlrkHqMnJqsiiY6mHg76VAAFQVLuUt8Oc2AxI3sN-gV_NEOCKKeNXGzAHEWmhD-WWfgdDSmuWkQ=w408-h306-k-no",
    "kgmid": "/g/11ltj2bnyy"
  },
  {
    "title": "Shree Santati Basic School",
    "price": null,
    "categoryName": "Primary school",
    "address": "MCF3+GPC, Bhaktapur 44800, Nepal",
    "neighborhood": "SallaGhari",
    "street": "MCF3+GPC",
    "city": "Bhaktapur",
    "postalCode": null,
    "state": null,
    "countryCode": "NP",
    "phone": "+977 1-6619178",
    "phoneUnformatted": "+97716619178",
    "claimThisBusiness": true,
    "location": {
      "lat": 27.6738014,
      "lng": 85.4042594
    },
    "permanentlyClosed": false,
    "temporarilyClosed": false,
    "placeId": "ChIJ5-PW5Jgb6zkReLkXcKMLER0",
    "categories": [
      "Primary school"
    ],
    "fid": "0x39eb1b98e4d6e3e7:0x1d110ba37017b978",
    "cid": "2094468098292169080",
    "reviewsCount": 0,
    "imagesCount": 10,
    "imageCategories": [],
    "scrapedAt": "2025-11-14T08:43:00.184Z",
    "googleFoodUrl": null,
    "hotelAds": [],
    "openingHours": [],
    "peopleAlsoSearch": [],
    "placesTags": [],
    "reviewsTags": [],
    "gasPrices": [],
    "url": "https://www.google.com/maps/search/?api=1&query=Shree%20Santati%20Basic%20School&query_place_id=ChIJ5-PW5Jgb6zkReLkXcKMLER0",
    "searchPageUrl": "https://www.google.com/maps/search/school/@27.674599999999995,85.40294689170369,17z?hl=en",
    "searchString": "school",
    "language": "en",
    "rank": 7,
    "isAdvertisement": false,
    "imageUrl": "https://lh3.googleusercontent.com/gps-cs-s/AG0ilSw1s2LMXAEqa_ZX2XTwoLkVCogTm1SYGUZIBUMCT54uoqRSX3hsBADIQ6cDg7rMNSEIZ1XChAdzRAbp2eUq53Xq_25oJ2JME16ve9glbK2yKqAle-Rd5d4b36t4EOnYgWI3TERHr9bsqAI=w408-h544-k-no",
    "kgmid": "/g/11f7ds_f6g"
  }
]