[
  {
    "title": "Demos School",
    "price": null,
    "categoryName": "Private educational institution",
    "address": "Araniko Highway, Suryabinayak 44800, Nepal",
    "neighborhood": null,
    "street": "Araniko Highway",
    "city": "Suryabinayak",
    "postalCode": "44800",
    "state": null,
    "countryCode": "NP",
    "phone": "+977 1-6616536",
    "phoneUnformatted": "+97716616536",
    "claimThisBusiness": false,
    "location": {
      "lat": 27.6667586,
      "lng": 85.4267163
    },
    "permanentlyClosed": false,
    "temporarilyClosed": false,
    "placeId": "ChIJ4ZytGaYa6zkRHMPiwIHOFkg",
    "categories": [
      "Private educational institution",
      "School"
    ],
    "fid": "0x39eb1aa619ad9ce1:0x4816ce81c0e2c31c",
    "cid": "5194566276900635420",
    "reviewsCount": 0,
    "imagesCount": 18,
    "imageCategories": [],
    "scrapedAt": "2025-11-14T08:13:57.486Z",
    "googleFoodUrl": null,
    "hotelAds": [],
    "openingHours": [
      {
        "day": "Monday",
        "hours": "9 AM to 5 PM"
      },
      {
        "day": "Tuesday",
        "hours": "9 AM to 5 PM"
      },
      {
        "day": "Wednesday",
        "hours": "9 AM to 4:30 PM"
      },
      {
        "day": "Thursday",
        "hours": "9 AM to 5 PM"
      },
      {
        "day": "Friday",
        "hours": "9 AM to 5 PM"
      },
      {
        "day": "Saturday",
        "hours": "Closed"
      },
      {
        "day": "Sunday",
        "hours": "9 AM to 5 PM"
      }
    ],
    "peopleAlsoSearch": [],
    "placesTags": [],
    "reviewsTags": [],
    "gasPrices": [],
    "url": "https://www.google.com/maps/search/?api=1&query=Demos%20School&query_place_id=ChIJ4ZytGaYa6zkRHMPiwIHOFkg",
    "searchPageUrl": "https://www.google.com/maps/search/school/@27.667695459098024,85.42150000000001,17z?hl=en",
    "searchString": "school",
    "language": "en",
    "rank": 20,
    "isAdvertisement": false,
    "imageUrl": "https://lh3.googleusercontent.com/p/AF1QipOMcmryt3iPHcboS9ZB-KfV-d48lx3XY8odunLm=w426-h240-k-no",
    "kgmid": "/g/1tdxtff2"
  },
  {
    "title": "Demos School",
    "price": null,
    "categoryName": "Private educational institution",
    "address": "Araniko Highway, Suryabinayak 44800, Nepal",
    "neighborhood": null,
    "street": "Araniko Highway",
    "city": "Suryabinayak",
    "postalCode": "44800",
    "state": null,
    "countryCode": "NP",
    "phone": "+977 1-6616536",
    "phoneUnformatted": "+97716616536",
    "claimThisBusiness": false,
    "location": {
      "lat": 27.6667586,
      "lng": 85.4267163
    },
    "permanentlyClosed": false,
    "temporarilyClosed": false,
    "placeId": "ChIJ4ZytGaYa6zkRHMPiwIHOFkg",
    "categories": [
      "Private educational institution",
      "School"
    ],
    "fid": "0x39eb1aa619ad9ce1:0x4816ce81c0e2c31c",
    "cid": "5194566276900635420",
    "reviewsCount": 0,
    "imagesCount": 18,
    "imageCategories": [],
    "scrapedAt": "2025-11-14T08:40:56.485Z",
    "googleFoodUrl": null,
    "hotelAds": [],
    "openingHours": [
      {
        "day": "Monday",
        "hours": "9 AM to 5 PM"
      },
      {
        "day": "Tuesday",
        "hours": "9 AM to 5 PM"
      },
      {
        "day": "Wednesday",
        "hours": "9 AM to 4:30 PM"
      },
      {
        "day": "Thursday",
        "hours": "9 AM to 5 PM"
      },
      {
        "day": "Friday",
        "hours": "9 AM to 5 PM"
      },
      {
        "day": "Saturday",
        "hours": "Closed"
      },
      {
        "day": "Sunday",
        "hours": "9 AM to 5 PM"
      }
    ],
    "peopleAlsoSearch": [],
    "placesTags": [],
    "reviewsTags": [],
    "gasPrices": [],
    "url": "https://www.google.com/maps/search/?api=1&query=Demos%20School&query_place_id=ChIJ4ZytGaYa6zkRHMPiwIHOFkg",
    "searchPageUrl": "https://www.google.com/maps/search/school/@27.666993023382226,85.4287066988148,17z?hl=en",
    "searchString": "school",
    "language": "en",
    "rank": 14,
    "isAdvertisement": false,
    "imageUrl": "https://lh3.googleusercontent.com/p/AF1QipOMcmryt3iPHcboS9ZB-KfV-d48lx3XY8odunLm=w426-h240-k-no",
    "kgmid": "/g/1tdxtff2"
  },
  {
    "title": "SUVI School - सूर्यविनायक अङ्ग्रेजी माध्यमिक विद्यालय",
    "subTitle": "सूर्यविनायक अङ्ग्रेजी माध्यमिक विद्यालय",
    "price": null,
    "categoryName": "Private educational institution",
    "address": "Bhaktapur 44800, Nepal",
    "neighborhood": null,
    "street": null,
    "city": "Bhaktapur",
    "postalCode": "44800",
    "state": null,
    "countryCode": "NP",
    "website": "https://suryavinayakschool.edu.np/",
    "phone": "+977 1-6612441",
    "phoneUnformatted": "+97716612441",
    "claimThisBusiness": false,
    "location": {
      "lat": 27.6732703,
      "lng": 85.4126085
    },
    "permanentlyClosed": false,
    "temporarilyClosed": false,
    "placeId": "ChIJBeVKhI8a6zkRMjDX1wfstLA",
    "categories": [
      "Private educational institution",
      "High school"
    ],
    "fid": "0x39eb1a8f844ae505:0xb0b4ec07d7d73032",
    "cid": "12733061564913365042",
    "reviewsCount": 0,
    "imagesCount": 8,
    "imageCategories": [],
    "scrapedAt": "2025-11-14T08:42:13.840Z",
    "googleFoodUrl": null,
    "hotelAds": [],
    "openingHours": [
      {
        "day": "Monday",
        "hours": "9 AM to 5 PM"
      },
      {
        "day": "Tuesday",
        "hours": "9 AM to 5 PM"
      },
      {
        "day": "Wednesday",
        "hours": "9 AM to 5 PM"
      },
      {
        "day": "Thursday",
        "hours": "9 AM to 5 PM"
      },
      {
        "day": "Friday",
        "hours": "9 AM to 5 PM"
      },
      {
        "day": "Saturday",
        "hours": "Closed"
      },
      {
        "day": "Sunday",
        "hours": "9 AM to 5 PM"
      }
    ],
    "peopleAlsoSearch": [],
    "placesTags": [],
    "reviewsTags": [],
    "gasPrices": [],
    "url": "https://www.google.com/maps/search/?api=1&query=SUVI%20School%20-%20%E0%A4%B8%E0%A5%82%E0%A4%B0%E0%A5%8D%E0%A4%AF%E0%A4%B5%E0%A4%BF%E0%A4%A8%E0%A4%BE%E0%A4%AF%E0%A4%95%20%E0%A4%85%E0%A4%99%E0%A5%8D%E0%A4%97%E0%A5%8D%E0%A4%B0%E0%A5%87%E0%A4%9C%E0%A5%80%20%E0%A4%AE%E0%A4%BE%E0%A4%A7%E0%A5%8D%E0%A4%AF%E0%A4%AE%E0%A4%BF%E0%A4%95%20%E0%A4%B5%E0%A4%BF%E0%A4%A6%E0%A5%8D%E0%A4%AF%E0%A4%BE%E0%A4%B2%E0%A4%AF&query_place_id=ChIJBeVKhI8a6zkRMjDX1wfstLA",
    "searchPageUrl": "https://www.google.com/maps/search/school/@27.666993023382226,85.40294689170369,17z?hl=en",
    "searchString": "school",
    "language": "en",
    "rank": 17,
    "isAdvertisement": false,
    "imageUrl": "https://lh3.googleusercontent.com/p/AF1QipODOIpV9zerQFU0rIqEXXOz_qZ_sZbhstM5eB9X=w408-h306-k-no",
    "kgmid": "/g/1hm5k03f_"
  }
]