[
  {
    "title": "Vidyarthi Niketan School - Bhaktapur",
    "price": null,
    "categoryName": "School center",
    "address": "MCCH+VW3, Bhaktapur 44800, Nepal",
    "neighborhood": null,
    "street": "MCCH+VW3",
    "city": "Bhaktapur",
    "postalCode": "44800",
    "state": null,
    "countryCode": "NP",
    "phone": "+977 1-6610386",
    "phoneUnformatted": "+97716610386",
    "claimThisBusiness": true,
    "location": {
      "lat": 27.6721365,
      "lng": 85.4297881
    },
    "totalScore": 3.4,
    "permanentlyClosed": false,
    "temporarilyClosed": false,
    "placeId": "ChIJ9aydSa4a6zkRvgTgUq0G8Dk",
    "categories": [
      "School center"
    ],
    "fid": "0x39eb1aae499dacf5:0x39f006ad52e004be",
    "cid": "4174844196061971646",
    "reviewsCount": 5,
    "imagesCount": 14,
    "imageCategories": [],
    "scrapedAt": "2025-11-14T08:13:31.793Z",
    "googleFoodUrl": null,
    "hotelAds": [],
    "openingHours": [],
    "peopleAlsoSearch": [],
    "placesTags": [],
    "reviewsTags": [],
    "additionalInfo": {
      "Accessibility": [
        {
          "Wheelchair accessible entrance": true
        }
      ]
    },
    "gasPrices": [],
    "url": "https://www.google.com/maps/search/?api=1&query=Vidyarthi%20Niketan%20School%20-%20Bhaktapur&query_place_id=ChIJ9aydSa4a6zkRvgTgUq0G8Dk",
    "searchPageUrl": "https://www.google.com/maps/search/school/@27.67530454090198,85.43009086349416,17z?hl=en",
    "searchString": "school",
    "language": "en",
    "rank": 3,
    "isAdvertisement": false,
    "imageUrl": "https://lh3.googleusercontent.com/gps-proxy/ALd4DhGWabb8jdiq8kaKKXgfbCaEkbHYIJdE0nnaZbLXRWjxjqB26ogCxRZNRZ5rW5gsK80yUEbb9lq9TQfPZPRpkSOS6M3amxf7kZ8lfWKE4MmusnH8U8eEzRlwJiVIFKxPAX_3LaaA-YKGJDJMhcaFpbEkqMEmr6Khbxmd3-pXegq91cQdSSs6VYPkIq4SDk5E1HN5rhw=w408-h306-k-no",
    "kgmid": "/g/11dxs9k2df"
  },
  {
    "title": "Shree Springdale S B School",
    "subTitle": "स्प्रिङडेल इङलिस सेकेन्डरी वोर्डिङ स्कूल",
    "price": null,
    "categoryName": "School center",
    "address": "Suryabinayak- 08, 44809, Nepal",
    "neighborhood": "Sipadol",
    "street": "Suryabinayak- 08",
    "city": "Suryabinayak",
    "postalCode": "44809",
    "state": null,
    "countryCode": "NP",
    "phone": "+977 1-5157020",
    "phoneUnformatted": "+97715157020",
    "claimThisBusiness": false,
    "location": {
      "lat": 27.6406042,
      "lng": 85.431487
    },
    "totalScore": 4.6,
    "permanentlyClosed": false,
    "temporarilyClosed": false,
    "placeId": "ChIJFVKx8J8a6zkRAOU33ttdLUs",
    "categories": [
      "School center"
    ],
    "fid": "0x39eb1a9ff0b15215:0x4b2d5ddbde37e500",
    "cid": "5417089125704000768",
    "reviewsCount": 13,
    "imagesCount": 12,
    "imageCategories": [],
    "scrapedAt": "2025-11-14T08:40:29.986Z",
    "googleFoodUrl": null,
    "hotelAds": [],
    "openingHours": [
      {
        "day": "Monday",
        "hours": "9 AM to 5 PM"
      },
      {
        "day": "Tuesday",
        "hours": "9 AM to 5 PM"
      },
      {
        "day": "Wednesday",
        "hours": "9 AM to 5 PM"
      },
      {
        "day": "Thursday",
        "hours": "9 AM to 5 PM"
      },
      {
        "day": "Friday",
        "hours": "9 AM to 5 PM"
      },
      {
        "day": "Saturday",
        "hours": "Closed"
      },
      {
        "day": "Sunday",
        "hours": "9 AM to 5 PM"
      }
    ],
    "peopleAlsoSearch": [],
    "placesTags": [],
    "reviewsTags": [],
    "additionalInfo": {
      "Accessibility": [
        {
          "Wheelchair accessible entrance": true
        },
        {
          "Wheelchair accessible parking lot": true
        }
      ]
    },
    "gasPrices": [],
    "url": "https://www.google.com/maps/search/?api=1&query=Shree%20Springdale%20S%20B%20School&query_place_id=ChIJFVKx8J8a6zkRAOU33ttdLUs",
    "searchPageUrl": "https://www.google.com/maps/search/school/@27.64417209352892,85.44587990355555,17z?hl=en",
    "searchString": "school",
    "language": "en",
    "rank": 6,
    "isAdvertisement": false,
    "imageUrl": "https://lh3.googleusercontent.com/p/AF1QipNmv73GpKG-BVYuGGzds-h40gvvXyctIPuoQ2PC=w525-h240-k-no",
    "kgmid": "/g/11cs5p331q"
  },
  {
    "title": "Bhaktapur Maple School",
    "price": null,
    "categoryName": "School center",
    "address": "Suryabinayak 44800, Nepal",
    "neighborhood": "Sipadol",
    "street": null,
    "city": "Suryabinayak",
    "postalCode": null,
    "state": null,
    "countryCode": "NP",
    "phone": "+977 976-5343966",
    "phoneUnformatted": "+9779765343966",
    "claimThisBusiness": false,
    "location": {
      "lat": 27.6599338,
      "lng": 85.4258096
    },
    "totalScore": 5,
    "permanentlyClosed": false,
    "temporarilyClosed": false,
    "placeId": "ChIJZaWCtZK3GIYRtruz2qct234",
    "categories": [
      "School center"
    ],
    "fid": "0x8618b792b582a565:0x7edb2da7dab3bbb6",
    "cid": "9140950067630554038",
    "reviewsCount": 1,
    "imagesCount": 2,
    "imageCategories": [],
    "scrapedAt": "2025-11-14T08:40:29.986Z",
    "googleFoodUrl": null,
    "hotelAds": [],
    "openingHours": [
      {
        "day": "Monday",
        "hours": "9 AM to 4 PM"
      },
      {
        "day": "Tuesday",
        "hours": "9 AM to 4 PM"
      },
      {
        "day": "Wednesday",
        "hours": "9 AM to 4 PM"
      },
      {
        "day": "Thursday",
        "hours": "9 AM to 4 PM"
      },
      {
        "day": "Friday",
        "hours": "9 AM to 4 PM"
      },
      {
        "day": "Saturday",
        "hours": "Closed"
      },
      {
        "day": "Sunday",
        "hours": "9 AM to 4 PM"
      }
    ],
    "peopleAlsoSearch": [],
    "placesTags": [],
    "reviewsTags": [],
    "gasPrices": [],
    "url": "https://www.google.com/maps/search/?api=1&query=Bhaktapur%20Maple%20School&query_place_id=ChIJZaWCtZK3GIYRtruz2qct234",
    "searchPageUrl": "https://www.google.com/maps/search/school/@27.64417209352892,85.44587990355555,17z?hl=en",
    "searchString": "school",
    "language": "en",
    "rank": 11,
    "isAdvertisement": false,
    "imageUrl": "https://streetviewpixels-pa.googleapis.com/v1/thumbnail?panoid=QBcge3iUW694lMYAIgrS0A&cb_client=search.gws-prod.gps&w=408&h=240&yaw=261.37845&pitch=0&thumbfov=100",
    "kgmid": "/g/11xw4bkrwh"
  },
  {
    "title": "Vidyarthi Niketan School - Bhaktapur",
    "price": null,
    "categoryName": "School center",
    "address": "MCCH+VW3, Bhaktapur 44800, Nepal",
    "neighborhood": null,
    "street": "MCCH+VW3",
    "city": "Bhaktapur",
    "postalCode": "44800",
    "state": null,
    "countryCode": "NP",
    "phone": "+977 1-6610386",
    "phoneUnformatted": "+97716610386",
    "claimThisBusiness": true,
    "location": {
      "lat": 27.6721365,
      "lng": 85.4297881
    },
    "totalScore": 3.4,
    "permanentlyClosed": false,
    "temporarilyClosed": false,
    "placeId": "ChIJ9aydSa4a6zkRvgTgUq0G8Dk",
    "categories": [
      "School center"
    ],
    "fid": "0x39eb1aae499dacf5:0x39f006ad52e004be",
    "cid": "4174844196061971646",
    "reviewsCount": 5,
    "imagesCount": 14,
    "imageCategories": [],
    "scrapedAt": "2025-11-14T08:40:37.893Z",
    "googleFoodUrl": null,
    "hotelAds": [],
    "openingHours": [],
    "peopleAlsoSearch": [],
    "placesTags": [],
    "reviewsTags": [],
    "additionalInfo": {
      "Accessibility": [
        {
          "Wheelchair accessible entrance": true
        }
      ]
    },
    "gasPrices": [],
    "url": "https://www.google.com/maps/search/?api=1&query=Vidyarthi%20Niketan%20School%20-%20Bhaktapur&query_place_id=ChIJ9aydSa4a6zkRvgTgUq0G8Dk",
    "searchPageUrl": "https://www.google.com/maps/search/school/@27.689813953235532,85.45446650592592,17z?hl=en",
    "searchString": "school",
    "language": "en",
    "rank": 16,
    "isAdvertisement": false,
    "imageUrl": "https://lh3.googleusercontent.com/gps-proxy/ALd4DhGWabb8jdiq8kaKKXgfbCaEkbHYIJdE0nnaZbLXRWjxjqB26ogCxRZNRZ5rW5gsK80yUEbb9lq9TQfPZPRpkSOS6M3amxf7kZ8lfWKE4MmusnH8U8eEzRlwJiVIFKxPAX_3LaaA-YKGJDJMhcaFpbEkqMEmr6Khbxmd3-pXegq91cQdSSs6VYPkIq4SDk5E1HN5rhw=w408-h306-k-no",
    "kgmid": "/g/11dxs9k2df"
  },
  {
    "title": "See result Online",
    "price": null,
    "categoryName": "School center",
    "address": "MC94+JCW, Suryabinayak 44800, Nepal",
    "neighborhood": "Katunje",
    "street": "MC94+JCW",
    "city": "Suryabinayak",
    "postalCode": null,
    "state": null,
    "countryCode": "NP",
    "phone": "+977 985-1000074",
    "phoneUnformatted": "+9779851000074",
    "claimThisBusiness": true,
    "location": {
      "lat": 27.6691065,
      "lng": 85.4060715
    },
    "totalScore": 2,
    "permanentlyClosed": false,
    "temporarilyClosed": false,
    "placeId": "ChIJMxO7heEb6zkR9PAFByGXItc",
    "categories": [
      "School center"
    ],
    "fid": "0x39eb1be185bb1333:0xd72297210705f0f4",
    "cid": "15502119035470213364",
    "reviewsCount": 2,
    "imagesCount": 1,
    "imageCategories": [],
    "scrapedAt": "2025-11-14T08:42:13.840Z",
    "googleFoodUrl": null,
    "hotelAds": [],
    "openingHours": [
      {
        "day": "Monday",
        "hours": "Open 24 hours"
      },
      {
        "day": "Tuesday",
        "hours": "Open 24 hours"
      },
      {
        "day": "Wednesday",
        "hours": "Open 24 hours"
      },
      {
        "day": "Thursday",
        "hours": "Open 24 hours"
      },
      {
        "day": "Friday",
        "hours": "Open 24 hours"
      },
      {
        "day": "Saturday",
        "hours": "Open 24 hours"
      },
      {
        "day": "Sunday",
        "hours": "Open 24 hours"
      }
    ],
    "peopleAlsoSearch": [],
    "placesTags": [],
    "reviewsTags": [],
    "gasPrices": [],
    "url": "https://www.google.com/maps/search/?api=1&query=See%20result%20Online&query_place_id=ChIJMxO7heEb6zkR9PAFByGXItc",
    "searchPageUrl": "https://www.google.com/maps/search/school/@27.666993023382226,85.40294689170369,17z?hl=en",
    "searchString": "school",
    "language": "en",
    "rank": 10,
    "isAdvertisement": false,
    "imageUrl": "https://streetviewpixels-pa.googleapis.com/v1/thumbnail?panoid=ouXh3C-kN7O5B8jgfDydgQ&cb_client=search.gws-prod.gps&w=408&h=240&yaw=322.56647&pitch=0&thumbfov=100",
    "kgmid": "/g/11g0tm2t8s"
  }
]