[
  {
    "title": "The Rising English Secondary School",
    "price": null,
    "categoryName": "Secondary school",
    "address": "MCFM+84H, Yachhen-Thalachhen Rd, Bhaktapur 44800, Nepal",
    "neighborhood": null,
    "street": "MCFM+84H, Yachhen-Thalachhen Rd",
    "city": "Bhaktapur",
    "postalCode": "44800",
    "state": null,
    "countryCode": "NP",
    "phone": "+977 1-6613606",
    "phoneUnformatted": "+97716613606",
    "claimThisBusiness": true,
    "location": {
      "lat": 27.6733111,
      "lng": 85.4328498
    },
    "permanentlyClosed": false,
    "temporarilyClosed": false,
    "placeId": "ChIJf_18-a0a6zkRm_xhM9Xh0i4",
    "categories": [
      "Secondary school"
    ],
    "fid": "0x39eb1aadf97cfd7f:0x2ed2e1d53361fc9b",
    "cid": "3374007376660266139",
    "reviewsCount": 0,
    "imagesCount": 3,
    "imageCategories": [],
    "scrapedAt": "2025-11-14T08:13:31.793Z",
    "googleFoodUrl": null,
    "hotelAds": [],
    "openingHours": [
      {
        "day": "Monday",
        "hours": "9 AM to 5 PM"
      },
      {
        "day": "Tuesday",
        "hours": "9 AM to 5 PM"
      },
      {
        "day": "Wednesday",
        "hours": "9 AM to 5 PM"
      },
      {
        "day": "Thursday",
        "hours": "9 AM to 5 PM"
      },
      {
        "day": "Friday",
        "hours": "9 AM to 5 PM"
      },
      {
        "day": "Saturday",
        "hours": "Closed"
      },
      {
        "day": "Sunday",
        "hours": "9 AM to 5 PM"
      }
    ],
    "peopleAlsoSearch": [],
    "placesTags": [],
    "reviewsTags": [],
    "additionalInfo": {
      "Accessibility": [
        {
          "Wheelchair accessible entrance": true
        },
        {
          "Wheelchair accessible parking lot": true
        }
      ]
    },
    "gasPrices": [],
    "url": "https://www.google.com/maps/search/?api=1&query=The%20Rising%20English%20Secondary%20School&query_place_id=ChIJf_18-a0a6zkRm_xhM9Xh0i4",
    "searchPageUrl": "https://www.google.com/maps/search/school/@27.67530454090198,85.43009086349416,17z?hl=en",
    "searchString": "school",
    "language": "en",
    "rank": 8,
    "isAdvertisement": false,
    "imageUrl": "https://lh3.googleusercontent.com/gps-cs-s/AG0ilSyfIbcK3a_MHAjNgJHajYz670EUrjobKBkI4-AXvPnZ_0n3YhDRap4ZUfO0mO_aNMk162oNFimLtWCKma1GJRdgziVYRPl4d0kLyGzHiNKmBXbaZ2cwE62oWyRVVdQwQ-i7kC4_AA=w426-h240-k-no",
    "kgmid": "/g/11cr_4bp0s"
  },
  {
    "title": "जेन्युइन माध्यमिक विद्यालय",
    "price": null,
    "categoryName": "Secondary school",
    "address": "Bhaktapur 44800, Nepal",
    "neighborhood": null,
    "street": null,
    "city": "Bhaktapur",
    "postalCode": "44800",
    "state": null,
    "countryCode": "NP",
    "phone": "+977 1-6616053",
    "phoneUnformatted": "+97716616053",
    "claimThisBusiness": false,
    "location": {
      "lat": 27.6770749,
      "lng": 85.4342358
    },
    "permanentlyClosed": false,
    "temporarilyClosed": false,
    "placeId": "ChIJt-AnVLIa6zkRhhZqN-MEzG0",
    "categories": [
      "Secondary school"
    ],
    "fid": "0x39eb1ab25427e0b7:0x6dcc04e3376a1686",
    "cid": "7911704019316905606",
    "reviewsCount": 0,
    "imagesCount": 21,
    "imageCategories": [],
    "scrapedAt": "2025-11-14T08:13:31.794Z",
    "googleFoodUrl": null,
    "hotelAds": [],
    "openingHours": [],
    "peopleAlsoSearch": [],
    "placesTags": [],
    "reviewsTags": [],
    "additionalInfo": {
      "Accessibility": [
        {
          "Wheelchair accessible entrance": true
        },
        {
          "Wheelchair accessible parking lot": true
        }
      ]
    },
    "gasPrices": [],
    "url": "https://www.google.com/maps/search/?api=1&query=%E0%A4%9C%E0%A5%87%E0%A4%A8%E0%A5%8D%E0%A4%AF%E0%A5%81%E0%A4%87%E0%A4%A8%20%E0%A4%AE%E0%A4%BE%E0%A4%A7%E0%A5%8D%E0%A4%AF%E0%A4%AE%E0%A4%BF%E0%A4%95%20%E0%A4%B5%E0%A4%BF%E0%A4%A6%E0%A5%8D%E0%A4%AF%E0%A4%BE%E0%A4%B2%E0%A4%AF&query_place_id=ChIJt-AnVLIa6zkRhhZqN-MEzG0",
    "searchPageUrl": "https://www.google.com/maps/search/school/@27.67530454090198,85.43009086349416,17z?hl=en",
    "searchString": "school",
    "language": "en",
    "rank": 17,
    "isAdvertisement": false,
    "imageUrl": "https://lh3.googleusercontent.com/gps-cs-s/AG0ilSx9y9kn0tHDFtf36qASA2ijyMEHtefiXIdshMdEdCp93TY5iwBQFLec3rPrapUjsmv9hqEJXuj6ldz-M7T9gzjB46hrjy3UMAgJRGAKec1lv5Aoj7wNQ8xxFYAi63vgLAX78ehF7g=w408-h725-k-no",
    "kgmid": "/g/1hd_vgkds"
  },
  {
    "title": "Everest English School",
    "subTitle": "एभरेष्ट अंग्रेजी स्कूल",
    "price": null,
    "categoryName": "Secondary school",
    "address": "Mibachhen-2, Bhaktapur 44800, Nepal",
    "neighborhood": null,
    "street": "Mibachhen-2",
    "city": "Bhaktapur",
    "postalCode": "44800",
    "state": null,
    "countryCode": "NP",
    "website": "http://everestenglishschool.edu.np/",
    "phone": "+977 1-6611211",
    "phoneUnformatted": "+97716611211",
    "claimThisBusiness": false,
    "location": {
      "lat": 27.676376,
      "lng": 85.424749
    },
    "permanentlyClosed": false,
    "temporarilyClosed": false,
    "placeId": "ChIJzXKM5boa6zkROqDC1oE_Mfs",
    "categories": [
      "Secondary school",
      "Preschool",
      "Primary school"
    ],
    "fid": "0x39eb1abae58c72cd:0xfb313f81d6c2a03a",
    "cid": "18100318204265144378",
    "reviewsCount": 0,
    "imagesCount": 214,
    "imageCategories": [],
    "scrapedAt": "2025-11-14T08:13:31.794Z",
    "googleFoodUrl": null,
    "hotelAds": [],
    "openingHours": [
      {
        "day": "Monday",
        "hours": "9 AM to 5 PM"
      },
      {
        "day": "Tuesday",
        "hours": "9 AM to 5 PM"
      },
      {
        "day": "Wednesday",
        "hours": "9 AM to 5 PM"
      },
      {
        "day": "Thursday",
        "hours": "9 AM to 5 PM"
      },
      {
        "day": "Friday",
        "hours": "9 AM to 5 PM"
      },
      {
        "day": "Saturday",
        "hours": "Closed"
      },
      {
        "day": "Sunday",
        "hours": "9 AM to 5 PM"
      }
    ],
    "peopleAlsoSearch": [],
    "placesTags": [],
    "reviewsTags": [],
    "additionalInfo": {
      "Accessibility": [
        {
          "Wheelchair accessible entrance": true
        },
        {
          "Wheelchair accessible parking lot": true
        }
      ]
    },
    "gasPrices": [],
    "url": "https://www.google.com/maps/search/?api=1&query=Everest%20English%20School&query_place_id=ChIJzXKM5boa6zkROqDC1oE_Mfs",
    "searchPageUrl": "https://www.google.com/maps/search/school/@27.67530454090198,85.43009086349416,17z?hl=en",
    "searchString": "school",
    "language": "en",
    "rank": 19,
    "isAdvertisement": false,
    "imageUrl": "https://lh3.googleusercontent.com/p/AF1QipMxzv5tLLTa_B0gcqo9ZoA4cnsQsvJCvzCkCTWT=w408-h272-k-no",
    "kgmid": "/g/1hd_cwylz"
  },
  {
    "title": "Himalaya English Sec.School",
    "subTitle": "हिमालय अंग्रेजी मा.वि. (ब्लक बी)",
    "price": null,
    "categoryName": "Secondary school",
    "address": "Changunarayan Rd, Bhaktapur 44800, Nepal",
    "neighborhood": null,
    "street": "Changunarayan Rd",
    "city": "Bhaktapur",
    "postalCode": "44800",
    "state": null,
    "countryCode": "NP",
    "phone": "+977 1-6611020",
    "phoneUnformatted": "+97716611020",
    "claimThisBusiness": false,
    "location": {
      "lat": 27.6787909,
      "lng": 85.4342171
    },
    "permanentlyClosed": false,
    "temporarilyClosed": false,
    "placeId": "ChIJmVffdbMa6zkRE7ThtWjy0jA",
    "categories": [
      "Secondary school"
    ],
    "fid": "0x39eb1ab375df5799:0x30d2f268b5e1b413",
    "cid": "3518140790471767059",
    "reviewsCount": 0,
    "imagesCount": 5,
    "imageCategories": [],
    "scrapedAt": "2025-11-14T08:13:34.373Z",
    "googleFoodUrl": null,
    "hotelAds": [],
    "openingHours": [
      {
        "day": "Monday",
        "hours": "10 AM to 5 PM"
      },
      {
        "day": "Tuesday",
        "hours": "10 AM to 5 PM"
      },
      {
        "day": "Wednesday",
        "hours": "10 AM to 5 PM"
      },
      {
        "day": "Thursday",
        "hours": "10 AM to 5 PM"
      },
      {
        "day": "Friday",
        "hours": "10 AM to 5 PM"
      },
      {
        "day": "Saturday",
        "hours": "Closed"
      },
      {
        "day": "Sunday",
        "hours": "10 AM to 5 PM"
      }
    ],
    "peopleAlsoSearch": [],
    "placesTags": [],
    "reviewsTags": [],
    "gasPrices": [],
    "url": "https://www.google.com/maps/search/?api=1&query=Himalaya%20English%20Sec.School&query_place_id=ChIJmVffdbMa6zkRE7ThtWjy0jA",
    "searchPageUrl": "https://www.google.com/maps/search/school/@27.67530454090198,85.43009086349416,17z?hl=en",
    "searchString": "school",
    "language": "en",
    "rank": 52,
    "isAdvertisement": false,
    "imageUrl": "https://lh3.googleusercontent.com/p/AF1QipMSgr9m0NNT3SoS1bOHZyKuu_4RuHz42uY3-HLD=w426-h240-k-no",
    "kgmid": "/g/1ptyvlgdt"
  },
  {
    "title": "Gundu English Secondary school",
    "price": null,
    "categoryName": "Secondary school",
    "address": "MC6F+V5J, Suryabinayak 44800, Nepal",
    "neighborhood": "Katunje",
    "street": "MC6F+V5J",
    "city": "Suryabinayak",
    "postalCode": "44800",
    "state": null,
    "countryCode": "NP",
    "claimThisBusiness": true,
    "location": {
      "lat": 27.6622612,
      "lng": 85.4229402
    },
    "permanentlyClosed": false,
    "temporarilyClosed": false,
    "placeId": "ChIJk9-7BAAb6zkR99RT_I3jhKU",
    "categories": [
      "Secondary school"
    ],
    "fid": "0x39eb1b0004bbdf93:0xa584e38dfc53d4f7",
    "cid": "11926907912147162359",
    "reviewsCount": 0,
    "imagesCount": 10,
    "imageCategories": [],
    "scrapedAt": "2025-11-14T08:13:57.486Z",
    "googleFoodUrl": null,
    "hotelAds": [],
    "openingHours": [],
    "peopleAlsoSearch": [],
    "placesTags": [],
    "reviewsTags": [],
    "gasPrices": [],
    "url": "https://www.google.com/maps/search/?api=1&query=Gundu%20English%20Secondary%20school&query_place_id=ChIJk9-7BAAb6zkR99RT_I3jhKU",
    "searchPageUrl": "https://www.google.com/maps/search/school/@27.667695459098024,85.42150000000001,17z?hl=en",
    "searchString": "school",
    "language": "en",
    "rank": 14,
    "isAdvertisement": false,
    "imageUrl": "https://lh3.googleusercontent.com/gps-cs-s/AG0ilSyTNKTHRdcVIqhwJuZ8BXeNwBL_cQQipT8Wetk_GdxB6Y0WgVKg7MuiWzrajMGfHZBFE01E0rs2sg4PPGaG8OkdnxDSA8EHtJpNApAsvnvUnyaT9muutqMP35xxFgRCKN8BfZFtlfqeh1Ei=w408-h306-k-no",
    "kgmid": "/g/11w8vfz0qq"
  },
  {
    "title": "Tara Secondary School",
    "subTitle": "तारा माध्यमिक विद्यालय",
    "price": null,
    "categoryName": "Secondary school",
    "address": "MC9G+GQ8, Rammandir Rd, Bhaktapur 44800, Nepal",
    "neighborhood": null,
    "street": "MC9G+GQ8, Rammandir Rd",
    "city": "Bhaktapur",
    "postalCode": "44800",
    "state": null,
    "countryCode": "NP",
    "phone": "+977 1-6611944",
    "phoneUnformatted": "+97716611944",
    "claimThisBusiness": true,
    "location": {
      "lat": 27.6687839,
      "lng": 85.4269626
    },
    "permanentlyClosed": false,
    "temporarilyClosed": false,
    "placeId": "ChIJcwWy8KUa6zkR93Q3bSYyN9A",
    "categories": [
      "Secondary school"
    ],
    "fid": "0x39eb1aa5f0b20573:0xd03732266d3774f7",
    "cid": "15003515824230593783",
    "reviewsCount": 0,
    "imagesCount": 2,
    "imageCategories": [],
    "scrapedAt": "2025-11-14T08:13:57.486Z",
    "googleFoodUrl": null,
    "hotelAds": [],
    "openingHours": [
      {
        "day": "Monday",
        "hours": "10 AM to 4:30 PM"
      },
      {
        "day": "Tuesday",
        "hours": "10 AM to 4:30 PM"
      },
      {
        "day": "Wednesday",
        "hours": "10 AM to 4:30 PM"
      },
      {
        "day": "Thursday",
        "hours": "10 AM to 4:30 PM"
      },
      {
        "day": "Friday",
        "hours": "10 AM to 4:30 PM"
      },
      {
        "day": "Saturday",
        "hours": "Closed"
      },
      {
        "day": "Sunday",
        "hours": "10 AM to 4:30 PM"
      }
    ],
    "peopleAlsoSearch": [],
    "placesTags": [],
    "reviewsTags": [],
    "gasPrices": [],
    "url": "https://www.google.com/maps/search/?api=1&query=Tara%20Secondary%20School&query_place_id=ChIJcwWy8KUa6zkR93Q3bSYyN9A",
    "searchPageUrl": "https://www.google.com/maps/search/school/@27.667695459098024,85.42150000000001,17z?hl=en",
    "searchString": "school",
    "language": "en",
    "rank": 18,
    "isAdvertisement": false,
    "imageUrl": "https://lh3.googleusercontent.com/gps-proxy/ALd4DhHwvikWl0rg7cgIQZ0SD3jBgrtr_WGW4V4rHc9vyCutgiooi3wKm_p7A0djA6ahK-KzYu5FaE0El0rGoAkVLzKv7ueG7hKmYoIuGfY0NCKcZweUXAmxabFd_n6asiCszPBaxzusRGPl9s24k7r-2gaHDsFkAdL5Mx6VbVB7WPtbBOMblqeWpOCtxY726TSnr1JJzvI=w408-h306-k-no",
    "kgmid": "/g/11b6s3d8sv"
  },
  {
    "title": "Samata Shikshya Niketan, secondary school",
    "price": null,
    "categoryName": "Secondary school",
    "address": "MCHR+F7R, Nagarkot Road, Bhaktapur 44800, Nepal",
    "neighborhood": null,
    "street": "MCHR+F7R, Nagarkot Road",
    "city": "Bhaktapur",
    "postalCode": "44800",
    "state": null,
    "countryCode": "NP",
    "phone": "+977 1-6618327",
    "phoneUnformatted": "+97716618327",
    "claimThisBusiness": true,
    "location": {
      "lat": 27.6787289,
      "lng": 85.4406393
    },
    "permanentlyClosed": false,
    "temporarilyClosed": false,
    "placeId": "ChIJPYP2hJUF6zkRIMPPznrsVm8",
    "categories": [
      "Secondary school"
    ],
    "fid": "0x39eb059584f6833d:0x6f56ec7acecfc320",
    "cid": "8022859798407004960",
    "reviewsCount": 0,
    "imagesCount": 12,
    "imageCategories": [],
    "scrapedAt": "2025-11-14T08:40:37.893Z",
    "googleFoodUrl": null,
    "hotelAds": [],
    "openingHours": [],
    "peopleAlsoSearch": [],
    "placesTags": [],
    "reviewsTags": [],
    "additionalInfo": {
      "Accessibility": [
        {
          "Wheelchair accessible entrance": true
        },
        {
          "Wheelchair accessible parking lot": true
        }
      ]
    },
    "gasPrices": [],
    "url": "https://www.google.com/maps/search/?api=1&query=Samata%20Shikshya%20Niketan%2C%20secondary%20school&query_place_id=ChIJPYP2hJUF6zkRIMPPznrsVm8",
    "searchPageUrl": "https://www.google.com/maps/search/school/@27.689813953235532,85.45446650592592,17z?hl=en",
    "searchString": "school",
    "language": "en",
    "rank": 12,
    "isAdvertisement": false,
    "imageUrl": "https://lh3.googleusercontent.com/gps-cs-s/AG0ilSwEj2ZF7_N30O0z36H-Gp8b8dflJr6EBHClV-H4KC1Abytf6Xfrfx_G5OExwDnR1K2rawuy62057RgscAb5o9aXUEtIawSsiws_erkMh3hW2-Pc_d3lUmFghIofthfCoKpIzChu=w408-h544-k-no",
    "kgmid": "/g/11h71fv0vc"
  },
  {
    "title": "Gundu English Secondary school",
    "price": null,
    "categoryName": "Secondary school",
    "address": "MC6F+V5J, Suryabinayak 44800, Nepal",
    "neighborhood": "Katunje",
    "street": "MC6F+V5J",
    "city": "Suryabinayak",
    "postalCode": "44800",
    "state": null,
    "countryCode": "NP",
    "claimThisBusiness": true,
    "location": {
      "lat": 27.6622612,
      "lng": 85.4229402
    },
    "permanentlyClosed": false,
    "temporarilyClosed": false,
    "placeId": "ChIJk9-7BAAb6zkR99RT_I3jhKU",
    "categories": [
      "Secondary school"
    ],
    "fid": "0x39eb1b0004bbdf93:0xa584e38dfc53d4f7",
    "cid": "11926907912147162359",
    "reviewsCount": 0,
    "imagesCount": 10,
    "imageCategories": [],
    "scrapedAt": "2025-11-14T08:40:48.450Z",
    "googleFoodUrl": null,
    "hotelAds": [],
    "openingHours": [],
    "peopleAlsoSearch": [],
    "placesTags": [],
    "reviewsTags": [],
    "gasPrices": [],
    "url": "https://www.google.com/maps/search/?api=1&query=Gundu%20English%20Secondary%20school&query_place_id=ChIJk9-7BAAb6zkR99RT_I3jhKU",
    "searchPageUrl": "https://www.google.com/maps/search/school/@27.63656511691115,85.43729330118518,17z?hl=en",
    "searchString": "school",
    "language": "en",
    "rank": 9,
    "isAdvertisement": false,
    "imageUrl": "https://lh3.googleusercontent.com/gps-cs-s/AG0ilSyTNKTHRdcVIqhwJuZ8BXeNwBL_cQQipT8Wetk_GdxB6Y0WgVKg7MuiWzrajMGfHZBFE01E0rs2sg4PPGaG8OkdnxDSA8EHtJpNApAsvnvUnyaT9muutqMP35xxFgRCKN8BfZFtlfqeh1Ei=w408-h306-k-no",
    "kgmid": "/g/11w8vfz0qq"
  },
  {
    "title": "Shree Nabin Lower Secondary School",
    "price": null,
    "categoryName": "Secondary school",
    "address": "MCCM+854, Bhaktapur 44800, Nepal",
    "neighborhood": null,
    "street": "MCCM+854",
    "city": "Bhaktapur",
    "postalCode": "44800",
    "state": null,
    "countryCode": "NP",
    "claimThisBusiness": true,
    "location": {
      "lat": 27.6707692,
      "lng": 85.4329436
    },
    "permanentlyClosed": false,
    "temporarilyClosed": false,
    "placeId": "ChIJMQtILKwa6zkR7G8WqBkOV60",
    "categories": [
      "Secondary school"
    ],
    "fid": "0x39eb1aac2c480b31:0xad570e19a8166fec",
    "cid": "12490467594892373996",
    "reviewsCount": 0,
    "imagesCount": 6,
    "imageCategories": [],
    "scrapedAt": "2025-11-14T08:40:56.485Z",
    "googleFoodUrl": null,
    "hotelAds": [],
    "openingHours": [],
    "peopleAlsoSearch": [],
    "placesTags": [],
    "reviewsTags": [],
    "gasPrices": [],
    "url": "https://www.google.com/maps/search/?api=1&query=Shree%20Nabin%20Lower%20Secondary%20School&query_place_id=ChIJMQtILKwa6zkR7G8WqBkOV60",
    "searchPageUrl": "https://www.google.com/maps/search/school/@27.666993023382226,85.4287066988148,17z?hl=en",
    "searchString": "school",
    "language": "en",
    "rank": 7,
    "isAdvertisement": false,
    "imageUrl": "https://lh3.googleusercontent.com/gps-proxy/ALd4DhFH2mA29Df7qur35pNtpVMuEquZA_JxK4588kENh0_T6jkuGWrFEnZxQFr51HcToL79k-hotyJTC05vEyzgYaB7KI8I7PQJB5oXvR2xpWIAg4sJn-DjgUaXzfZETRDof6WzOLYDghO1k3blCmkcMoW7X67kP_3_VVDh0W0ekD_GxSIwBWzmy9lhqHK0N6YdY0m2wzM=w408-h306-k-no",
    "kgmid": "/g/11c750d5bx"
  },
  {
    "title": "Tara Secondary School",
    "subTitle": "तारा माध्यमिक विद्यालय",
    "price": null,
    "categoryName": "Secondary school",
    "address": "MC9G+GQ8, Rammandir Rd, Bhaktapur 44800, Nepal",
    "neighborhood": null,
    "street": "MC9G+GQ8, Rammandir Rd",
    "city": "Bhaktapur",
    "postalCode": "44800",
    "state": null,
    "countryCode": "NP",
    "phone": "+977 1-6611944",
    "phoneUnformatted": "+97716611944",
    "claimThisBusiness": true,
    "location": {
      "lat": 27.6687839,
      "lng": 85.4269626
    },
    "permanentlyClosed": false,
    "temporarilyClosed": false,
    "placeId": "ChIJcwWy8KUa6zkR93Q3bSYyN9A",
    "categories": [
      "Secondary school"
    ],
    "fid": "0x39eb1aa5f0b20573:0xd03732266d3774f7",
    "cid": "15003515824230593783",
    "reviewsCount": 0,
    "imagesCount": 2,
    "imageCategories": [],
    "scrapedAt": "2025-11-14T08:40:56.485Z",
    "googleFoodUrl": null,
    "hotelAds": [],
    "openingHours": [
      {
        "day": "Monday",
        "hours": "10 AM to 4:30 PM"
      },
      {
        "day": "Tuesday",
        "hours": "10 AM to 4:30 PM"
      },
      {
        "day": "Wednesday",
        "hours": "10 AM to 4:30 PM"
      },
      {
        "day": "Thursday",
        "hours": "10 AM to 4:30 PM"
      },
      {
        "day": "Friday",
        "hours": "10 AM to 4:30 PM"
      },
      {
        "day": "Saturday",
        "hours": "Closed"
      },
      {
        "day": "Sunday",
        "hours": "10 AM to 4:30 PM"
      }
    ],
    "peopleAlsoSearch": [],
    "placesTags": [],
    "reviewsTags": [],
    "gasPrices": [],
    "url": "https://www.google.com/maps/search/?api=1&query=Tara%20Secondary%20School&query_place_id=ChIJcwWy8KUa6zkR93Q3bSYyN9A",
    "searchPageUrl": "https://www.google.com/maps/search/school/@27.666993023382226,85.4287066988148,17z?hl=en",
    "searchString": "school",
    "language": "en",
    "rank": 8,
    "isAdvertisement": false,
    "imageUrl": "https://lh3.googleusercontent.com/gps-proxy/ALd4DhHwvikWl0rg7cgIQZ0SD3jBgrtr_WGW4V4rHc9vyCutgiooi3wKm_p7A0djA6ahK-KzYu5FaE0El0rGoAkVLzKv7ueG7hKmYoIuGfY0NCKcZweUXAmxabFd_n6asiCszPBaxzusRGPl9s24k7r-2gaHDsFkAdL5Mx6VbVB7WPtbBOMblqeWpOCtxY726TSnr1JJzvI=w408-h306-k-no",
    "kgmid": "/g/11b6s3d8sv"
  },
  {
    "title": "Samaj Sudhar Secondary School",
    "price": null,
    "categoryName": "Secondary school",
    "address": "MCCP+FWG, Bhaktapur 44800, Nepal",
    "neighborhood": null,
    "street": "MCCP+FWG",
    "city": "Bhaktapur",
    "postalCode": "44800",
    "state": null,
    "countryCode": "NP",
    "phone": "+977 1-6610811",
    "phoneUnformatted": "+97716610811",
    "claimThisBusiness": true,
    "location": {
      "lat": 27.6711793,
      "lng": 85.4373386
    },
    "permanentlyClosed": false,
    "temporarilyClosed": false,
    "placeId": "ChIJd86Y1awa6zkRNNrRwd9_rgo",
    "categories": [
      "Secondary school"
    ],
    "fid": "0x39eb1aacd598ce77:0xaae7fdfc1d1da34",
    "cid": "769693185333123636",
    "reviewsCount": 0,
    "imagesCount": 13,
    "imageCategories": [],
    "scrapedAt": "2025-11-14T08:41:08.394Z",
    "googleFoodUrl": null,
    "hotelAds": [],
    "openingHours": [
      {
        "day": "Monday",
        "hours": "9 AM to 5 AM"
      },
      {
        "day": "Tuesday",
        "hours": "9 AM to 5 AM"
      },
      {
        "day": "Wednesday",
        "hours": "9 AM to 5 AM"
      },
      {
        "day": "Thursday",
        "hours": "9 AM to 5 AM"
      },
      {
        "day": "Friday",
        "hours": "9 AM to 5 AM"
      },
      {
        "day": "Saturday",
        "hours": "Closed"
      },
      {
        "day": "Sunday",
        "hours": "9 AM to 5 AM"
      }
    ],
    "peopleAlsoSearch": [],
    "placesTags": [],
    "reviewsTags": [],
    "gasPrices": [],
    "url": "https://www.google.com/maps/search/?api=1&query=Samaj%20Sudhar%20Secondary%20School&query_place_id=ChIJd86Y1awa6zkRNNrRwd9_rgo",
    "searchPageUrl": "https://www.google.com/maps/search/school/@27.666993023382226,85.45446650592592,17z?hl=en",
    "searchString": "school",
    "language": "en",
    "rank": 17,
    "isAdvertisement": false,
    "imageUrl": "https://lh3.googleusercontent.com/gps-cs-s/AG0ilSy7hLr9yZsDhr9Ri-aWloXZy_gyPjts73eDry8yWR0iREf6C8_CMAmPOP4slr2qsKwJyOsu8VXo35vJzLYsTI6Kyj-4AvLsJtEraD1J7hThe9TYJcFRCR41OyiUffp5dZo8sv0RdQ=w408-h272-k-no",
    "kgmid": "/g/11ggr4sxxj"
  },
  {
    "title": "Golden Sungava Secondary School",
    "price": null,
    "categoryName": "Secondary school",
    "address": "MCJ6+J6W, TathastuNagar Road, Changunarayan 44800, Nepal",
    "neighborhood": "Duwakot",
    "street": "MCJ6+J6W, TathastuNagar Road",
    "city": "Changunarayan",
    "postalCode": "44800",
    "state": null,
    "countryCode": "NP",
    "website": "http://goldensungavaschool.edu.np/",
    "phone": "+977 1-6614896",
    "phoneUnformatted": "+97716614896",
    "claimThisBusiness": true,
    "location": {
      "lat": 27.6816128,
      "lng": 85.410592
    },
    "permanentlyClosed": false,
    "temporarilyClosed": false,
    "placeId": "ChIJwSynmZMa6zkR2lgPLsjRies",
    "categories": [
      "Secondary school"
    ],
    "fid": "0x39eb1a9399a72cc1:0xeb89d1c82e0f58da",
    "cid": "16972327328418846938",
    "reviewsCount": 0,
    "imagesCount": 3,
    "imageCategories": [],
    "scrapedAt": "2025-11-14T08:41:15.283Z",
    "googleFoodUrl": null,
    "hotelAds": [],
    "openingHours": [
      {
        "day": "Monday",
        "hours": "10 AM to 4 PM"
      },
      {
        "day": "Tuesday",
        "hours": "10 AM to 4 PM"
      },
      {
        "day": "Wednesday",
        "hours": "10 AM to 4 PM"
      },
      {
        "day": "Thursday",
        "hours": "10 AM to 4 PM"
      },
      {
        "day": "Friday",
        "hours": "10 AM to 4 PM"
      },
      {
        "day": "Saturday",
        "hours": "Closed"
      },
      {
        "day": "Sunday",
        "hours": "10 AM to 4 PM"
      }
    ],
    "peopleAlsoSearch": [],
    "placesTags": [],
    "reviewsTags": [],
    "additionalInfo": {
      "Accessibility": [
        {
          "Wheelchair accessible entrance": true
        },
        {
          "Wheelchair accessible parking lot": true
        }
      ]
    },
    "gasPrices": [],
    "url": "https://www.google.com/maps/search/?api=1&query=Golden%20Sungava%20Secondary%20School&query_place_id=ChIJwSynmZMa6zkR2lgPLsjRies",
    "searchPageUrl": "https://www.google.com/maps/search/school/@27.71263488308884,85.43729330118518,17z?hl=en",
    "searchString": "school",
    "language": "en",
    "rank": 12,
    "isAdvertisement": false,
    "imageUrl": "https://lh3.googleusercontent.com/gps-cs-s/AG0ilSw08D7swPCZYhXH-YxJVGXSNRi65DQt9pq4oCwX_6xNjDCZc7EpFEtakFNu1oOULeK6mmdCfIZnY_CtoEGiG-VPBaZA_pfzubDKkHmlviv9kS0080exFISzCW_d49AWZssdVcjM=w408-h306-k-no",
    "kgmid": "/g/11bzxy4_tw"
  },
  {
    "title": "Shree Bal Chetan Lower Secondary School",
    "price": null,
    "categoryName": "Secondary school",
    "address": "JCW4+HJ5, F099, Anantalingeshwar, Nepal",
    "neighborhood": "Gundu",
    "street": "JCW4+HJ5, F099",
    "city": "Anantalingeshwar",
    "postalCode": null,
    "state": null,
    "countryCode": "NP",
    "claimThisBusiness": true,
    "location": {
      "lat": 27.6463911,
      "lng": 85.4066234
    },
    "permanentlyClosed": false,
    "temporarilyClosed": false,
    "placeId": "ChIJWSwwfG8Q6zkR_D6uYohjqWA",
    "categories": [
      "Secondary school"
    ],
    "fid": "0x39eb106f7c302c59:0x60a9638862ae3efc",
    "cid": "6965207736127471356",
    "reviewsCount": 0,
    "imagesCount": 1,
    "imageCategories": [],
    "scrapedAt": "2025-11-14T08:41:32.808Z",
    "googleFoodUrl": null,
    "hotelAds": [],
    "openingHours": [],
    "peopleAlsoSearch": [],
    "placesTags": [],
    "reviewsTags": [],
    "gasPrices": [],
    "url": "https://www.google.com/maps/search/?api=1&query=Shree%20Bal%20Chetan%20Lower%20Secondary%20School&query_place_id=ChIJWSwwfG8Q6zkR_D6uYohjqWA",
    "searchPageUrl": "https://www.google.com/maps/search/school/@27.651779070146688,85.40294689170369,17z?hl=en",
    "searchString": "school",
    "language": "en",
    "rank": 3,
    "isAdvertisement": false,
    "imageUrl": "https://streetviewpixels-pa.googleapis.com/v1/thumbnail?panoid=Fo53Xi6AtuP3uPG60NYnBQ&cb_client=search.gws-prod.gps&w=408&h=240&yaw=334.64334&pitch=0&thumbfov=100",
    "kgmid": "/g/11c6qr37lp"
  },
  {
    "title": "Jyoti Gyan Academy secondary school",
    "price": null,
    "categoryName": "Secondary school",
    "address": "Suryabinayak 44800, Nepal",
    "neighborhood": "Sipadol",
    "street": null,
    "city": "Suryabinayak",
    "postalCode": null,
    "state": null,
    "countryCode": "NP",
    "phone": "+977 1-5090832",
    "phoneUnformatted": "+97715090832",
    "claimThisBusiness": false,
    "location": {
      "lat": 27.660325,
      "lng": 85.4260357
    },
    "permanentlyClosed": false,
    "temporarilyClosed": false,
    "placeId": "ChIJX9bodagP6zkRUe0LY0dsIZk",
    "categories": [
      "Secondary school"
    ],
    "fid": "0x39eb0fa875e8d65f:0x99216c47630bed51",
    "cid": "11034219615894629713",
    "reviewsCount": 0,
    "imagesCount": 15,
    "imageCategories": [],
    "scrapedAt": "2025-11-14T08:41:36.374Z",
    "googleFoodUrl": null,
    "hotelAds": [],
    "openingHours": [
      {
        "day": "Monday",
        "hours": "8:30 AM to 5 PM"
      },
      {
        "day": "Tuesday",
        "hours": "8:30 AM to 5 PM"
      },
      {
        "day": "Wednesday",
        "hours": "8:30 AM to 5 PM"
      },
      {
        "day": "Thursday",
        "hours": "8:30 AM to 5 PM"
      },
      {
        "day": "Friday",
        "hours": "8:30 AM to 5 PM"
      },
      {
        "day": "Saturday",
        "hours": "Closed"
      },
      {
        "day": "Sunday",
        "hours": "8:30 AM to 5 PM"
      }
    ],
    "peopleAlsoSearch": [],
    "placesTags": [],
    "reviewsTags": [],
    "gasPrices": [],
    "url": "https://www.google.com/maps/search/?api=1&query=Jyoti%20Gyan%20Academy%20secondary%20school&query_place_id=ChIJX9bodagP6zkRUe0LY0dsIZk",
    "searchPageUrl": "https://www.google.com/maps/search/school/@27.659386046764457,85.42012009644444,17z?hl=en",
    "searchString": "school",
    "language": "en",
    "rank": 6,
    "isAdvertisement": false,
    "imageUrl": "https://lh3.googleusercontent.com/gps-cs-s/AG0ilSzaAl8x-5pbTCN56QdWmxqLw-TYnpBS9qhTy0StPH5lKx2l0RHZqU9JpqWUlaaoUkuOVYVE7s8CrflWN1K2ZBgyBto5-a0kjgFxX7YM6UiDUCtYSAfJrxcw0BI97b4utVkZehFtNncz9GV3=w408-h306-k-no",
    "kgmid": "/g/11fr7w5_pr"
  },
  {
    "title": "Mount Everest School",
    "subTitle": "माउन्ट एभरेस्ट विद्यालय",
    "price": null,
    "categoryName": "Secondary school",
    "address": "MC5F+HW3, Suryabinayak 44800, Nepal",
    "neighborhood": "Sipadol",
    "street": "MC5F+HW3",
    "city": "Suryabinayak",
    "postalCode": "44800",
    "state": null,
    "countryCode": "NP",
    "phone": "+977 1-5092757",
    "phoneUnformatted": "+97715092757",
    "claimThisBusiness": true,
    "location": {
      "lat": 27.6588812,
      "lng": 85.4248061
    },
    "permanentlyClosed": false,
    "temporarilyClosed": false,
    "placeId": "ChIJiYlO_ggQ6zkRQ7PDJCwVxt0",
    "categories": [
      "Secondary school"
    ],
    "fid": "0x39eb1008fe4e8989:0xddc6152c24c3b343",
    "cid": "15980483607110333251",
    "reviewsCount": 0,
    "imagesCount": 40,
    "imageCategories": [],
    "scrapedAt": "2025-11-14T08:41:36.374Z",
    "googleFoodUrl": null,
    "hotelAds": [],
    "openingHours": [],
    "peopleAlsoSearch": [],
    "placesTags": [],
    "reviewsTags": [],
    "additionalInfo": {
      "Accessibility": [
        {
          "Wheelchair accessible entrance": true
        },
        {
          "Wheelchair accessible parking lot": true
        }
      ]
    },
    "gasPrices": [],
    "url": "https://www.google.com/maps/search/?api=1&query=Mount%20Everest%20School&query_place_id=ChIJiYlO_ggQ6zkRQ7PDJCwVxt0",
    "searchPageUrl": "https://www.google.com/maps/search/school/@27.659386046764457,85.42012009644444,17z?hl=en",
    "searchString": "school",
    "language": "en",
    "rank": 8,
    "isAdvertisement": false,
    "imageUrl": "https://lh3.googleusercontent.com/gps-cs-s/AG0ilSwh7PmGRny7KoDCMcoglxgwShm4Bx0cBR3X65lHHQKOVMqSZgxg0b_VtXxCDMQmXWwG71umLXbxXrCX7dKw0F1uYIb0Wm0RncvepiKkiHKy9XHsoOGjNGwrpv4KcWJ7dHJvYuhw=w408-h306-k-no",
    "kgmid": "/g/11c59xg39k"
  },
  {
    "title": "Unique International Academy Secondary School",
    "price": null,
    "categoryName": "Secondary school",
    "address": "MC93+844, Suryabinayak, Nepal",
    "neighborhood": "Katunje",
    "street": "MC93+844",
    "city": "Suryabinayak",
    "postalCode": null,
    "state": null,
    "countryCode": "NP",
    "phone": "+977 1-6616688",
    "phoneUnformatted": "+97716616688",
    "claimThisBusiness": true,
    "location": {
      "lat": 27.6682648,
      "lng": 85.402823
    },
    "permanentlyClosed": false,
    "temporarilyClosed": false,
    "placeId": "ChIJh1qD66gb6zkRV_sv_7vBdY4",
    "categories": [
      "Secondary school"
    ],
    "fid": "0x39eb1ba8eb835a87:0x8e75c1bbff2ffb57",
    "cid": "10265323938845293399",
    "reviewsCount": 0,
    "imagesCount": 15,
    "imageCategories": [],
    "scrapedAt": "2025-11-14T08:42:13.840Z",
    "googleFoodUrl": null,
    "hotelAds": [],
    "openingHours": [
      {
        "day": "Monday",
        "hours": "10 AM to 4 PM"
      },
      {
        "day": "Tuesday",
        "hours": "10 AM to 4 PM"
      },
      {
        "day": "Wednesday",
        "hours": "10 AM to 4 PM"
      },
      {
        "day": "Thursday",
        "hours": "10 AM to 4 PM"
      },
      {
        "day": "Friday",
        "hours": "Closed"
      },
      {
        "day": "Saturday",
        "hours": "10 AM to 4 PM"
      },
      {
        "day": "Sunday",
        "hours": "10 AM to 4 PM"
      }
    ],
    "peopleAlsoSearch": [],
    "placesTags": [],
    "reviewsTags": [],
    "additionalInfo": {
      "Accessibility": [
        {
          "Wheelchair accessible entrance": true
        },
        {
          "Wheelchair accessible parking lot": true
        }
      ]
    },
    "gasPrices": [],
    "url": "https://www.google.com/maps/search/?api=1&query=Unique%20International%20Academy%20Secondary%20School&query_place_id=ChIJh1qD66gb6zkRV_sv_7vBdY4",
    "searchPageUrl": "https://www.google.com/maps/search/school/@27.666993023382226,85.40294689170369,17z?hl=en",
    "searchString": "school",
    "language": "en",
    "rank": 7,
    "isAdvertisement": false,
    "imageUrl": "https://lh3.googleusercontent.com/gps-cs-s/AG0ilSwu02PV023KJWkTnXw1FEnySJWAMi2EuMDiudgB2zx68fzWVOst5o-zIW3Plwene1HBJuv7jKl0CdBnz6xUgSuI--S6EibNSg2rzHCB08-FVBQNllNwhJqd-Dbjwtmk2yop5wrO=w408-h306-k-no",
    "kgmid": "/g/11hyn3zgc_"
  },
  {
    "title": "EuroKids Srijananagar & Euro School Katunje Bhaktapur",
    "subTitle": "युरो किड्स स्कुल, भक्तपुर",
    "price": null,
    "categoryName": "Secondary school",
    "address": "Araniko Highway, Suryabinayak, Nepal",
    "neighborhood": "Katunje",
    "street": "Araniko Highway",
    "city": "Suryabinayak",
    "postalCode": null,
    "state": null,
    "countryCode": "NP",
    "phone": "+977 974-9357409",
    "phoneUnformatted": "+9779749357409",
    "claimThisBusiness": false,
    "location": {
      "lat": 27.6732128,
      "lng": 85.400941
    },
    "permanentlyClosed": false,
    "temporarilyClosed": false,
    "placeId": "ChIJr9WWqIga6zkRo_8Qa1l0WPQ",
    "categories": [
      "Secondary school"
    ],
    "fid": "0x39eb1a88a896d5af:0xf45874596b10ffa3",
    "cid": "17606950670602141603",
    "reviewsCount": 0,
    "imagesCount": 280,
    "imageCategories": [],
    "scrapedAt": "2025-11-14T08:42:13.840Z",
    "googleFoodUrl": null,
    "hotelAds": [],
    "openingHours": [
      {
        "day": "Monday",
        "hours": "8:30 AM to 5:30 PM"
      },
      {
        "day": "Tuesday",
        "hours": "8:30 AM to 5:30 PM"
      },
      {
        "day": "Wednesday",
        "hours": "8:30 AM to 5:30 PM"
      },
      {
        "day": "Thursday",
        "hours": "8:30 AM to 5:30 PM"
      },
      {
        "day": "Friday",
        "hours": "8:30 AM to 5:30 PM"
      },
      {
        "day": "Saturday",
        "hours": "Closed"
      },
      {
        "day": "Sunday",
        "hours": "8:30 AM to 5:30 PM"
      }
    ],
    "peopleAlsoSearch": [],
    "placesTags": [],
    "reviewsTags": [],
    "gasPrices": [],
    "url": "https://www.google.com/maps/search/?api=1&query=EuroKids%20Srijananagar%20%26%20Euro%20School%20Katunje%20Bhaktapur&query_place_id=ChIJr9WWqIga6zkRo_8Qa1l0WPQ",
    "searchPageUrl": "https://www.google.com/maps/search/school/@27.666993023382226,85.40294689170369,17z?hl=en",
    "searchString": "school",
    "language": "en",
    "rank": 16,
    "isAdvertisement": false,
    "imageUrl": "https://lh3.googleusercontent.com/p/AF1QipPSQ0VyBptCF1juw2pQu7iQE38sE0qRAfD41zDq=w408-h306-k-no",
    "kgmid": "/g/11cnc0k6dz"
  },
  {
    "title": "Everest English School",
    "subTitle": "एभरेष्ट अंग्रेजी स्कूल",
    "price": null,
    "categoryName": "Secondary school",
    "address": "Mibachhen-2, Bhaktapur 44800, Nepal",
    "neighborhood": null,
    "street": "Mibachhen-2",
    "city": "Bhaktapur",
    "postalCode": "44800",
    "state": null,
    "countryCode": "NP",
    "website": "http://everestenglishschool.edu.np/",
    "phone": "+977 1-6611211",
    "phoneUnformatted": "+97716611211",
    "claimThisBusiness": false,
    "location": {
      "lat": 27.676376,
      "lng": 85.424749
    },
    "permanentlyClosed": false,
    "temporarilyClosed": false,
    "placeId": "ChIJzXKM5boa6zkROqDC1oE_Mfs",
    "categories": [
      "Secondary school",
      "Preschool",
      "Primary school"
    ],
    "fid": "0x39eb1abae58c72cd:0xfb313f81d6c2a03a",
    "cid": "18100318204265144378",
    "reviewsCount": 0,
    "imagesCount": 214,
    "imageCategories": [],
    "scrapedAt": "2025-11-14T08:42:38.061Z",
    "googleFoodUrl": null,
    "hotelAds": [],
    "openingHours": [
      {
        "day": "Monday",
        "hours": "9 AM to 5 PM"
      },
      {
        "day": "Tuesday",
        "hours": "9 AM to 5 PM"
      },
      {
        "day": "Wednesday",
        "hours": "9 AM to 5 PM"
      },
      {
        "day": "Thursday",
        "hours": "9 AM to 5 PM"
      },
      {
        "day": "Friday",
        "hours": "9 AM to 5 PM"
      },
      {
        "day": "Saturday",
        "hours": "Closed"
      },
      {
        "day": "Sunday",
        "hours": "9 AM to 5 PM"
      }
    ],
    "peopleAlsoSearch": [],
    "placesTags": [],
    "reviewsTags": [],
    "additionalInfo": {
      "Accessibility": [
        {
          "Wheelchair accessible entrance": true
        },
        {
          "Wheelchair accessible parking lot": true
        }
      ]
    },
    "gasPrices": [],
    "url": "https://www.google.com/maps/search/?api=1&query=Everest%20English%20School&query_place_id=ChIJzXKM5boa6zkROqDC1oE_Mfs",
    "searchPageUrl": "https://www.google.com/maps/search/school/@27.689813953235532,85.42012009644444,17z?hl=en",
    "searchString": "school",
    "language": "en",
    "rank": 20,
    "isAdvertisement": false,
    "imageUrl": "https://lh3.googleusercontent.com/p/AF1QipMxzv5tLLTa_B0gcqo9ZoA4cnsQsvJCvzCkCTWT=w408-h272-k-no",
    "kgmid": "/g/1hd_cwylz"
  },
  {
    "title": "The Rising English Secondary School",
    "price": null,
    "categoryName": "Secondary school",
    "address": "MCFM+84H, Yachhen-Thalachhen Rd, Bhaktapur 44800, Nepal",
    "neighborhood": null,
    "street": "MCFM+84H, Yachhen-Thalachhen Rd",
    "city": "Bhaktapur",
    "postalCode": "44800",
    "state": null,
    "countryCode": "NP",
    "phone": "+977 1-6613606",
    "phoneUnformatted": "+97716613606",
    "claimThisBusiness": true,
    "location": {
      "lat": 27.6733111,
      "lng": 85.4328498
    },
    "permanentlyClosed": false,
    "temporarilyClosed": false,
    "placeId": "ChIJf_18-a0a6zkRm_xhM9Xh0i4",
    "categories": [
      "Secondary school"
    ],
    "fid": "0x39eb1aadf97cfd7f:0x2ed2e1d53361fc9b",
    "cid": "3374007376660266139",
    "reviewsCount": 0,
    "imagesCount": 3,
    "imageCategories": [],
    "scrapedAt": "2025-11-14T08:42:58.390Z",
    "googleFoodUrl": null,
    "hotelAds": [],
    "openingHours": [
      {
        "day": "Monday",
        "hours": "9 AM to 5 PM"
      },
      {
        "day": "Tuesday",
        "hours": "9 AM to 5 PM"
      },
      {
        "day": "Wednesday",
        "hours": "9 AM to 5 PM"
      },
      {
        "day": "Thursday",
        "hours": "9 AM to 5 PM"
      },
      {
        "day": "Friday",
        "hours": "9 AM to 5 PM"
      },
      {
        "day": "Saturday",
        "hours": "Closed"
      },
      {
        "day": "Sunday",
        "hours": "9 AM to 5 PM"
      }
    ],
    "peopleAlsoSearch": [],
    "placesTags": [],
    "reviewsTags": [],
    "additionalInfo": {
      "Accessibility": [
        {
          "Wheelchair accessible entrance": true
        },
        {
          "Wheelchair accessible parking lot": true
        }
      ]
    },
    "gasPrices": [],
    "url": "https://www.google.com/maps/search/?api=1&query=The%20Rising%20English%20Secondary%20School&query_place_id=ChIJf_18-a0a6zkRm_xhM9Xh0i4",
    "searchPageUrl": "https://www.google.com/maps/search/school/@27.674599999999995,85.43729330118518,17z?hl=en",
    "searchString": "school",
    "language": "en",
    "rank": 6,
    "isAdvertisement": false,
    "imageUrl": "https://lh3.googleusercontent.com/gps-cs-s/AG0ilSyfIbcK3a_MHAjNgJHajYz670EUrjobKBkI4-AXvPnZ_0n3YhDRap4ZUfO0mO_aNMk162oNFimLtWCKma1GJRdgziVYRPl4d0kLyGzHiNKmBXbaZ2cwE62oWyRVVdQwQ-i7kC4_AA=w426-h240-k-no",
    "kgmid": "/g/11cr_4bp0s"
  },
  {
    "title": "जेन्युइन माध्यमिक विद्यालय",
    "price": null,
    "categoryName": "Secondary school",
    "address": "Bhaktapur 44800, Nepal",
    "neighborhood": null,
    "street": null,
    "city": "Bhaktapur",
    "postalCode": "44800",
    "state": null,
    "countryCode": "NP",
    "phone": "+977 1-6616053",
    "phoneUnformatted": "+97716616053",
    "claimThisBusiness": false,
    "location": {
      "lat": 27.6770749,
      "lng": 85.4342358
    },
    "permanentlyClosed": false,
    "temporarilyClosed": false,
    "placeId": "ChIJt-AnVLIa6zkRhhZqN-MEzG0",
    "categories": [
      "Secondary school"
    ],
    "fid": "0x39eb1ab25427e0b7:0x6dcc04e3376a1686",
    "cid": "7911704019316905606",
    "reviewsCount": 0,
    "imagesCount": 21,
    "imageCategories": [],
    "scrapedAt": "2025-11-14T08:42:58.391Z",
    "googleFoodUrl": null,
    "hotelAds": [],
    "openingHours": [],
    "peopleAlsoSearch": [],
    "placesTags": [],
    "reviewsTags": [],
    "additionalInfo": {
      "Accessibility": [
        {
          "Wheelchair accessible entrance": true
        },
        {
          "Wheelchair accessible parking lot": true
        }
      ]
    },
    "gasPrices": [],
    "url": "https://www.google.com/maps/search/?api=1&query=%E0%A4%9C%E0%A5%87%E0%A4%A8%E0%A5%8D%E0%A4%AF%E0%A5%81%E0%A4%87%E0%A4%A8%20%E0%A4%AE%E0%A4%BE%E0%A4%A7%E0%A5%8D%E0%A4%AF%E0%A4%AE%E0%A4%BF%E0%A4%95%20%E0%A4%B5%E0%A4%BF%E0%A4%A6%E0%A5%8D%E0%A4%AF%E0%A4%BE%E0%A4%B2%E0%A4%AF&query_place_id=ChIJt-AnVLIa6zkRhhZqN-MEzG0",
    "searchPageUrl": "https://www.google.com/maps/search/school/@27.674599999999995,85.43729330118518,17z?hl=en",
    "searchString": "school",
    "language": "en",
    "rank": 14,
    "isAdvertisement": false,
    "imageUrl": "https://lh3.googleusercontent.com/gps-cs-s/AG0ilSx9y9kn0tHDFtf36qASA2ijyMEHtefiXIdshMdEdCp93TY5iwBQFLec3rPrapUjsmv9hqEJXuj6ldz-M7T9gzjB46hrjy3UMAgJRGAKec1lv5Aoj7wNQ8xxFYAi63vgLAX78ehF7g=w408-h725-k-no",
    "kgmid": "/g/1hd_vgkds"
  }
]