[
  {
    "title": "Destiny Tuition Centre",
    "subTitle": "भाग्य शिक्षण केन्द्र",
    "price": null,
    "categoryName": "Special education school",
    "address": "MCCJ+QGX, Nagarkot Rd, Bhaktapur 44800, Nepal",
    "neighborhood": null,
    "street": "MCCJ+QGX, Nagarkot Rd",
    "city": "Bhaktapur",
    "postalCode": "44800",
    "state": null,
    "countryCode": "NP",
    "phone": "+977 981-8752166",
    "phoneUnformatted": "+9779818752166",
    "claimThisBusiness": true,
    "location": {
      "lat": 27.671988,
      "lng": 85.4313619
    },
    "permanentlyClosed": false,
    "temporarilyClosed": false,
    "placeId": "ChIJU4Agaa4a6zkRQFXzzHN9KdU",
    "categories": [
      "Special education school"
    ],
    "fid": "0x39eb1aae69208053:0xd5297d73ccf35540",
    "cid": "15359945940436997440",
    "reviewsCount": 0,
    "imagesCount": 3,
    "imageCategories": [],
    "scrapedAt": "2025-11-14T08:13:35.777Z",
    "googleFoodUrl": null,
    "hotelAds": [],
    "openingHours": [],
    "peopleAlsoSearch": [],
    "placesTags": [],
    "reviewsTags": [],
    "gasPrices": [],
    "url": "https://www.google.com/maps/search/?api=1&query=Destiny%20Tuition%20Centre&query_place_id=ChIJU4Agaa4a6zkRQFXzzHN9KdU",
    "searchPageUrl": "https://www.google.com/maps/search/school/@27.67530454090198,85.43009086349416,17z?hl=en",
    "searchString": "school",
    "language": "en",
    "rank": 62,
    "isAdvertisement": false,
    "imageUrl": "https://lh3.googleusercontent.com/gps-proxy/ALd4DhFsS7f2Q3J232Iap5w0qGnxWNpaiwmG6VNO6g0tIiwhadTD9KLWHvVvLHnawXhBzAtzSK6Nw1CLSBJgAUDWHA2sAWUbOtl0u35QUAuxkaz6zF5_M1q30WTyApl4f8kznqWWQCgB91hqGbmM_q5k-d7CXaMbLXFVPDICVb78lpgOEdu6yRAZtdDKHT6B5NWIMtTn68g=w408-h306-k-no",
    "kgmid": "/g/11b6r_dthj"
  },
  {
    "title": "Satprayas Special Needs School Nepal",
    "price": null,
    "categoryName": "Special education school",
    "address": "MC9J+4W7, Bhimsenthan-5, Bhaktapur 44800, Nepal",
    "neighborhood": null,
    "street": "MC9J+4W7, Bhimsenthan-5",
    "city": "Bhaktapur",
    "postalCode": "44800",
    "state": null,
    "countryCode": "NP",
    "website": "https://satprayash.org.np/",
    "claimThisBusiness": true,
    "location": {
      "lat": 27.6677801,
      "lng": 85.4323108
    },
    "permanentlyClosed": false,
    "temporarilyClosed": false,
    "placeId": "ChIJj_vofgAb6zkR5-Wp_-TeONE",
    "categories": [
      "Special education school"
    ],
    "fid": "0x39eb1b007ee8fb8f:0xd138dee4ffa9e5e7",
    "cid": "15076044827745969639",
    "reviewsCount": 0,
    "imagesCount": 17,
    "imageCategories": [],
    "scrapedAt": "2025-11-14T08:40:59.377Z",
    "googleFoodUrl": null,
    "hotelAds": [],
    "openingHours": [
      {
        "day": "Monday",
        "hours": "10 AM to 4 PM"
      },
      {
        "day": "Tuesday",
        "hours": "10 AM to 4 PM"
      },
      {
        "day": "Wednesday",
        "hours": "10 AM to 4 PM"
      },
      {
        "day": "Thursday",
        "hours": "10 AM to 4 PM"
      },
      {
        "day": "Friday",
        "hours": "10 AM to 4 PM"
      },
      {
        "day": "Saturday",
        "hours": "Closed"
      },
      {
        "day": "Sunday",
        "hours": "10 AM to 4 PM"
      }
    ],
    "peopleAlsoSearch": [],
    "placesTags": [],
    "reviewsTags": [],
    "gasPrices": [],
    "url": "https://www.google.com/maps/search/?api=1&query=Satprayas%20Special%20Needs%20School%20Nepal&query_place_id=ChIJj_vofgAb6zkR5-Wp_-TeONE",
    "searchPageUrl": "https://www.google.com/maps/search/school/@27.666993023382226,85.4287066988148,17z?hl=en",
    "searchString": "school",
    "language": "en",
    "rank": 62,
    "isAdvertisement": false,
    "imageUrl": "https://lh3.googleusercontent.com/gps-cs-s/AG0ilSxYGHAo5DtybWAaj04Dk5H8MJjOGXlvzWrFqmcY0eVDAllc4WYqhALlUz3mBAa1wuqw0qw6AysrPcG36oDYhfPxT8yr9C-07ktX-vhsDrQQ5fIaDe9bGhmJJKiq29lhnV3KlCVl=w408-h324-k-no",
    "kgmid": "/g/11w2wds9nq"
  },
  {
    "title": "Saras Pathshala School Bhaktapur",
    "price": null,
    "categoryName": "Special education school",
    "address": "Bhatedhukur 44800, Nepal",
    "neighborhood": "Nangkhel",
    "street": null,
    "city": "Bhatedhukur",
    "postalCode": "44800",
    "state": null,
    "countryCode": "NP",
    "phone": "+977 1-6613022",
    "phoneUnformatted": "+97716613022",
    "claimThisBusiness": false,
    "location": {
      "lat": 27.6634478,
      "lng": 85.4430159
    },
    "permanentlyClosed": false,
    "temporarilyClosed": false,
    "placeId": "ChIJ6wK-HKkF6zkRYNWqUN0wT9A",
    "categories": [
      "Special education school"
    ],
    "fid": "0x39eb05a91cbe02eb:0xd04f30dd50aad560",
    "cid": "15010269810148431200",
    "reviewsCount": 0,
    "imagesCount": 29,
    "imageCategories": [],
    "scrapedAt": "2025-11-14T08:41:08.395Z",
    "googleFoodUrl": null,
    "hotelAds": [],
    "openingHours": [
      {
        "day": "Monday",
        "hours": "9:30 AM to 4 PM"
      },
      {
        "day": "Tuesday",
        "hours": "9:30 AM to 4 PM"
      },
      {
        "day": "Wednesday",
        "hours": "9:30 AM to 4 PM"
      },
      {
        "day": "Thursday",
        "hours": "9:30 AM to 4 PM"
      },
      {
        "day": "Friday",
        "hours": "9:30 AM to 12:30 PM"
      },
      {
        "day": "Saturday",
        "hours": "Closed"
      },
      {
        "day": "Sunday",
        "hours": "9:30 AM to 4 PM"
      }
    ],
    "peopleAlsoSearch": [],
    "placesTags": [],
    "reviewsTags": [],
    "gasPrices": [],
    "url": "https://www.google.com/maps/search/?api=1&query=Saras%20Pathshala%20School%20Bhaktapur&query_place_id=ChIJ6wK-HKkF6zkRYNWqUN0wT9A",
    "searchPageUrl": "https://www.google.com/maps/search/school/@27.666993023382226,85.45446650592592,17z?hl=en",
    "searchString": "school",
    "language": "en",
    "rank": 20,
    "isAdvertisement": false,
    "imageUrl": "https://lh3.googleusercontent.com/gps-cs-s/AG0ilSwfzPL5qNK3b5wCdP-NMNEMN_b3TqUf25gTomyCmB1LEytqnH92RDxF139hpeDi3MbRMYnq2T6Fxu121XpVtpIgBEEDlIyAavK3S97UlpqNVTCOjdzCmP3wZpl8_FYpWp2QGj3G=w426-h240-k-no",
    "kgmid": "/g/11j9d0mlhs"
  },
  {
    "title": "Destiny Tuition Centre",
    "subTitle": "भाग्य शिक्षण केन्द्र",
    "price": null,
    "categoryName": "Special education school",
    "address": "MCCJ+QGX, Nagarkot Rd, Bhaktapur 44800, Nepal",
    "neighborhood": null,
    "street": "MCCJ+QGX, Nagarkot Rd",
    "city": "Bhaktapur",
    "postalCode": "44800",
    "state": null,
    "countryCode": "NP",
    "phone": "+977 981-8752166",
    "phoneUnformatted": "+9779818752166",
    "claimThisBusiness": true,
    "location": {
      "lat": 27.671988,
      "lng": 85.4313619
    },
    "permanentlyClosed": false,
    "temporarilyClosed": false,
    "placeId": "ChIJU4Agaa4a6zkRQFXzzHN9KdU",
    "categories": [
      "Special education school"
    ],
    "fid": "0x39eb1aae69208053:0xd5297d73ccf35540",
    "cid": "15359945940436997440",
    "reviewsCount": 0,
    "imagesCount": 3,
    "imageCategories": [],
    "scrapedAt": "2025-11-14T08:42:59.649Z",
    "googleFoodUrl": null,
    "hotelAds": [],
    "openingHours": [],
    "peopleAlsoSearch": [],
    "placesTags": [],
    "reviewsTags": [],
    "gasPrices": [],
    "url": "https://www.google.com/maps/search/?api=1&query=Destiny%20Tuition%20Centre&query_place_id=ChIJU4Agaa4a6zkRQFXzzHN9KdU",
    "searchPageUrl": "https://www.google.com/maps/search/school/@27.674599999999995,85.43729330118518,17z?hl=en",
    "searchString": "school",
    "language": "en",
    "rank": 58,
    "isAdvertisement": false,
    "imageUrl": "https://lh3.googleusercontent.com/gps-proxy/ALd4DhFsS7f2Q3J232Iap5w0qGnxWNpaiwmG6VNO6g0tIiwhadTD9KLWHvVvLHnawXhBzAtzSK6Nw1CLSBJgAUDWHA2sAWUbOtl0u35QUAuxkaz6zF5_M1q30WTyApl4f8kznqWWQCgB91hqGbmM_q5k-d7CXaMbLXFVPDICVb78lpgOEdu6yRAZtdDKHT6B5NWIMtTn68g=w408-h306-k-no",
    "kgmid": "/g/11b6r_dthj"
  }
]